Latitude,Longitude,Time,Date,Number of Sats,GPS Speed (Kn),GPS True Heading,GPS Magnetic Variation,HDOP,C Magnetic Heading,C True Heading,Pitch Angle,Roll Angle,C Inside Temp (c),DFS Depth (m),DTB Height (m),Total Water Column (m),Batt Percent,Power Watts,Watt-Hours,Batt Volts,Batt Ampers,Batt State,Time to Empty,Current Step,Dist To Next (m),Next Speed (kn),Vehicle Speed (kn),Motor Speed CMD,Next Heading,Next Long,Next Lat,Next Depth (m),Depth Goal (m),Vehicle State,Error State,Distance to Track (m),Fin Pitch R,Fin Pitch L,Pitch Goal,Fin Yaw T,Fin Yaw B,Yaw Goal,Fin Roll,DVL-Depth (m),DVL -Altitude (m),DVL -Water Column (m),DVL-FixType,DVL-FixQuality,DVL-Temperature,Conductivity (mmhos/cm),Temperature (c),Salinity (ppt),Sound Speed (m/s),Date m/d/y   ,Time hh:mm:ss,Temp C,SpCond mS/cm,Sal ppt,Depth feet,pH,pH mV,Turbid+ NTU,Chl ug/L,BGA-PC cells/mL,ODOsat %,ODO mg/L,Battery volts,ROSEM Command Type
25.91218133,-80.13745333,06:11.7,9/18/20,10,0.031,159.44,-7.021401481,0.9,147.1,137.8,0.82,-2.86,35.8,0,4.22,4.23,91,21,494.4,16.1,-1.3,D,1551,0,75.442,2,0.05,128,334.82,-80.13777424,25.91279533,0,0,1,N,3.158372,62,62,11,5,5,330.7705,0,9999.99,4.24,4.367,2,9,31.8,0,31.79999924,26.7,1540.52925,9/18/20,11:46:27,30.62,41.86,26.7,0.948,8.29,-77.4,-3.3,-6.3,-790,77.8,5.03,13.2,
25.91218139,-80.13745367,06:12.7,9/18/20,10,0.054,159.44,-7.021401481,0.9,147.8,138.47,1.29,-3.56,35.8,0,4.21,4.22,91,21,494.4,16.1,-1.3,D,1551,0,75.422,2,0.08,174,334.84,-80.13777424,25.91279533,0,0,1,N,3.127634,63,63,11,5,5,334.8445,0,9999.99,4.22,4.347,0,0,31.8,0,31.79999924,26.69,1540.51896,9/18/20,11:46:28,30.62,41.85,26.69,0.965,8.31,-78.8,-3.8,-7.1,-2472,77.9,5.03,12.9,
25.91218164,-80.13745402,06:13.8,9/18/20,9,0.12,159.44,-7.021401481,0.99,144.8,135.63,1.86,1.75,35.8,0,4.22,4.23,91,21,494.4,16.1,-1.3,D,1551,0,75.382,2,0.09,128,334.86,-80.13777424,25.91279533,0,0,1,N,3.127634,90,90,11,123,123,334.8592,0,9999.99,4.24,4.367,0,0,31.8,0,31.79999924,26.7,1540.52924,9/18/20,11:46:29,30.62,41.86,26.7,0.955,8.31,-78.9,-4.9,-1,-964,78,5.04,13.1,
25.9121805,-80.13745237,06:14.7,9/18/20,9,0.539,159.44,-7.021401481,0.99,146.5,137.24,0.99,-4.21,35.7,0,4.2,4.2,91,21,494.4,16.1,-1.3,D,1551,0,75.567,2,0.07,128,334.79,-80.13777424,25.91279533,0,0,1,N,3.127634,90,90,11,123,123,334.7881,0,9999.99,4.21,4.337,2,9,31.8,0,31.79999924,26.69,1540.5188,9/18/20,11:46:30,30.62,41.85,26.69,0.986,8.31,-78.7,-5.3,-1.6,-3313,77.9,5.04,13.1,
25.91217779,-80.13745004,06:15.7,9/18/20,9,0.84,148.59,-7.021401481,0.99,144.6,135.44,1.11,-0.01,35.7,0,4.2,4.2,91,37,494.5,16.1,-2.3,D,878.7,0,75.939,2,0.29,128,334.72,-80.13777424,25.91279533,0,0,1,N,3.127634,90,90,11,123,123,334.7293,0,9999.99,4.21,4.337,2,9,31.8,0,31.79999924,26.69,1540.51866,9/18/20,11:46:31,30.62,41.85,26.69,1.045,8.31,-78.7,-4.5,-8.4,-336,77.9,5.04,13.2,
25.91217314,-80.13744623,06:16.8,9/18/20,9,1.198,145.96,-7.021401481,0.99,142.3,133.28,0.84,-1.37,35.8,0,4.21,4.21,91,37,494.5,16.1,-2.3,D,878.7,0,76.569,2,0.6,128,334.63,-80.13777424,25.91279533,0,0,1,N,3.127634,90,90,11,123,123,334.6435,0,9999.99,4.22,4.347,2,9,31.8,0,31.79999924,26.69,1540.51864,9/18/20,11:46:32,30.62,41.85,26.69,0.957,8.31,-78.4,-3.7,-2.8,-1198,78,5.04,13.1,
25.91216813,-80.13744107,06:17.8,9/18/20,9,1.406,141.01,-7.021401481,0.99,137.5,128.78,0.57,0.78,35.7,0,4.24,4.24,91,37,494.5,16.1,-2.3,D,878.7,2,12.875,2,0.9,128,336.97,-80.13749144,25.91227469,0,0,1,N,1.548368,90,90,11,123,123,6.230633,0,9999.99,4.24,4.367,2,9,31.8,0,31.79999924,26.72,1540.54967,9/18/20,11:46:33,30.62,41.89,26.72,1.028,8.31,-78.9,-4.5,0.4,-4029,78,5.04,13.1,
25.9121629,-80.13743539,06:18.8,9/18/20,9,1.612,138.07,-7.021401481,0.99,130,121.8,1.99,2.25,35.8,0.01,4.26,4.26,91,39,494.5,16.1,-2.4,D,848.7,2,13.636,2,1.07,128,335.73,-80.13749144,25.91227469,0,0,1,N,1.359771,90,90,11,123,123,334.8826,0,9999.99,4.27,4.397,2,9,31.8,0,31.79999924,26.73,1540.56011,9/18/20,11:46:34,30.63,41.91,26.73,1.002,8.32,-79.1,-4.8,-1.3,-3710,78,5.04,13.2,
25.91215838,-80.13742835,06:19.8,9/18/20,10,1.49,133.65,-7.021401481,0.99,121.9,114.3,2.13,1.99,35.8,0.01,4.26,4.27,91,39,494.5,16.1,-2.4,D,848.7,2,14.391,2,1.23,128,333.99,-80.13749144,25.91227469,0,0,1,N,1.007744,90,90,11,123,123,333.4375,0,9999.99,4.28,4.407,2,9,31.8,0,31.79999924,26.77,1540.6015,9/18/20,11:46:35,30.65,41.96,26.77,0.959,8.31,-78.7,-4.9,-1.8,-3138,78,5.04,13.1,
25.91215474,-80.1374213,06:20.9,9/18/20,10,1.571,126.36,-7.021401481,0.99,111.4,104.58,2.26,0.63,35.7,0,4.29,4.29,91,39,494.5,16.1,-2.4,D,848.7,2,15.07,2,1.35,128,332.26,-80.13749144,25.91227469,0,0,1,N,0.6186883,90,90,11,123,123,332.0647,0,9999.99,4.31,4.437,2,9,31.8,0,31.79999924,26.83,1540.66282,9/18/20,11:46:37,30.7,42.05,26.83,0.972,8.31,-78.8,-3,-4.2,-2323,78.1,5.04,13,
25.91215231,-80.13741365,06:21.9,9/18/20,10,1.539,119.68,-7.021401481,0.99,101.5,95.4,2.68,-0.24,35.8,0,4.31,4.31,91,39,494.5,16.1,-2.4,D,848.7,2,15.675,2,1.44,128,330.24,-80.13749144,25.91227469,0,0,1,N,0.1028148,90,90,11,123,123,330.4561,0,9999.99,4.33,4.457,2,9,31.8,0,31.79999924,26.88,1540.71443,9/18/20,11:46:38,30.72,42.12,26.88,0.972,8.31,-78.9,-4.8,-2.3,-1783,78.2,5.04,13,
25.91215117,-80.13740587,06:22.9,9/18/20,10,1.57,110.58,-7.021401481,0.99,91.5,86.04,2.16,2.41,35.7,0.01,4.33,4.34,91,37,494.6,16.1,-2.2,D,897.7,2,16.183,2,1.5,128,328.07,-80.13749144,25.91227469,0,0,1,N,0.4970656,90,90,11,123,123,328.7351,0,9999.99,4.36,4.487,2,9,31.8,0,31.79999924,26.88,1540.71443,9/18/20,11:46:38,30.72,42.12,26.88,0.972,8.31,-78.9,-4.8,-2.3,-1783,78.2,5.04,13,
25.91215143,-80.13739832,06:23.9,9/18/20,10,1.619,98.97,-7.021401481,0.99,81.4,76.47,1.63,-5.36,35.8,0.01,4.38,4.39,91,30,494.6,16.1,-1.8,D,1096.1,2,16.571,2,1.52,128,325.8,-80.13749144,25.91227469,0,0,1,N,1.148671,90,90,11,123,123,326.9578,0,9999.99,4.4,4.527,2,9,31.8,0,31.79999924,26.9,1540.73538,9/18/20,11:46:39,30.77,42.14,26.9,0.97,8.31,-78.7,-4.1,-2.6,-1618,78.3,5.04,13.2,
25.91215204,-80.13739229,06:24.9,9/18/20,10,1.186,94.84,-7.021401481,0.99,73.3,68.7,2.73,-0.7,35.7,0,4.44,4.44,91,30,494.6,16.1,-1.8,D,1096.1,2,16.863,2,1.41,128,323.98,-80.13749144,25.91227469,0,0,1,N,1.735053,90,90,11,123,123,325.4129,0,9999.99,4.45,4.577,2,9,31.8,0,31.79999924,26.9,1540.73494,9/18/20,11:46:41,30.83,42.14,26.9,0.944,8.31,-78.8,-4.6,-1.5,-1346,78.3,5.04,13.1,
25.91215415,-80.13738701,06:25.9,9/18/20,10,0.874,81.96,-7.021401481,0.99,65.4,61.03,1.89,0.11,35.7,0,4.43,4.44,91,30,494.6,16.1,-1.8,D,1096.1,2,16.992,2,1.25,128,322.07,-80.13749144,25.91227469,0,0,1,N,2.318973,68,68,11,5,5,323.8576,0,9999.99,4.46,4.587,2,9,31.8,0,31.79999924,26.9,1540.73494,9/18/20,11:46:41,30.83,42.14,26.9,0.944,8.31,-78.8,-4.6,-1.5,-1346,78.3,5.04,13.1,
25.91215701,-80.13738391,06:26.9,9/18/20,10,0.796,64.05,-7.021401481,0.99,59.8,55.54,1.95,-1.23,35.7,0,4.43,4.44,91,30,494.6,16.1,-1.8,D,1096.1,2,16.938,2,1.13,128,320.59,-80.13749144,25.91227469,0,0,1,N,2.752468,69,69,11,5,5,322.6384,0,9999.99,4.45,4.577,2,9,31.8,0,31.79999924,26.88,1540.71443,9/18/20,11:46:42,30.85,42.12,26.88,0.958,8.32,-79.2,-3.5,-4.7,-3147,78.3,5.04,13.1,
25.91215993,-80.13738215,06:27.9,9/18/20,10,0.677,64.05,-7.021401481,0.99,53.5,49.31,1.27,-1.2,35.8,0,4.44,4.45,91,23,494.7,16.1,-1.4,D,1424.3,2,16.803,2,1,128,319.42,-80.13749144,25.91227469,0,0,1,N,3.077201,90,90,11,123,123,321.663,0,9999.99,4.46,4.587,2,9,31.8,0,31.79999924,26.85,1540.68353,9/18/20,11:46:44,30.86,42.08,26.85,0.932,8.28,-76.8,-3.4,-2.8,-4931,78.4,5.04,13,
25.91216217,-80.13737963,06:28.9,9/18/20,10,0.637,64.05,-7.021401481,0.99,47.3,43.12,1.26,-2.12,35.8,0,4.45,4.45,91,23,494.7,16.1,-1.4,D,1424.3,2,16.781,2,0.91,128,318.21,-80.13749144,25.91227469,0,0,1,N,3.425833,66,66,11,5,5,320.6632,0,9999.99,4.46,4.587,2,9,31.8,0,31.79999924,26.85,1540.68353,9/18/20,11:46:44,30.86,42.08,26.85,0.932,8.28,-76.8,-3.4,-2.8,-4931,78.4,5.04,13,
25.91216471,-80.1373766,06:29.9,9/18/20,10,0.654,58.11,-7.021401481,0.9,42.4,38.2,1.92,-3,35.7,0,4.45,4.45,91,22,494.7,16.1,-1.4,D,1455.4,2,16.778,2,0.81,128,316.8,-80.13749144,25.91227469,0,0,1,N,3.836229,69,69,11,5,5,319.4881,0,9999.99,4.46,4.587,2,9,31.8,0,31.79999924,26.85,1540.68333,9/18/20,11:46:45,30.86,42.08,26.85,0.932,8.31,-79,-4,-7.8,-951,78.4,5.04,13.1,
25.91216721,-80.13737421,06:30.9,9/18/20,10,0.622,58.11,-7.021401481,0.9,37.4,33.16,1.72,-2.52,35.8,0,4.47,4.47,91,22,494.7,16.1,-1.4,D,1455.4,2,16.742,2,0.77,128,315.55,-80.13749144,25.91227469,0,0,1,N,4.181469,68,68,11,5,5,318.4655,0,9999.99,4.48,4.607,2,9,31.9,0,31.89999962,26.83,1540.86255,9/18/20,11:46:47,30.87,42.05,26.83,0.924,8.32,-79.3,-3.7,-3.3,-1432,78.5,5.05,13.2,
25.91216967,-80.13737195,06:31.9,9/18/20,10,0.65,58.11,-7.021401481,0.9,34.2,29.91,1.72,-2.13,35.8,0,4.46,4.47,91,22,494.7,16.1,-1.4,D,1455.4,2,16.709,2,0.71,128,314.34,-80.13749144,25.91227469,0,0,1,N,4.522883,67,67,11,5,5,317.4335,0,9999.99,4.48,4.607,2,9,31.9,0,31.89999962,26.83,1540.86255,9/18/20,11:46:47,30.87,42.05,26.83,0.924,8.32,-79.3,-3.7,-3.3,-1432,78.5,5.05,13.2,
25.91217233,-80.13736973,06:32.9,9/18/20,10,0.597,58.11,-7.021401481,1.01,30.2,25.85,1.44,-4.23,35.8,0,4.48,4.48,91,22,494.7,16.1,-1.3,D,1475.1,2,16.665,2,0.65,128,313.08,-80.13749144,25.91227469,0,0,1,N,4.8667,66,66,11,5,5,316.3702,0,9999.99,4.49,4.617,2,9,31.9,0,31.89999962,26.83,1540.86289,9/18/20,11:46:48,30.88,42.05,26.83,0.937,8.27,-76.5,-3.9,0.3,-2843,78.6,5.05,12.9,
25.91217489,-80.13736746,06:33.9,9/18/20,10,0.661,40.94,-7.021401481,0.9,24.1,19.64,1.28,-6.81,35.8,0,4.46,4.46,91,22,494.7,16.1,-1.3,D,1475.1,2,16.641,2,0.61,128,311.83,-80.13749144,25.91227469,0,0,1,N,5.210292,65,65,11,5,5,315.3093,0,9999.99,4.47,4.597,2,9,31.9,0,31.89999962,26.81,1540.84201,9/18/20,11:46:50,30.88,42.03,26.81,0.952,8.32,-79.5,-5.8,-2.7,-2654,78.6,5.06,13.1,
25.91217724,-80.13736616,06:34.9,9/18/20,10,0.524,40.94,-7.021401481,0.9,20.8,16.27,1,-2.09,35.8,0,4.46,4.46,91,22,494.7,16.1,-1.3,D,1500.8,2,16.566,2,0.59,128,310.85,-80.13749144,25.91227469,0,0,1,N,5.455538,65,65,11,5,5,314.4755,0,9999.99,4.47,4.597,2,9,31.9,0,31.89999962,26.81,1540.84201,9/18/20,11:46:50,30.88,42.03,26.81,0.952,8.32,-79.5,-5.8,-2.7,-2654,78.6,5.06,13.1,
25.91218016,-80.13736572,06:35.9,9/18/20,10,0.618,40.94,-7.021401481,0.9,17.6,12.99,1.44,-7.65,35.7,0,4.45,4.45,91,22,494.7,16.1,-1.3,D,1500.8,2,16.389,2,0.55,128,309.9,-80.13749144,25.91227469,0,0,1,N,5.656716,66,66,11,5,5,313.6384,0,9999.99,4.46,4.587,2,9,31.9,0,31.89999962,26.81,1540.84203,9/18/20,11:46:51,30.88,42.02,26.81,0.939,8.32,-79.1,-3.6,-4.4,-1713,78.7,5.06,13.1,
25.91218245,-80.13736512,06:36.9,9/18/20,10,0.375,40.94,-7.021401481,0.9,14.5,9.82,0.88,-3.11,35.7,0,4.45,4.45,91,22,494.7,16.1,-1.3,D,1500.8,2,16.273,2,0.53,128,309.07,-80.13749144,25.91227469,0,0,1,N,5.837711,62,62,11,5,5,312.9151,0,9999.99,4.46,4.587,2,9,31.9,0,31.89999962,26.8,1540.83174,9/18/20,11:46:53,30.88,42.01,26.8,0.955,8.32,-79.3,-6,-1.1,-2976,78.8,5.07,13.2,
25.91218492,-80.13736482,06:37.9,9/18/20,10,0.491,40.94,-7.021401481,0.9,12.3,7.57,1.87,-4.32,35.8,0,4.44,4.44,91,22,494.7,16.1,-1.3,D,1500.8,2,16.125,2,0.5,128,308.24,-80.13749144,25.91227469,0,0,1,N,6.000458,66,66,11,5,5,312.1912,0,9999.99,4.45,4.577,2,9,31.9,0,31.89999962,26.8,1540.83174,9/18/20,11:46:53,30.88,42.01,26.8,0.955,8.32,-79.3,-6,-1.1,-2976,78.8,5.07,13.2,
25.91218769,-80.1373646,06:38.9,9/18/20,10,0.584,40.94,-7.021401481,0.9,8,3.17,1.43,-6.5,35.8,0,4.45,4.45,91,22,494.8,16.1,-1.4,D,1455.3,2,15.953,2,0.51,128,307.33,-80.13749144,25.91227469,0,0,1,N,6.176701,66,66,11,5,5,311.3585,0,9999.99,4.46,4.587,2,9,31.9,0,31.89999962,26.8,1540.83172,9/18/20,11:46:54,30.89,42.01,26.8,0.934,8.32,-79.5,-4.6,-1.2,-1718,78.8,5.07,13.1,
25.91218975,-80.13736407,06:39.9,9/18/20,10,0.459,40.94,-7.021401481,0.9,7.1,2.25,0.92,-4.85,35.8,0,4.44,4.44,91,22,494.8,16.1,-1.4,D,1455.3,2,15.859,2,0.48,128,306.56,-80.13749144,25.91227469,0,0,1,N,6.334779,63,63,11,5,5,310.677,0,9999.99,4.45,4.577,2,9,31.9,0,31.89999962,26.8,1540.8318,9/18/20,11:46:56,30.89,42.01,26.8,0.936,8.28,-76.8,-4.2,-6.8,-3121,79,5.08,13,
25.91219179,-80.13736293,06:40.9,9/18/20,10,0.382,40.94,-7.021401481,0.9,5.1,0.2,1.15,-5.23,35.7,0,4.45,4.45,91,22,494.8,16.1,-1.4,D,1455.3,2,15.817,2,0.48,128,305.65,-80.13749144,25.91227469,0,0,1,N,6.54848,62,62,11,5,5,309.8629,0,9999.99,4.46,4.587,2,9,31.9,0,31.89999962,26.8,1540.8318,9/18/20,11:46:56,30.89,42.01,26.8,0.936,8.28,-76.8,-4.2,-6.8,-3121,79,5.08,13,
25.91219353,-80.13736174,06:41.9,9/18/20,10,0.444,40.94,-7.021401481,0.9,4.2,359.28,1.44,-3.82,35.7,0,4.45,4.45,91,22,494.8,16.1,-1.3,D,1492.1,2,15.802,2,0.47,128,304.82,-80.13749144,25.91227469,0,0,1,N,6.748243,64,64,11,5,5,309.1295,0,9999.99,4.46,4.587,2,9,31.9,0,31.89999962,26.81,1540.84248,9/18/20,11:46:57,30.89,42.02,26.81,0.967,8.32,-79.4,-5.7,-1.1,-2052,79,5.08,13.1,
25.91219575,-80.13736157,06:43.0,9/18/20,10,0.477,40.94,-7.021401481,0.9,4.9,360,1.51,-2.54,35.7,0,4.45,4.45,91,22,494.8,16.1,-1.3,D,1492.1,2,15.677,2,0.47,128,304.05,-80.13749144,25.91227469,0,0,1,N,6.883686,90,90,11,123,123,308.4239,0,9999.99,4.46,4.587,2,9,31.9,0,31.89999962,26.81,1540.84217,9/18/20,11:46:59,30.88,42.02,26.81,0.952,8.32,-79.2,-4.2,0.3,-1969,79,5.08,13.1,
25.91219853,-80.13736169,06:44.0,9/18/20,10,0.508,40.94,-7.021401481,0.9,0.7,355.7,1.25,-4.15,35.7,0,4.46,4.46,91,22,494.8,16.1,-1.3,D,1492.1,2,15.496,2,0.48,128,303.13,-80.13749144,25.91227469,0,0,1,N,7.031252,90,90,11,123,123,307.5417,0,9999.99,4.47,4.597,2,9,31.9,0,31.89999962,26.81,1540.84217,9/18/20,11:46:59,30.88,42.02,26.81,0.952,8.32,-79.2,-4.2,0.3,-1969,79,5.08,13.1,
25.91220099,-80.13736136,06:45.0,9/18/20,9,0.539,40.94,-7.021401481,0.93,0,354.98,1.43,-3.59,35.7,0,4.45,4.45,91,22,494.8,16.1,-1.3,D,1492.1,2,15.376,2,0.45,128,302.21,-80.13749144,25.91227469,0,0,1,N,7.196527,90,90,11,123,123,306.6726,0,9999.99,4.46,4.587,2,9,31.9,0,31.89999962,26.81,1540.84207,9/18/20,11:47:00,30.88,42.02,26.81,0.953,8.28,-76.9,-4,-3.1,-3281,79,5.08,13.1,
25.9122033,-80.13736129,06:46.0,9/18/20,10,0.412,40.94,-7.021401481,0.93,356.7,351.61,1.01,-4.81,35.7,0,4.44,4.44,91,22,494.8,16.1,-1.3,D,1490.9,2,15.247,2,0.44,128,301.37,-80.13749144,25.91227469,0,0,1,N,7.332249,63,63,11,5,5,305.8716,0,9999.99,4.45,4.577,2,9,31.9,0,31.89999962,26.8,1540.83173,9/18/20,11:47:02,30.88,42.01,26.8,0.939,8.32,-79.6,-4.1,-3.7,-2815,79.1,5.08,13.1,
25.91220514,-80.13736142,06:47.0,9/18/20,10,0.322,40.94,-7.021401481,0.93,355.1,349.98,1.01,-4.02,35.7,0,4.45,4.45,91,22,494.8,16.1,-1.3,D,1490.9,2,15.13,2,0.43,128,300.74,-80.13749144,25.91227469,0,0,1,N,7.42263,90,90,11,123,123,305.2502,0,9999.99,4.46,4.587,2,9,31.9,0,31.89999962,26.8,1540.83173,9/18/20,11:47:02,30.88,42.01,26.8,0.939,8.32,-79.6,-4.1,-3.7,-2815,79.1,5.08,13.1,
25.91220713,-80.13736194,06:48.0,9/18/20,10,0.397,40.94,-7.021401481,0.93,353.4,348.24,1.56,-5.41,35.7,0,4.44,4.44,91,22,494.8,16.1,-1.3,D,1490.9,2,14.973,2,0.43,128,300.12,-80.13749144,25.91227469,0,0,1,N,7.487235,66,66,11,5,5,304.6211,0,9999.99,4.45,4.577,2,9,31.9,0,31.89999962,26.8,1540.83188,9/18/20,11:47:03,30.89,42.01,26.8,0.956,8.32,-79.3,-5.4,-3,-3635,79,5.08,13.1,
25.91220922,-80.13736258,06:49.0,9/18/20,10,0.429,40.94,-7.021401481,0.93,352,346.81,0.9,-3.96,35.7,0,4.44,4.44,91,22,494.8,16.1,-1.3,D,1502.8,2,14.802,2,0.41,128,299.46,-80.13749144,25.91227469,0,0,1,N,7.547362,90,90,11,123,123,303.9557,0,9999.99,4.45,4.577,2,9,31.9,0,31.89999962,26.81,1540.84206,9/18/20,11:47:05,30.89,42.02,26.81,0.943,8.32,-79.3,-4.9,-2.7,-2501,79.1,5.08,13.1,
25.91221123,-80.13736329,06:50.0,9/18/20,10,0.438,40.94,-7.021401481,0.9,350.8,345.59,1.17,-4.36,35.7,0,4.43,4.43,91,22,494.8,16.1,-1.3,D,1502.8,2,14.632,2,0.42,128,298.83,-80.13749144,25.91227469,0,0,1,N,7.599039,90,90,11,123,123,303.2921,0,9999.99,4.44,4.567,2,9,31.9,0,31.89999962,26.81,1540.84206,9/18/20,11:47:05,30.89,42.02,26.81,0.943,8.32,-79.3,-4.9,-2.7,-2501,79.1,5.08,13.1,
25.91221334,-80.13736318,06:51.0,9/18/20,10,0.321,40.94,-7.021401481,0.9,348.7,343.44,1.32,-4.18,35.7,0,4.42,4.42,91,22,494.8,16.1,-1.3,D,1502.8,2,14.529,2,0.39,128,298,-80.13749144,25.91227469,0,0,1,N,7.725135,90,90,11,123,123,302.4553,0,9999.99,4.43,4.557,2,9,31.9,0,31.89999962,26.81,1540.84204,9/18/20,11:47:06,30.89,42.02,26.81,0.955,8.32,-79.3,-5.6,-4.4,-32,79.1,5.09,13,
25.91221518,-80.13736294,06:52.0,9/18/20,9,0.312,40.94,-7.021401481,0.93,348.5,343.24,0.96,-3.32,35.7,0,4.44,4.44,91,22,494.8,16.1,-1.3,D,1502.8,2,14.456,2,0.4,128,297.24,-80.13749144,25.91227469,0,0,1,N,7.849354,90,90,11,123,123,301.674,0,9999.99,4.45,4.577,2,9,31.9,0,31.89999962,26.81,1540.84215,9/18/20,11:47:08,30.88,42.03,26.81,0.951,8.32,-79.4,-4.9,-2.2,-2644,79.1,5.09,13,
25.91221713,-80.13736341,06:53.1,9/18/20,9,0.442,40.94,-7.021401481,0.93,347.1,341.81,1.59,-2.99,35.7,0,4.41,4.41,91,22,494.9,16.1,-1.3,D,1508.2,2,14.315,2,0.39,128,296.56,-80.13749144,25.91227469,0,0,1,N,7.916216,90,90,11,123,123,300.9376,0,9999.99,4.42,4.547,2,9,31.9,0,31.89999962,26.81,1540.84215,9/18/20,11:47:08,30.88,42.03,26.81,0.951,8.32,-79.4,-4.9,-2.2,-2644,79.1,5.09,13,
25.91221861,-80.13736374,06:54.1,9/18/20,9,0.189,40.94,-7.021401481,0.93,346.1,340.79,1.53,-0.44,35.8,0,4.41,4.41,91,22,494.9,16.1,-1.3,D,1508.2,2,14.213,2,0.37,128,296.03,-80.13749144,25.91227469,0,0,1,N,7.969799,90,90,11,123,123,300.36,0,9999.99,4.42,4.547,2,9,31.9,0,31.89999962,26.81,1540.84203,9/18/20,11:47:09,30.88,42.03,26.81,0.949,8.32,-79.6,-4.6,-6.6,-753,79.2,5.09,13.1,
25.91222078,-80.13736506,06:55.1,9/18/20,9,0.508,40.94,-7.021401481,0.93,344.9,339.57,1.2,-2.37,35.8,0,4.4,4.4,91,22,494.9,16.1,-1.3,D,1508.2,2,13.989,2,0.4,128,295.37,-80.13749144,25.91227469,0,0,1,N,7.975465,64,64,11,5,5,299.6008,0,9999.99,4.41,4.537,2,9,31.9,0,31.89999962,26.81,1540.84227,9/18/20,11:47:11,30.89,42.02,26.81,0.935,8.32,-79.3,-4.4,-4.5,-1320,79.2,5.1,13.1,
25.91222282,-80.13736605,06:56.1,9/18/20,9,0.414,40.94,-7.021401481,0.93,342.5,337.13,1.36,-3.87,35.7,0,4.41,4.41,91,23,494.9,16.1,-1.4,D,1391.2,2,13.804,2,0.44,128,294.7,-80.13749144,25.91227469,0,0,1,N,8.003136,90,90,11,123,123,298.823,0,9999.99,4.42,4.547,2,9,31.9,0,31.89999962,26.81,1540.84227,9/18/20,11:47:11,30.89,42.02,26.81,0.935,8.32,-79.3,-4.4,-4.5,-1320,79.2,5.1,13.1,
25.91222652,-80.13736768,06:57.1,9/18/20,9,0.65,7.97,-7.021401481,0.93,340.3,334.89,1.31,-3.33,35.8,0,4.4,4.4,91,23,494.9,16.1,-1.4,D,1391.2,2,13.487,2,0.48,128,293.4,-80.13749144,25.91227469,0,0,1,N,8.066455,90,90,11,123,123,297.291,0,9999.99,4.41,4.537,2,9,31.9,0,31.89999962,26.81,1540.84208,9/18/20,11:47:12,30.89,42.02,26.81,0.95,8.32,-79.5,-5.2,-0.4,-299,79.2,5.09,12.9,
25.91222962,-80.13736919,06:58.1,9/18/20,10,0.719,353.99,-7.021401481,0.93,338.7,333.27,1.65,-3.93,35.7,0,4.4,4.4,91,23,494.9,16.1,-1.4,D,1391.2,2,13.214,2,0.53,128,292.29,-80.13749144,25.91227469,0,0,1,N,8.107971,90,90,11,123,123,295.9312,0,9999.99,4.41,4.537,2,9,31.9,0,31.89999962,26.82,1540.85229,9/18/20,11:47:14,30.89,42.04,26.82,0.932,8.32,-79.3,-4.9,-2,-1864,79.2,5.09,13.1,
25.91223209,-80.13737062,06:59.1,9/18/20,9,0.514,353.99,-7.021401481,0.93,336.5,331.03,1.26,-3.13,35.7,0,4.4,4.4,91,23,494.9,16.1,-1.4,D,1391.2,2,12.98,2,0.53,128,291.41,-80.13749144,25.91227469,0,0,1,N,8.12184,90,90,11,123,123,294.7879,0,9999.99,4.41,4.537,2,9,31.9,0,31.89999962,26.82,1540.85229,9/18/20,11:47:14,30.89,42.04,26.82,0.932,8.32,-79.3,-4.9,-2,-1864,79.2,5.09,13.1,
25.91223417,-80.13737184,07:00.1,9/18/20,10,0.491,353.99,-7.021401481,0.93,333.7,328.19,1.04,-3.44,35.7,0,4.39,4.39,91,22,494.9,16.1,-1.3,D,1482.1,3,28.144,2,0.52,128,185.85,-80.13740054,25.91198239,0,0,1,N,3.174788,90,90,11,123,123,206.7964,0,9999.99,4.4,4.527,2,9,31.9,0,31.89999962,26.82,1540.85257,9/18/20,11:47:15,30.89,42.04,26.82,0.949,8.32,-79.3,-4.9,-6.8,-2431,79.3,5.1,13.1,
25.91223651,-80.13737243,07:01.2,9/18/20,10,0.441,353.99,-7.021401481,0.93,331.3,325.76,1.59,-3.03,35.7,0,4.39,4.39,91,22,494.9,16.1,-1.3,D,1482.1,3,28.397,2,0.53,128,185.68,-80.13740054,25.91198239,0,0,1,N,10.32719,90,90,11,123,123,216.6099,0,9999.99,4.4,4.527,2,9,31.9,0,31.89999962,26.82,1540.85242,9/18/20,11:47:17,30.88,42.04,26.82,0.938,8.32,-79.3,-6.1,-1.2,-1191,79.3,5.1,13.2,
25.91223929,-80.13737328,07:02.2,9/18/20,10,0.566,353.99,-7.021401481,0.9,328.3,322.72,1.43,-2.49,35.7,0,4.39,4.39,91,22,494.9,16.1,-1.3,D,1482.1,3,28.696,2,0.51,128,185.45,-80.13740054,25.91198239,0,0,1,N,10.32889,90,90,11,123,123,216.6149,0,9999.99,4.4,4.527,2,9,31.9,0,31.89999962,26.82,1540.85242,9/18/20,11:47:17,30.88,42.04,26.82,0.938,8.32,-79.3,-6.1,-1.2,-1191,79.3,5.1,13.2,
25.9122414,-80.13737432,07:03.2,9/18/20,10,0.459,353.99,-7.021401481,0.9,326.1,320.49,1.3,-4.14,35.8,0,4.37,4.37,91,22,494.9,16.1,-1.4,D,1452.8,3,28.919,2,0.49,128,185.2,-80.13740054,25.91198239,0,0,1,N,10.29272,65,65,11,5,5,216.5175,0,9999.99,4.38,4.507,2,9,31.9,0,31.89999962,26.82,1540.85235,9/18/20,11:47:18,30.88,42.05,26.82,0.907,8.32,-79.2,-6,-6.6,-2556,79.2,5.1,13.2,
25.91224334,-80.13737539,07:04.2,9/18/20,10,0.44,353.99,-7.021401481,0.99,322.7,317.05,1.63,-4.49,35.8,0,4.39,4.39,91,22,494.9,16.1,-1.4,D,1452.8,3,29.126,2,0.48,128,184.95,-80.13740054,25.91198239,0,0,1,N,10.24902,67,67,11,5,5,216.3986,0,9999.99,4.4,4.527,2,9,31.9,0,31.89999962,26.83,1540.86269,9/18/20,11:47:19,30.88,42.05,26.83,0.919,8.32,-79.3,-4.3,-3.4,-629,79.2,5.09,13.1,
25.91224548,-80.13737677,07:05.3,9/18/20,10,0.525,353.99,-7.021401481,0.99,320.5,314.83,1.32,-2.78,35.7,0,4.39,4.39,91,22,494.9,16.1,-1.4,D,1452.8,3,29.351,2,0.47,128,184.65,-80.13740054,25.91198239,0,0,1,N,10.18425,65,65,11,5,5,216.2229,0,9999.99,4.4,4.527,2,9,31.9,0,31.89999962,26.84,1540.87321,9/18/20,11:47:21,30.87,42.07,26.84,0.904,8.32,-79.3,-5.7,-1,-2087,79.2,5.1,13.1,
25.912247,-80.13737783,07:06.4,9/18/20,10,0.352,353.99,-7.021401481,0.99,319.9,314.22,1.28,-1.74,35.7,0,4.39,4.39,91,22,494.9,16.1,-1.4,D,1452.8,3,29.554,2,0.45,128,184.31,-80.13740054,25.91198239,0,0,1,N,10.10616,65,65,11,5,5,216.0082,0,9999.99,4.4,4.527,2,9,31.9,0,31.89999962,26.84,1540.87321,9/18/20,11:47:21,30.87,42.07,26.84,0.904,8.32,-79.3,-5.7,-1,-2087,79.2,5.1,13.1,
25.91224917,-80.13737917,07:07.5,9/18/20,10,0.489,353.99,-7.021401481,0.99,316.3,310.58,1.38,-3.11,35.7,0,4.39,4.39,91,22,494.9,16.1,-1.3,D,1477.8,3,29.66,2,0.44,128,184.11,-80.13740054,25.91198239,0,0,1,N,10.0302,64,64,11,5,5,215.7961,0,9999.99,4.4,4.527,2,9,31.9,0,31.89999962,26.85,1540.88311,9/18/20,11:47:22,30.87,42.08,26.85,0.931,8.32,-79.2,-5.6,-2.3,-1294,79.2,5.1,13.1,
25.91225082,-80.13738049,07:08.5,9/18/20,10,0.346,353.99,-7.021401481,0.99,314.5,308.76,1.64,-2.64,35.7,0,4.38,4.38,91,22,494.9,16.1,-1.3,D,1477.8,3,29.916,2,0.42,128,183.84,-80.13740054,25.91198239,0,0,1,N,9.946924,67,67,11,5,5,215.5502,0,9999.99,4.39,4.517,2,9,31.9,0,31.89999962,26.86,1540.89342,9/18/20,11:47:24,30.86,42.09,26.86,0.926,8.32,-79.4,-4.4,-1.7,-1145,79.2,5.1,13,
25.9122525,-80.13738083,07:09.5,9/18/20,10,0.335,353.99,-7.021401481,0.99,311.7,305.93,1.54,-3.58,35.7,0,4.37,4.37,91,22,494.9,16.1,-1.3,D,1477.8,3,30.047,2,0.39,128,183.58,-80.13740054,25.91198239,0,0,1,N,9.894992,66,66,11,5,5,215.4175,0,9999.99,4.38,4.507,2,9,31.9,0,31.89999962,26.86,1540.89376,9/18/20,11:47:25,30.87,42.09,26.86,0.95,8.32,-79.4,-4.1,-2.9,-213,79.3,5.1,13.1,
25.91225466,-80.13738217,07:10.5,9/18/20,10,0.417,353.99,-7.021401481,0.99,310.8,305.02,1.79,-3.18,35.7,0,4.38,4.38,91,22,494.9,16.1,-1.3,D,1500.3,3,30.331,2,0.38,128,183.47,-80.13740054,25.91198239,0,0,1,N,9.89827,68,68,11,5,5,215.3971,0,9999.99,4.39,4.517,2,9,31.9,0,31.89999962,26.86,1540.89376,9/18/20,11:47:25,30.87,42.09,26.86,0.95,8.32,-79.4,-4.1,-2.9,-213,79.3,5.1,13.1,
25.91225663,-80.137384,07:11.5,9/18/20,10,0.489,353.99,-7.021401481,0.99,307.4,301.58,1.56,-5.64,35.7,0,4.38,4.38,91,22,494.9,16.1,-1.3,D,1500.3,3,30.539,2,0.39,128,183.11,-80.13740054,25.91198239,0,0,1,N,9.83179,66,66,11,5,5,215.2528,0,9999.99,4.39,4.517,2,9,31.9,0,31.89999962,26.86,1540.89342,9/18/20,11:47:26,30.87,42.09,26.86,0.921,8.32,-79.1,-4.8,-2.1,959,79.2,5.09,13.1,
25.91225783,-80.137386,07:12.5,9/18/20,10,0.476,353.99,-7.021401481,0.99,306.1,300.27,1.35,-2.79,35.7,0,4.39,4.39,91,22,494.9,16.1,-1.3,D,1500.3,3,30.66,2,0.43,128,182.82,-80.13740054,25.91198239,0,0,1,N,9.716518,90,90,11,123,123,214.9074,0,9999.99,4.4,4.527,2,9,31.9,0,31.89999962,26.86,1540.89348,9/18/20,11:47:28,30.86,42.1,26.86,0.929,8.32,-79.4,-4,-3,-403,79.3,5.1,12.9,
25.91225932,-80.13738871,07:13.5,9/18/20,10,0.474,353.99,-7.021401481,0.99,304,298.14,1.59,-3.51,35.7,0,4.38,4.38,91,22,494.9,16.1,-1.3,D,1500.3,3,30.816,2,0.47,128,182.2,-80.13740054,25.91198239,0,0,1,N,9.531649,66,66,11,5,5,214.4919,0,9999.99,4.39,4.517,2,9,31.9,0,31.89999962,26.86,1540.89348,9/18/20,11:47:28,30.86,42.1,26.86,0.929,8.32,-79.4,-4,-3,-403,79.3,5.1,12.9,
25.91226116,-80.1373916,07:14.5,9/18/20,10,0.492,353.99,-7.021401481,1.1,300.7,294.8,1.59,-3.55,35.6,0,4.37,4.37,91,24,494.9,16.1,-1.4,D,1378.8,3,31.011,2,0.49,128,181.65,-80.13740054,25.91198239,0,0,1,N,9.29694,67,67,11,5,5,213.7745,0,9999.99,4.38,4.507,2,9,31.9,0,31.89999962,26.87,1540.90368,9/18/20,11:47:29,30.85,42.1,26.87,0.947,8.32,-79.3,-5.3,0,-136,79.2,5.1,13.1,
25.91226313,-80.13739425,07:15.5,9/18/20,10,0.587,353.99,-7.021401481,1.1,296.1,290.14,1.78,-3.13,35.6,0,4.37,4.37,91,24,494.9,16.1,-1.4,D,1378.8,3,31.224,2,0.52,128,181.15,-80.13740054,25.91198239,0,0,1,N,9.050841,66,66,11,5,5,212.9303,0,9999.99,4.38,4.507,2,9,31.9,0,31.89999962,26.86,1540.89344,9/18/20,11:47:31,30.85,42.1,26.86,0.96,8.32,-79.4,-5.9,-5.7,-2096,79.2,5.09,13.1,
25.91226472,-80.13739689,07:16.5,9/18/20,10,0.463,353.99,-7.021401481,0.99,293.7,287.7,1.62,-4.22,35.6,0,4.36,4.36,91,24,494.9,16.1,-1.4,D,1378.8,3,31.397,2,0.47,128,180.67,-80.13740054,25.91198239,0,0,1,N,8.865637,90,90,11,123,123,212.3346,0,9999.99,4.37,4.497,2,9,31.9,0,31.89999962,26.86,1540.89344,9/18/20,11:47:31,30.85,42.1,26.86,0.96,8.32,-79.4,-5.9,-5.7,-2096,79.2,5.09,13.1,
25.91226623,-80.13739965,07:17.6,9/18/20,10,0.583,353.99,-7.021401481,1.1,290,283.93,1.67,-4.12,35.7,0,4.37,4.37,91,23,495,16.1,-1.4,D,1413.8,3,31.562,2,0.51,128,180.16,-80.13740054,25.91198239,0,0,1,N,8.617455,90,90,11,123,123,211.5038,0,9999.99,4.38,4.507,2,9,31.9,0,31.89999962,26.85,1540.88321,9/18/20,11:47:33,30.84,42.08,26.85,0.961,8.32,-79.3,-4.1,-5.9,55,79.2,5.09,13.1,
25.91226735,-80.13740228,07:18.6,9/18/20,9,0.593,353.99,-7.021401481,1.1,286.1,279.96,1.07,-3.66,35.7,0,4.37,4.37,91,23,495,16.1,-1.4,D,1413.8,3,31.687,2,0.54,128,179.69,-80.13740054,25.91198239,0,0,1,N,8.396824,90,90,11,123,123,210.7597,0,9999.99,4.38,4.507,2,9,31.9,0,31.89999962,26.85,1540.8832,9/18/20,11:47:34,30.83,42.08,26.85,0.921,8.31,-78.9,-3.5,-1.3,-3980,79.1,5.09,13.2,
25.91226871,-80.13740511,07:19.6,9/18/20,9,0.586,353.99,-7.021401481,1.1,282.4,276.18,1.69,-3.15,35.7,0,4.38,4.38,91,23,495,16.1,-1.4,D,1413.8,3,31.841,2,0.55,128,179.18,-80.13740054,25.91198239,0,0,1,N,8.166798,90,90,11,123,123,209.9673,0,9999.99,4.39,4.517,2,9,31.9,0,31.89999962,26.85,1540.88319,9/18/20,11:47:35,30.83,42.09,26.85,0.941,8.32,-79.3,-4.8,-5.2,-1414,79.1,5.09,13.1,
25.91226949,-80.13740772,07:20.7,9/18/20,8,0.586,353.99,-7.021401481,1.1,277.1,270.74,1.99,-4.11,35.7,0,4.38,4.38,91,23,495,16.1,-1.4,D,1413.8,3,31.933,2,0.58,128,178.71,-80.13740054,25.91198239,0,0,1,N,7.946282,90,90,11,123,123,209.1816,0,9999.99,4.39,4.517,2,9,31.9,0,31.89999962,26.82,1540.85242,9/18/20,11:47:36,30.82,42.04,26.82,0.945,8.32,-79.2,-4.3,-0.9,1946,79,5.09,12.9,
25.91227024,-80.13741028,07:21.7,9/18/20,8,0.558,353.99,-7.021401481,1.1,272.7,266.22,1.43,-1.7,35.7,0,4.36,4.36,91,23,495,16.1,-1.4,D,1400.2,3,32.023,2,0.57,128,178.26,-80.13740054,25.91198239,0,0,1,N,7.713601,90,90,11,123,123,208.3322,0,9999.99,4.37,4.497,2,9,31.9,0,31.89999962,26.79,1540.82166,9/18/20,11:47:37,30.8,41.99,26.79,0.924,8.32,-79.2,-3.9,-0.4,-1332,79,5.09,13.1,
25.91227169,-80.13741408,07:22.8,9/18/20,9,0.669,325.76,-7.021401481,1.1,269.6,263.02,1.92,-2.83,35.6,0,4.35,4.36,91,23,495,16.1,-1.4,D,1400.2,3,32.197,2,0.56,128,177.59,-80.13740054,25.91198239,0,0,1,N,7.404232,90,90,11,123,123,207.1577,0,9999.99,4.37,4.497,2,9,31.9,0,31.89999962,26.78,1540.8114,9/18/20,11:47:38,30.78,41.97,26.78,0.931,8.31,-79,-4.5,-3.6,-2980,79,5.09,13.1,
25.91227299,-80.13741754,07:23.8,9/18/20,9,0.575,325.76,-7.021401481,1.1,266,259.29,1.54,-3.26,35.7,0,4.39,4.39,91,23,495,16.1,-1.4,D,1400.2,3,32.358,2,0.55,128,176.99,-80.13740054,25.91198239,0,0,1,N,7.101129,90,90,11,123,123,205.9691,0,9999.99,4.4,4.527,2,9,31.9,0,31.89999962,26.77,1540.801,9/18/20,11:47:39,30.76,41.96,26.77,0.908,8.31,-79,-5,-8.4,-1022,79,5.09,13.1,
25.91227405,-80.13742066,07:24.8,9/18/20,9,0.646,325.76,-7.021401481,0.99,261,254.1,1.27,-3.18,35.7,0,4.37,4.37,91,24,495,16.1,-1.4,D,1379.6,3,32.494,2,0.54,128,176.45,-80.13740054,25.91198239,0,0,1,N,6.827913,65,65,11,5,5,204.8519,0,9999.99,4.38,4.507,2,9,31.9,0,31.89999962,26.74,1540.77004,9/18/20,11:47:40,30.74,41.93,26.74,0.947,8.32,-79.1,-4.7,-0.7,-717,78.9,5.09,13,
25.91227493,-80.13742417,07:25.8,9/18/20,9,0.681,308.13,-7.021401481,0.99,257,249.93,1.86,-0.2,35.6,0,4.37,4.37,91,24,495,16.1,-1.4,D,1379.6,3,32.615,2,0.55,128,175.84,-80.13740054,25.91198239,0,0,1,N,6.517521,68,68,11,5,5,203.549,0,9999.99,4.38,4.507,2,9,31.9,0,31.89999962,26.7,1540.72898,9/18/20,11:47:42,30.71,41.87,26.7,0.932,8.31,-78.9,-4.7,-4.2,-377,78.8,5.09,13.1,
25.91227552,-80.13742679,07:26.8,9/18/20,9,0.602,308.13,-7.021401481,0.99,252.9,245.65,1.25,-3.31,35.7,0,4.35,4.35,91,24,495,16.1,-1.4,D,1379.6,3,32.7,2,0.54,128,175.39,-80.13740054,25.91198239,0,0,1,N,6.286329,65,65,11,5,5,202.539,0,9999.99,4.37,4.497,2,9,31.9,0,31.89999962,26.7,1540.72898,9/18/20,11:47:42,30.71,41.87,26.7,0.932,8.31,-78.9,-4.7,-4.2,-377,78.8,5.09,13.1,
25.91227537,-80.13743043,07:27.9,9/18/20,9,0.544,308.13,-7.021401481,0.99,250.2,242.82,1.36,-4.72,35.6,0,4.37,4.37,91,24,495,16.1,-1.4,D,1379.6,3,32.715,2,0.52,128,174.76,-80.13740054,25.91198239,0,0,1,N,5.930778,90,90,11,123,123,200.9275,0,9999.99,4.38,4.507,2,9,31.9,0,31.89999962,26.68,1540.70835,9/18/20,11:47:44,30.66,41.84,26.68,0.948,8.32,-79,-4.9,-5.2,-2867,78.8,5.09,13,
25.91227469,-80.13743316,07:28.9,9/18/20,9,0.464,308.13,-7.021401481,0.99,246.1,238.52,1.57,-3.21,35.6,0,4.36,4.36,91,22,495,16.1,-1.4,D,1452.4,3,32.666,2,0.5,208,174.27,-80.13740054,25.91198239,0,0,1,N,5.645767,66,66,11,5,5,199.5818,0,9999.99,4.37,4.497,2,9,31.9,0,31.89999962,26.68,1540.70835,9/18/20,11:47:44,30.66,41.84,26.68,0.948,8.32,-79,-4.9,-5.2,-2867,78.8,5.09,13,
25.91227379,-80.13743543,07:29.9,9/18/20,9,0.454,308.13,-7.021401481,0.99,243.9,236.21,1.52,-3.76,35.6,0,4.34,4.34,91,22,495,16.1,-1.4,D,1452.4,3,32.589,2,0.47,208,173.85,-80.13740054,25.91198239,0,0,1,N,5.402115,66,66,11,5,5,198.4019,0,9999.99,4.36,4.487,2,9,31.9,0,31.89999962,26.69,1540.7187,9/18/20,11:47:46,30.64,41.85,26.69,0.929,8.31,-78.8,-4,-5.7,-2900,78.6,5.08,13.1,
25.91227309,-80.13743748,07:30.9,9/18/20,9,0.437,308.13,-7.021401481,0.99,241.1,233.27,1.48,-4.83,35.7,0,4.35,4.35,91,22,495,16.1,-1.4,D,1452.4,3,32.535,2,0.45,208,173.48,-80.13740054,25.91198239,0,0,1,N,5.178099,66,66,11,5,5,197.2824,0,9999.99,4.37,4.497,2,9,31.9,0,31.89999962,26.69,1540.7187,9/18/20,11:47:46,30.64,41.85,26.69,0.929,8.31,-78.8,-4,-5.7,-2900,78.6,5.08,13.1,
25.91227259,-80.13743972,07:31.9,9/18/20,9,0.454,308.13,-7.021401481,0.99,236.9,228.84,1.6,-3.5,35.6,0,4.35,4.35,91,22,495,16.1,-1.4,D,1462.6,3,32.506,2,0.42,208,173.08,-80.13740054,25.91198239,0,0,1,N,4.941035,67,67,11,5,5,196.0742,0,9999.99,4.36,4.487,2,9,31.9,0,31.89999962,26.66,1540.68782,9/18/20,11:47:47,30.63,41.81,26.66,0.916,8.27,-76.3,-4.3,-3.4,-5442,78.6,5.08,13.1,
25.91227222,-80.13744173,07:32.9,9/18/20,9,0.408,308.13,-7.021401481,0.99,233.9,225.68,1.35,-2.92,35.6,0,4.34,4.34,91,22,495,16.1,-1.4,D,1462.6,3,32.49,2,0.39,208,172.71,-80.13740054,25.91198239,0,0,1,N,4.73713,65,65,11,5,5,195.0033,0,9999.99,4.35,4.477,2,9,31.9,0,31.89999962,26.64,1540.66723,9/18/20,11:47:49,30.61,41.78,26.64,0.94,8.31,-78.9,-4.2,-1.7,-2957,78.5,5.07,13.1,
25.9122722,-80.13744346,07:33.9,9/18/20,10,0.419,308.13,-7.021401481,0.99,231.7,223.36,1.38,-5.02,35.6,0,4.35,4.35,91,22,495,16.1,-1.4,D,1462.6,3,32.51,2,0.36,128,172.41,-80.13740054,25.91198239,0,0,1,N,4.565606,65,65,11,10,10,194.0915,0,9999.99,4.36,4.487,2,9,31.9,0,31.89999962,26.64,1540.66723,9/18/20,11:47:49,30.61,41.78,26.64,0.94,8.31,-78.9,-4.2,-1.7,-2957,78.5,5.07,13.1,
25.91227136,-80.13744471,07:34.9,9/18/20,10,0.317,308.13,-7.021401481,0.99,226.6,217.99,1.72,-1.13,35.7,0,4.34,4.34,91,22,495,16.1,-1.4,D,1462.6,3,32.435,2,0.34,128,172.17,-80.13740054,25.91198239,0,0,1,N,4.417603,67,67,11,28,28,193.2828,0,9999.99,4.35,4.477,2,9,31.9,0,31.89999962,26.64,1540.66723,9/18/20,11:47:50,30.59,41.78,26.64,0.923,8.31,-78.8,-3.7,-6.4,-1471,78.5,5.08,13.1,
25.91227072,-80.13744615,07:35.9,9/18/20,10,0.298,308.13,-7.021401481,0.99,225.2,216.52,1.61,-4.38,35.7,0,4.34,4.35,91,22,495,16.1,-1.3,D,1481.5,3,32.384,2,0.31,128,171.9,-80.13740054,25.91198239,0,0,1,N,4.25802,67,67,11,37,37,192.3963,0,9999.99,4.36,4.487,2,9,31.9,0,31.89999962,26.64,1540.66729,9/18/20,11:47:52,30.58,41.78,26.64,0.94,8.31,-78.8,-3.7,-4.1,-1715,78.4,5.07,12.9,
25.91227063,-80.13744867,07:36.9,9/18/20,10,0.407,308.13,-7.021401481,0.99,223,214.2,1.54,-4.44,35.6,0,4.35,4.35,91,22,495,16.1,-1.3,D,1481.5,3,32.411,2,0.29,128,171.46,-80.13740054,25.91198239,0,0,1,N,4.012232,66,66,11,34,34,191.0095,0,9999.99,4.36,4.487,2,9,31.9,0,31.89999962,26.65,1540.67756,9/18/20,11:47:53,30.58,41.78,26.65,0.926,8.31,-78.8,-4.1,0,-2570,78.4,5.07,13.1,
25.91227011,-80.13745011,07:37.9,9/18/20,9,0.241,308.13,-7.021401481,0.99,220.4,211.46,1.29,-2.88,35.6,0,4.34,4.34,91,22,495,16.1,-1.3,D,1481.5,3,32.375,2,0.27,128,171.19,-80.13740054,25.91198239,0,0,1,N,3.855592,65,65,11,42,42,190.1067,0,9999.99,4.35,4.477,2,9,31.9,0,31.89999962,26.65,1540.67756,9/18/20,11:47:53,30.58,41.78,26.65,0.926,8.31,-78.8,-4.1,0,-2570,78.4,5.07,13.1,
25.91227003,-80.13745184,07:38.9,9/18/20,10,0.379,308.13,-7.021401481,0.9,219.8,210.83,2.39,-3.07,35.6,0,4.33,4.33,91,21,495,16.1,-1.3,D,1542.4,3,32.393,2,0.25,128,170.89,-80.13740054,25.91198239,0,0,1,N,3.685388,71,71,11,40,40,189.112,0,9999.99,4.34,4.467,2,9,31.8,0,31.79999924,26.65,1540.47748,9/18/20,11:47:54,30.57,41.78,26.65,0.936,8.31,-78.7,-3.6,-1.5,-2201,78.3,5.07,13.1,
25.91226902,-80.1374542,07:39.9,9/18/20,10,0.388,308.13,-7.021401481,0.9,216.1,206.95,2.05,-3.13,35.7,0,4.3,4.3,91,21,495,16.1,-1.3,D,1542.4,3,32.321,2,0.26,128,170.44,-80.13740054,25.91198239,0,0,1,N,3.428469,68,68,11,46,46,187.569,0,9999.99,4.32,4.447,2,9,31.9,0,31.89999962,26.65,1540.67769,9/18/20,11:47:56,30.57,41.78,26.65,0.948,8.31,-78.7,-3.4,-3.6,-636,78.2,5.06,12.9,
25.91226665,-80.13745684,07:40.9,9/18/20,10,0.525,308.13,-7.021401481,0.9,212.5,203.17,0.96,-2.27,35.6,0,4.3,4.3,91,25,495,16.1,-1.6,D,1287.2,3,32.106,2,0.31,128,169.9,-80.13740054,25.91198239,0,0,1,N,3.105253,63,63,11,57,57,185.5866,0,9999.99,4.31,4.437,2,9,31.8,0,31.89999962,26.65,1540.67769,9/18/20,11:47:56,30.57,41.78,26.65,0.948,8.31,-78.7,-3.4,-3.6,-636,78.2,5.06,12.9,
25.9122649,-80.13745843,07:41.9,9/18/20,10,0.437,308.13,-7.021401481,0.9,209.1,199.62,1.99,-2.47,35.6,0,4.26,4.26,91,25,495,16.1,-1.6,D,1287.2,3,31.943,2,0.38,128,169.56,-80.13740054,25.91198239,0,0,1,N,2.900361,69,69,11,66,66,184.3013,0,9999.99,4.27,4.397,2,9,31.8,0,31.79999924,26.64,1540.46721,9/18/20,11:47:57,30.57,41.77,26.64,0.994,8.31,-78.8,-5,-4,-1257,78.2,5.06,13.1,
25.91226241,-80.1374599,07:42.9,9/18/20,10,0.556,308.13,-7.021401481,0.9,204,194.31,1.42,-2.36,35.7,0,4.29,4.3,91,25,495,16.1,-1.6,D,1287.2,3,31.698,2,0.43,128,169.2,-80.13740054,25.91198239,0,0,1,N,2.684359,66,66,11,81,81,182.9228,0,9999.99,4.31,4.437,2,9,31.8,0,31.79999924,26.62,1540.44673,9/18/20,11:47:59,30.56,41.74,26.62,0.96,8.28,-77,-2.6,-2.3,-1741,78.1,5.06,13.2,
25.91226028,-80.13746113,07:43.9,9/18/20,10,0.476,308.13,-7.021401481,0.9,202.5,192.76,1.42,-1.75,35.7,0,4.3,4.3,91,25,495,16.1,-1.6,D,1287.2,3,31.488,2,0.46,128,168.9,-80.13740054,25.91198239,0,0,1,N,2.501947,66,66,11,83,83,181.7405,0,9999.99,4.31,4.437,2,9,31.8,0,31.79999924,26.62,1540.44673,9/18/20,11:47:59,30.56,41.74,26.62,0.96,8.28,-77,-2.6,-2.3,-1741,78.1,5.06,13.2,
25.91225809,-80.13746217,07:44.9,9/18/20,10,0.486,308.13,-7.021401481,0.9,198.2,188.31,1.38,-2.37,35.6,0,4.28,4.29,91,23,495,16.1,-1.4,D,1393.2,3,31.27,2,0.49,128,168.63,-80.13740054,25.91198239,0,0,1,N,2.334921,65,65,11,96,96,180.6451,0,9999.99,4.3,4.427,2,9,31.8,0,31.79999924,26.62,1540.4467,9/18/20,11:48:00,30.55,41.75,26.62,0.956,8.31,-78.6,-3.5,-4.3,-2322,78.1,5.05,12.9,
25.91225577,-80.13746326,07:46.0,9/18/20,10,0.473,308.13,-7.021401481,0.9,196.7,186.77,1.46,-2.13,35.6,0,4.28,4.28,91,23,495,16.1,-1.4,D,1423,3,31.04,2,0.49,128,168.34,-80.13740054,25.91198239,0,0,1,N,2.159571,66,66,11,98,98,179.4804,0,9999.99,4.29,4.417,2,9,31.8,0,31.79999924,26.63,1540.45696,9/18/20,11:48:02,30.55,41.76,26.63,0.941,8.31,-78.5,-3.9,-0.9,-3739,77.9,5.04,13.1,
25.91225372,-80.1374642,07:47.0,9/18/20,10,0.424,308.13,-7.021401481,0.9,193.2,183.17,1.35,-1.05,35.6,0,4.29,4.29,91,23,495,16.1,-1.4,D,1423,3,30.835,2,0.48,128,168.08,-80.13740054,25.91198239,0,0,1,N,2.006546,65,65,11,108,108,178.4541,0,9999.99,4.3,4.427,2,9,31.8,0,31.79999924,26.63,1540.45696,9/18/20,11:48:02,30.55,41.76,26.63,0.941,8.31,-78.5,-3.9,-0.9,-3739,77.9,5.04,13.1,
25.91225132,-80.13746507,07:48.0,9/18/20,10,0.427,308.13,-7.021401481,0.9,192.6,182.56,1.16,-1.28,35.6,0,4.3,4.3,91,23,495,16.1,-1.4,D,1423,3,30.593,2,0.44,128,167.82,-80.13740054,25.91198239,0,0,1,N,1.849787,64,64,11,109,109,177.3933,0,9999.99,4.31,4.437,2,9,31.8,0,31.79999924,26.63,1540.45691,9/18/20,11:48:04,30.55,41.75,26.63,0.969,8.31,-78.4,-4.8,-3.3,-3126,77.9,5.04,13.1,
25.9122495,-80.13746525,07:49.0,9/18/20,10,0.358,308.13,-7.021401481,0.9,189.8,179.7,1.3,-1.59,35.6,0,4.3,4.3,91,23,495,16.1,-1.4,D,1423,3,30.398,2,0.42,128,167.71,-80.13740054,25.91198239,0,0,1,N,1.775076,65,65,11,116,116,176.8841,0,9999.99,4.31,4.437,2,9,31.8,0,31.79999924,26.63,1540.45691,9/18/20,11:48:04,30.55,41.75,26.63,0.969,8.31,-78.4,-4.8,-3.3,-3126,77.9,5.04,13.1,
25.91224712,-80.13746585,07:50.0,9/18/20,10,0.4,308.13,-7.021401481,0.9,187.5,177.36,0.86,-1.66,35.6,0,4.29,4.29,91,21,495,16.1,-1.3,D,1535.3,3,30.152,2,0.39,208,167.49,-80.13740054,25.91198239,0,0,1,N,1.645509,62,62,11,122,122,175.9964,0,9999.99,4.3,4.427,2,9,31.8,0,31.79999924,26.63,1540.45691,9/18/20,11:48:05,30.55,41.75,26.63,0.952,8.31,-78.7,-4.2,-1.9,-1634,77.9,5.04,13.1,
25.91224572,-80.13746664,07:51.0,9/18/20,10,0.306,308.13,-7.021401481,0.9,187,176.86,0.97,0.13,35.6,0,4.27,4.27,91,21,495,16.1,-1.3,D,1535.3,3,30.018,2,0.36,128,167.28,-80.13740054,25.91198239,0,0,1,N,1.525655,63,63,11,120,120,175.1698,0,9999.99,4.28,4.407,2,9,31.8,0,31.79999924,26.63,1540.45696,9/18/20,11:48:07,30.54,41.76,26.63,0.946,8.28,-76.6,-2.8,-2.5,-1851,77.9,5.04,13.1,
25.91224384,-80.13746651,07:52.0,9/18/20,10,0.347,308.13,-7.021401481,0.9,184.6,174.43,0.75,-1.81,35.6,0,4.28,4.28,91,21,495,16.1,-1.3,D,1535.3,3,29.812,2,0.39,128,167.21,-80.13740054,25.91198239,0,0,1,N,1.479913,63,63,11,128,128,174.854,0,9999.99,4.29,4.417,2,9,31.8,0,31.79999924,26.63,1540.45696,9/18/20,11:48:07,30.54,41.76,26.63,0.946,8.28,-76.6,-2.8,-2.5,-1851,77.9,5.04,13.1,
25.91224134,-80.13746681,07:53.0,9/18/20,10,0.405,308.13,-7.021401481,0.9,183.6,173.42,0.9,-1.69,35.6,0,4.27,4.27,91,23,494.9,16.1,-1.4,D,1419,3,29.547,2,0.4,128,167.04,-80.13740054,25.91198239,0,0,1,N,1.37524,90,90,11,123,123,174.1277,0,9999.99,4.28,4.407,2,9,31.8,0,31.79999924,26.62,1540.4467,9/18/20,11:48:08,30.54,41.75,26.62,0.946,8.31,-78.4,-4.4,-4.1,-1804,77.8,5.04,13.1,
25.91223848,-80.13746731,07:54.0,9/18/20,10,0.399,308.13,-7.021401481,0.9,182.3,172.11,1.04,-1.78,35.6,0,4.25,4.25,91,23,494.9,16.1,-1.4,D,1419,3,29.248,2,0.41,128,166.8,-80.13740054,25.91198239,0,0,1,N,1.242028,90,90,11,123,123,173.1977,0,9999.99,4.26,4.387,2,9,31.8,0,31.79999924,26.64,1540.46727,9/18/20,11:48:10,30.53,41.77,26.64,0.931,8.3,-78.3,-3,-3.2,-639,77.8,5.04,13.1,
25.91223614,-80.13746693,07:55.0,9/18/20,10,0.431,308.13,-7.021401481,0.9,182.1,171.91,1.25,-3.03,35.6,0,4.24,4.24,91,23,494.9,16.1,-1.4,D,1419,3,28.986,2,0.41,128,166.76,-80.13740054,25.91198239,0,0,1,N,1.207344,90,90,11,123,123,172.9547,0,9999.99,4.25,4.377,2,9,31.8,0,31.79999924,26.64,1540.46727,9/18/20,11:48:10,30.53,41.77,26.64,0.931,8.3,-78.3,-3,-3.2,-639,77.8,5.04,13.1,
25.91223392,-80.13746693,07:56.0,9/18/20,10,0.354,308.13,-7.021401481,0.9,179.6,169.4,1.05,-1.46,35.6,0,4.22,4.22,91,23,494.9,16.1,-1.4,D,1419,3,28.746,2,0.4,128,166.64,-80.13740054,25.91198239,0,0,1,N,1.141723,90,90,11,123,123,172.495,0,9999.99,4.23,4.357,2,9,31.8,0,31.79999924,26.65,1540.47751,9/18/20,11:48:11,30.54,41.79,26.65,0.953,8.27,-76.3,-3.5,0.5,-2614,77.7,5.03,13.1,
25.91223214,-80.13746686,07:57.0,9/18/20,10,0.398,308.13,-7.021401481,0.9,179,168.8,1.36,-1.47,35.5,0,4.22,4.22,91,22,494.9,16.1,-1.4,D,1459.1,3,28.552,2,0.39,128,166.57,-80.13740054,25.91198239,0,0,1,N,1.094313,90,90,11,123,123,172.1619,0,9999.99,4.23,4.357,2,9,31.8,0,31.79999924,26.64,1540.46721,9/18/20,11:48:12,30.55,41.78,26.64,0.965,8.3,-78.3,-2.5,-3.8,-2833,77.7,5.03,13,
25.9122308,-80.13746669,07:58.0,9/18/20,10,0.251,308.13,-7.021401481,0.9,178.1,167.9,0.67,-3.23,35.6,0,4.21,4.21,91,22,494.9,16.1,-1.4,D,1459.1,3,28.403,2,0.39,128,166.53,-80.13740054,25.91198239,0,0,1,N,1.069549,90,90,11,123,123,171.9876,0,9999.99,4.22,4.347,2,9,31.8,0,31.79999924,26.63,1540.45697,9/18/20,11:48:13,30.55,41.75,26.63,0.97,8.31,-78.6,-4.1,-2,-999,77.6,5.03,13.1,
25.91222911,-80.13746645,07:59.0,9/18/20,10,0.362,308.13,-7.021401481,0.9,179.2,169,0.92,-2.61,35.5,0,4.24,4.24,91,22,494.9,16.1,-1.4,D,1459.1,3,28.215,2,0.37,128,166.49,-80.13740054,25.91198239,0,0,1,N,1.04157,90,90,11,123,123,171.7908,0,9999.99,4.24,4.367,2,9,31.8,0,31.79999924,26.62,1540.44663,9/18/20,11:48:15,30.54,41.75,26.62,0.954,8.27,-76.2,-3.9,-2.9,-2622,77.6,5.02,13.1,
25.9122275,-80.13746627,08:00.0,9/18/20,10,0.307,308.13,-7.021401481,0.9,176.1,165.91,0.62,-4.96,35.6,0,4.23,4.23,91,22,494.9,16.1,-1.4,D,1459.1,3,28.037,2,0.35,128,166.44,-80.13740054,25.91198239,0,0,1,N,1.009635,90,90,11,123,123,171.5656,0,9999.99,4.24,4.367,2,9,31.8,0,31.79999924,26.62,1540.44663,9/18/20,11:48:15,30.54,41.75,26.62,0.954,8.27,-76.2,-3.9,-2.9,-2622,77.6,5.02,13.1,
25.91222623,-80.13746641,08:01.1,9/18/20,10,0.326,308.13,-7.021401481,0.9,174.7,164.52,0.88,-3.16,35.5,0,4.22,4.22,91,22,494.9,16.1,-1.4,D,1468.4,3,27.903,2,0.32,128,166.34,-80.13740054,25.91198239,0,0,1,N,0.9568571,64,64,11,151,151,171.1932,0,9999.99,4.23,4.357,2,9,31.8,0,31.79999924,26.62,1540.44662,9/18/20,11:48:16,30.54,41.75,26.62,0.953,8.31,-78.4,-4.9,-7.1,-2856,77.5,5.02,13,
25.91222487,-80.13746643,08:02.1,9/18/20,10,0.262,308.13,-7.021401481,0.9,173.5,163.33,0.8,-1.6,35.6,0,4.24,4.24,91,22,494.9,16.1,-1.4,D,1468.4,3,27.756,2,0.29,128,166.27,-80.13740054,25.91198239,0,0,1,N,0.9141718,60,60,11,157,157,170.8915,0,9999.99,4.24,4.367,2,9,31.8,0,31.79999924,26.63,1540.45694,9/18/20,11:48:18,30.54,41.75,26.63,0.967,8.3,-78.3,-4.6,-3.5,-1790,77.4,5.01,13.1,
25.91222403,-80.13746647,08:03.1,9/18/20,10,0.144,308.13,-7.021401481,0.9,172.9,162.73,1.2,-4.19,35.6,0,4.23,4.23,91,22,494.9,16.1,-1.4,D,1468.4,3,27.667,2,0.25,208,166.21,-80.13740054,25.91198239,0,0,1,N,0.8860343,64,64,11,159,159,170.6928,0,9999.99,4.24,4.367,2,9,31.8,0,31.79999924,26.62,1540.44671,9/18/20,11:48:19,30.54,41.75,26.62,0.916,8.28,-77.1,-4,-4.5,-3541,77.5,5.02,13.1,
25.91222245,-80.13746696,08:04.1,9/18/20,10,0.359,308.13,-7.021401481,0.91,172.8,162.63,1.28,-3.55,35.6,0,4.23,4.23,91,22,494.9,16.1,-1.3,D,1480,3,27.508,2,0.24,208,166.03,-80.13740054,25.91198239,0,0,1,N,0.7906883,65,65,11,155,155,170.0174,0,9999.99,4.24,4.367,2,9,31.8,0,31.79999924,26.62,1540.44671,9/18/20,11:48:19,30.54,41.75,26.62,0.916,8.28,-77.1,-4,-4.5,-3541,77.5,5.02,13.1,
25.91222057,-80.13746697,08:05.1,9/18/20,10,0.338,308.13,-7.021401481,0.91,173.1,162.93,0.74,-2.16,35.6,0,4.24,4.24,91,22,494.9,16.1,-1.3,D,1480,3,27.306,2,0.26,208,165.92,-80.13740054,25.91198239,0,0,1,N,0.7334663,61,61,11,157,157,169.6112,0,9999.99,4.25,4.377,2,9,31.8,0,31.79999924,26.63,1540.4571,9/18/20,11:48:20,30.54,41.76,26.63,0.975,8.31,-78.5,-2.9,-2.3,198,77.5,5.01,13,
25.9122186,-80.13746662,08:06.1,9/18/20,10,0.316,308.13,-7.021401481,0.91,173,162.83,1.19,-4.09,35.6,0,4.25,4.25,91,22,494.9,16.1,-1.3,D,1480,3,27.084,2,0.29,208,165.88,-80.13740054,25.91198239,0,0,1,N,0.7087513,64,64,11,153,153,169.4357,0,9999.99,4.26,4.387,2,9,31.8,0,31.79999924,26.64,1540.46727,9/18/20,11:48:22,30.55,41.77,26.64,0.954,8.3,-78.3,-4.7,-1.3,-2833,77.5,5.01,13.1,
25.91221667,-80.13746626,08:07.1,9/18/20,10,0.338,308.13,-7.021401481,0.91,173.5,163.33,0.69,-3.06,35.6,0,4.26,4.26,91,22,494.9,16.1,-1.3,D,1480,3,26.867,2,0.3,208,165.84,-80.13740054,25.91198239,0,0,1,N,0.6861004,61,61,11,151,151,169.2747,0,9999.99,4.27,4.397,2,9,31.8,0,31.79999924,26.64,1540.46731,9/18/20,11:48:23,30.56,41.77,26.64,0.95,8.29,-77.2,-5.7,-4.9,-2421,77.5,5.01,13.1,
25.91221467,-80.13746561,08:08.1,9/18/20,10,0.383,308.13,-7.021401481,0.91,174.3,164.12,0.76,-1.12,35.6,0,4.26,4.26,91,23,494.9,16.1,-1.4,D,1437.6,3,26.636,2,0.32,208,165.86,-80.13740054,25.91198239,0,0,1,N,0.6889777,61,61,11,148,148,169.2951,0,9999.99,4.27,4.397,2,9,31.8,0,31.79999924,26.64,1540.46731,9/18/20,11:48:23,30.56,41.77,26.64,0.95,8.29,-77.2,-5.7,-4.9,-2421,77.5,5.01,13.1,
25.91221259,-80.13746466,08:09.1,9/18/20,10,0.484,308.13,-7.021401481,0.91,173.5,163.33,1.17,-1.31,35.6,0,4.24,4.24,91,23,494.9,16.1,-1.4,D,1437.6,3,26.389,2,0.36,208,165.94,-80.13740054,25.91198239,0,0,1,N,0.7196639,65,65,11,148,148,169.513,0,9999.99,4.25,4.377,2,9,31.8,0,31.79999924,26.65,1540.47756,9/18/20,11:48:24,30.57,41.78,26.65,0.946,8.31,-78.5,-3.9,-3.7,-1534,77.4,5.01,13,
25.91221015,-80.13746442,08:10.1,9/18/20,10,0.475,308.13,-7.021401481,0.91,173.2,163.03,0.88,-1.43,35.6,0,4.23,4.23,91,23,494.9,16.1,-1.4,D,1437.6,3,26.119,2,0.38,208,165.84,-80.13740054,25.91198239,0,0,1,N,0.6684448,62,62,11,151,151,169.149,0,9999.99,4.24,4.367,2,9,31.8,0,31.79999924,26.64,1540.46733,9/18/20,11:48:25,30.57,41.78,26.64,0.955,8.31,-78.4,-4.5,-0.7,-3890,77.4,5.01,13.1,
25.91220811,-80.13746386,08:11.1,9/18/20,10,0.402,308.13,-7.021401481,0.91,174.8,164.62,1.03,-2.34,35.5,0,4.22,4.22,91,23,494.9,16.1,-1.4,D,1435.5,3,25.886,2,0.4,208,165.84,-80.13740054,25.91198239,0,0,1,N,0.6623655,63,63,11,145,145,169.1058,0,9999.99,4.23,4.357,2,9,31.8,0,31.79999924,26.66,1540.48789,9/18/20,11:48:26,30.57,41.8,26.66,0.938,8.31,-78.4,-4.4,-3.9,-2161,77.4,5.01,13.1,
25.91220626,-80.13746302,08:12.1,9/18/20,10,0.394,308.13,-7.021401481,0.91,174.2,164.02,0.77,-3.8,35.5,0,4.21,4.21,91,23,494.9,16.1,-1.4,D,1435.5,3,25.666,2,0.41,128,165.91,-80.13740054,25.91198239,0,0,1,N,0.686345,62,62,11,148,148,169.2764,0,9999.99,4.22,4.347,2,9,31.8,0,31.79999924,26.65,1540.47753,9/18/20,11:48:28,30.59,41.79,26.65,0.943,8.31,-78.6,-4.1,-3,-2526,77.4,5,13.1,
25.91220434,-80.13746234,08:13.1,9/18/20,10,0.441,308.13,-7.021401481,0.91,174.3,164.12,0.67,-1.8,35.6,0,4.21,4.21,91,23,494.9,16.1,-1.4,D,1435.5,3,25.442,2,0.41,128,165.94,-80.13740054,25.91198239,0,0,1,N,0.6940259,61,61,11,148,148,169.331,0,9999.99,4.22,4.347,2,9,31.8,0,31.79999924,26.65,1540.47753,9/18/20,11:48:28,30.59,41.79,26.65,0.943,8.31,-78.6,-4.1,-3,-2526,77.4,5,13.1,
25.91220234,-80.13746164,08:14.1,9/18/20,10,0.407,308.13,-7.021401481,0.91,173.5,163.33,1.41,-3.05,35.6,0,4.21,4.21,91,23,494.9,16.1,-1.4,D,1435.5,3,25.21,2,0.4,128,165.97,-80.13740054,25.91198239,0,0,1,N,0.7022508,65,65,11,151,151,169.3893,0,9999.99,4.22,4.347,2,9,31.8,0,31.79999924,26.65,1540.47758,9/18/20,11:48:29,30.59,41.79,26.65,0.95,8.31,-78.6,-4.1,-2.2,240,77.4,5.01,13.1,
25.91220035,-80.13746169,08:15.2,9/18/20,10,0.398,308.13,-7.021401481,0.91,173.7,163.53,0.96,-1.28,35.5,0,4.22,4.22,91,23,494.9,16.1,-1.4,D,1438.4,3,24.996,2,0.38,128,165.84,-80.13740054,25.91198239,0,0,1,N,0.638168,63,63,11,150,150,168.9336,0,9999.99,4.23,4.357,2,9,31.8,0,31.79999924,26.65,1540.47757,9/18/20,11:48:31,30.58,41.78,26.65,0.94,8.29,-77.3,-5.8,-4.1,-3388,77.4,5.01,13.1,
25.91219874,-80.13746172,08:16.2,9/18/20,10,0.318,308.13,-7.021401481,0.91,173.2,163.03,1.05,-2.08,35.5,0,4.22,4.22,91,23,494.9,16.1,-1.4,D,1438.4,3,24.823,2,0.37,128,165.73,-80.13740054,25.91198239,0,0,1,N,0.5869018,63,63,11,149,149,168.5686,0,9999.99,4.23,4.357,2,9,31.8,0,31.79999924,26.65,1540.47757,9/18/20,11:48:31,30.58,41.78,26.65,0.94,8.29,-77.3,-5.8,-4.1,-3388,77.4,5.01,13.1,
25.91219735,-80.13746143,08:17.2,9/18/20,10,0.338,308.13,-7.021401481,0.91,171.9,161.75,1.07,-1.46,35.5,0,4.22,4.22,91,23,494.9,16.1,-1.4,D,1438.4,3,24.666,2,0.35,128,165.71,-80.13740054,25.91198239,0,0,1,N,0.5730908,62,62,11,152,152,168.4702,0,9999.99,4.23,4.357,2,9,31.8,0,31.79999924,26.66,1540.48782,9/18/20,11:48:33,30.58,41.8,26.66,0.971,8.31,-78.6,-4.4,-3.6,713,77.5,5.01,13.1,
25.91219581,-80.13746076,08:18.2,9/18/20,10,0.32,308.13,-7.021401481,0.91,172.5,162.34,0.75,-1.53,35.5,0,4.2,4.2,91,23,494.9,16.1,-1.4,D,1423.5,3,24.484,2,0.35,128,165.76,-80.13740054,25.91198239,0,0,1,N,0.5925396,61,61,11,152,152,168.6088,0,9999.99,4.21,4.337,2,9,31.8,0,31.79999924,26.66,1540.48782,9/18/20,11:48:33,30.58,41.8,26.66,0.971,8.31,-78.6,-4.4,-3.6,713,77.5,5.01,13.1,
25.91219409,-80.13746029,08:19.2,9/18/20,10,0.349,308.13,-7.021401481,0.91,172.5,162.34,0.89,-2.47,35.6,0,4.2,4.2,91,23,494.9,16.1,-1.4,D,1423.5,3,24.287,2,0.33,128,165.76,-80.13740054,25.91198239,0,0,1,N,0.5865514,62,62,11,152,152,168.5661,0,9999.99,4.21,4.337,2,9,31.8,0,31.79999924,26.66,1540.48786,9/18/20,11:48:34,30.59,41.81,26.66,0.936,8.31,-78.5,-5.4,-1.4,-4480,77.5,5.01,13.1,
25.91219246,-80.13746009,08:20.2,9/18/20,10,0.279,308.13,-7.021401481,0.91,172.7,162.54,0.77,-2.58,35.5,0,4.2,4.21,91,23,494.9,16.1,-1.4,D,1423.5,3,24.106,2,0.33,128,165.69,-80.13740054,25.91198239,0,0,1,N,0.5555735,62,62,11,150,150,168.3454,0,9999.99,4.21,4.337,2,9,31.8,0,31.79999924,26.66,1540.48782,9/18/20,11:48:35,30.59,41.81,26.66,0.987,8.29,-77.4,-5.2,0.9,-1391,77.5,5.01,13.1,
25.91219123,-80.13745904,08:21.2,9/18/20,10,0.382,308.13,-7.021401481,0.91,171.8,161.65,0.79,-1.12,35.5,0,4.2,4.2,91,23,494.9,16.1,-1.4,D,1423.5,3,23.948,2,0.31,128,165.86,-80.13740054,25.91198239,0,0,1,N,0.6195261,62,62,11,156,156,168.8009,0,9999.99,4.21,4.337,2,9,31.8,0,31.79999924,26.68,1540.50835,9/18/20,11:48:37,30.59,41.83,26.68,0.948,8.31,-78.6,-4.2,0.1,-120,77.5,5.01,13.1,
25.91218991,-80.13745783,08:22.2,9/18/20,10,0.373,308.13,-7.021401481,0.91,171.5,161.35,1.28,-2.54,35.5,0,4.2,4.2,91,22,494.9,16.1,-1.4,D,1460.8,3,23.776,2,0.31,128,166.05,-80.13740054,25.91198239,0,0,1,N,0.6959605,64,64,11,162,162,169.3447,0,9999.99,4.21,4.337,2,9,31.7,0,31.79999924,26.68,1540.50834,9/18/20,11:48:38,30.6,41.83,26.68,0.947,8.3,-78.4,-4.5,-0.6,-2423,77.5,5.01,13,
25.91218898,-80.1374577,08:23.2,9/18/20,10,0.29,308.13,-7.021401481,0.91,171.5,161.35,0.81,-2.8,35.5,0,4.2,4.2,91,22,494.9,16.1,-1.4,D,1460.8,3,23.672,2,0.29,128,166.02,-80.13740054,25.91198239,0,0,1,N,0.6815126,62,62,11,159,159,169.242,0,9999.99,4.21,4.337,2,9,31.8,0,31.79999924,26.68,1540.50834,9/18/20,11:48:38,30.6,41.83,26.68,0.947,8.3,-78.4,-4.5,-0.6,-2423,77.5,5.01,13,
25.91218764,-80.13745763,08:24.2,9/18/20,10,0.313,308.13,-7.021401481,0.91,171.4,161.25,0.87,-1.76,35.6,0,4.2,4.2,91,22,494.9,16.1,-1.4,D,1460.8,3,23.526,2,0.29,128,165.95,-80.13740054,25.91198239,0,0,1,N,0.6482856,90,90,11,123,123,169.0056,0,9999.99,4.21,4.337,2,9,31.8,0,31.79999924,26.68,1540.50843,9/18/20,11:48:39,30.6,41.84,26.68,0.961,8.29,-77.5,-4.2,-3.3,-1945,77.5,5.01,13.1,
25.9121866,-80.13745773,08:25.3,9/18/20,10,0.152,308.13,-7.021401481,0.91,171.9,161.75,1.17,-3.52,35.5,0,4.2,4.2,91,22,494.9,16.1,-1.4,D,1454.5,3,23.416,2,0.28,128,165.86,-80.13740054,25.91198239,0,0,1,N,0.6065654,90,90,11,123,123,168.7086,0,9999.99,4.21,4.337,2,9,31.8,0,31.79999924,26.68,1540.50837,9/18/20,11:48:41,30.61,41.83,26.68,0.968,8.31,-78.7,-4,-4.9,-2407,77.6,5.02,13.1,
25.91218628,-80.13745778,08:26.3,9/18/20,10,0.16,308.13,-7.021401481,0.91,171.1,160.96,0.53,-2.78,35.6,0,4.2,4.2,91,22,494.9,16.1,-1.4,D,1454.5,3,23.383,2,0.27,128,165.83,-80.13740054,25.91198239,0,0,1,N,0.5925048,90,90,11,123,123,168.6086,0,9999.99,4.21,4.337,2,9,31.8,0,31.79999924,26.68,1540.50837,9/18/20,11:48:41,30.61,41.83,26.68,0.968,8.31,-78.7,-4,-4.9,-2407,77.6,5.02,13.1,
25.91218578,-80.13745733,08:27.2,9/18/20,10,0.255,308.13,-7.021401481,0.91,170.6,160.46,1.4,-3.51,35.5,0,4.2,4.2,91,22,494.9,16.1,-1.4,D,1461.7,3,23.318,2,0.2,128,165.9,-80.13740054,25.91198239,0,0,1,N,0.6208428,64,64,11,160,160,168.8104,0,9999.99,4.21,4.337,2,9,31.8,0,31.79999924,26.7,1540.52895,9/18/20,11:48:43,30.61,41.85,26.7,0.986,8.31,-78.7,-4.1,-4,-1759,77.6,5.02,13,
25.91218476,-80.13745695,08:28.3,9/18/20,10,0.236,308.13,-7.021401481,0.91,170.4,160.27,1.42,-2.36,35.5,0,4.2,4.2,91,22,494.9,16.1,-1.4,D,1461.7,3,23.199,2,0.19,128,165.92,-80.13740054,25.91198239,0,0,1,N,0.6267725,66,66,11,161,161,168.8525,0,9999.99,4.21,4.337,2,9,31.8,0,31.79999924,26.7,1540.52895,9/18/20,11:48:43,30.61,41.85,26.7,0.986,8.31,-78.7,-4.1,-4,-1759,77.6,5.02,13,
25.91218358,-80.13745647,08:29.3,9/18/20,10,0.243,308.13,-7.021401481,0.91,169.5,159.38,2.18,-3.22,35.5,0,4.19,4.19,91,22,494.9,16.1,-1.4,D,1461.7,3,23.06,2,0.21,128,165.96,-80.13740054,25.91198239,0,0,1,N,0.6371312,70,70,11,165,165,168.9262,0,9999.99,4.21,4.337,2,9,31.8,0,31.79999924,26.71,1540.53936,9/18/20,11:48:44,30.61,41.87,26.71,0.916,8.31,-78.6,-3.1,-0.2,-4603,77.6,5.02,12.9,
25.9121821,-80.13745647,08:30.3,9/18/20,10,0.358,308.13,-7.021401481,0.91,169.6,159.48,1.11,-3.18,35.5,0,4.2,4.2,91,22,494.9,16.1,-1.4,D,1461.7,3,22.9,2,0.23,128,165.86,-80.13740054,25.91198239,0,0,1,N,0.5933477,64,64,11,162,162,168.6146,0,9999.99,4.21,4.337,2,9,31.8,0,31.79999924,26.71,1540.53942,9/18/20,11:48:46,30.62,41.88,26.71,0.943,8.29,-77.5,-5.4,2,-1302,77.6,5.01,13.1,
25.91218058,-80.13745665,08:31.2,9/18/20,10,0.348,308.13,-7.021401481,0.91,170.3,160.17,1.02,-3.13,35.5,0,4.2,4.2,91,23,494.8,16.1,-1.4,D,1432.2,3,22.741,2,0.23,128,165.71,-80.13740054,25.91198239,0,0,1,N,0.5302333,63,63,11,161,161,168.1647,0,9999.99,4.21,4.337,2,9,31.8,0,31.79999924,26.71,1540.53942,9/18/20,11:48:46,30.62,41.88,26.71,0.943,8.29,-77.5,-5.4,2,-1302,77.6,5.01,13.1,
25.91217913,-80.13745644,08:32.3,9/18/20,10,0.316,308.13,-7.021401481,0.91,170.1,159.97,1.16,-3.86,35.5,0,4.2,4.2,91,23,494.8,16.1,-1.4,D,1432.2,3,22.579,2,0.25,128,165.66,-80.13740054,25.91198239,0,0,1,N,0.5068867,64,64,11,159,159,167.9982,0,9999.99,4.21,4.337,2,9,31.8,0,31.79999924,26.73,1540.55978,9/18/20,11:48:47,30.63,41.9,26.73,0.944,8.31,-78.8,-5.6,-1.9,-1614,77.6,5.01,13.2,
25.91217809,-80.13745642,08:33.3,9/18/20,10,0.21,308.13,-7.021401481,0.91,169.8,159.68,0.95,-1.37,35.5,0,4.19,4.19,91,23,494.8,16.1,-1.4,D,1432.2,3,22.468,2,0.24,128,165.6,-80.13740054,25.91198239,0,0,1,N,0.4778911,63,63,11,159,159,167.7913,0,9999.99,4.2,4.327,2,9,31.8,0,31.79999924,26.73,1540.55981,9/18/20,11:48:49,30.65,41.9,26.73,0.928,8.31,-78.6,-5.3,-5.6,-4358,77.6,5.01,13.1,
25.91217703,-80.13745555,08:34.3,9/18/20,10,0.367,308.13,-7.021401481,0.91,168.3,158.2,1.22,-3.26,35.5,0,4.2,4.2,91,22,494.8,16.1,-1.3,D,1508.7,3,22.332,2,0.22,128,165.74,-80.13740054,25.91198239,0,0,1,N,0.5309563,65,65,11,164,164,168.1698,0,9999.99,4.21,4.337,2,9,31.8,0,31.79999924,26.73,1540.55981,9/18/20,11:48:49,30.65,41.9,26.73,0.928,8.31,-78.6,-5.3,-5.6,-4358,77.6,5.01,13.1,
25.91217546,-80.13745528,08:35.3,9/18/20,10,0.329,308.13,-7.021401481,0.91,169,158.89,0.71,-2.4,35.4,0,4.19,4.19,91,22,494.8,16.1,-1.3,D,1508.7,3,22.155,2,0.22,208,165.69,-80.13740054,25.91198239,0,0,1,N,0.5084439,61,61,11,163,163,168.0093,0,9999.99,4.2,4.327,2,9,31.8,0,31.79999924,26.73,1540.55982,9/18/20,11:48:50,30.65,41.9,26.73,0.967,8.31,-78.5,-6.1,-4.8,-2652,77.6,5.01,13.1,
25.91217442,-80.13745529,08:36.3,9/18/20,10,0.189,308.13,-7.021401481,0.91,169.4,159.28,1.04,-0.97,35.5,0,4.19,4.19,91,22,494.8,16.1,-1.3,D,1508.7,3,22.043,2,0.22,208,165.62,-80.13740054,25.91198239,0,0,1,N,0.4764553,63,63,11,161,161,167.7811,0,9999.99,4.2,4.327,2,9,31.8,0,31.79999924,26.73,1540.55985,9/18/20,11:48:52,30.66,41.9,26.73,0.971,8.31,-78.8,-4.8,-2.5,-1330,77.7,5.02,13.1,
25.91217344,-80.13745443,08:37.2,9/18/20,10,0.328,308.13,-7.021401481,0.91,168.6,158.5,0.1,-1.89,35.6,0,4.2,4.2,91,22,494.8,16.1,-1.3,D,1508.7,3,21.917,2,0.28,208,165.76,-80.13740054,25.91198239,0,0,1,N,0.5299857,57,57,11,164,164,168.163,0,9999.99,4.2,4.327,2,9,31.8,0,31.79999924,26.72,1540.54977,9/18/20,11:48:53,30.66,41.9,26.72,0.959,8.31,-78.7,-5.9,-2.2,-2001,77.7,5.02,13.1,
25.91217201,-80.13745388,08:38.3,9/18/20,10,0.308,308.13,-7.021401481,0.91,168.5,158.4,0.77,-2.25,35.5,0,4.19,4.19,91,25,494.8,16.1,-1.5,D,1324.3,3,21.75,2,0.31,128,165.8,-80.13740054,25.91198239,0,0,1,N,0.5401204,59,59,11,164,164,168.2352,0,9999.99,4.19,4.317,2,9,31.8,0,31.79999924,26.72,1540.54977,9/18/20,11:48:53,30.66,41.9,26.72,0.959,8.31,-78.7,-5.9,-2.2,-2001,77.7,5.02,13.1,
25.9121703,-80.13745291,08:39.2,9/18/20,10,0.413,308.13,-7.021401481,0.91,168,157.91,1.02,-1.58,35.5,0,4.18,4.18,91,25,494.8,16.1,-1.5,D,1324.3,3,21.541,2,0.34,128,165.93,-80.13740054,25.91198239,0,0,1,N,0.581052,63,63,11,169,169,168.5269,0,9999.99,4.19,4.317,2,9,31.8,0,31.79999924,26.73,1540.55979,9/18/20,11:48:54,30.67,41.9,26.73,0.99,8.31,-78.7,-5.6,-3.7,-960,77.7,5.02,13.1,
25.91216856,-80.13745171,08:40.3,9/18/20,10,0.471,308.13,-7.021401481,0.91,167.8,157.71,1.19,-2.25,35.5,0,4.17,4.17,91,25,494.8,16.1,-1.5,D,1324.3,3,21.325,2,0.34,128,166.11,-80.13740054,25.91198239,0,0,1,N,0.6455191,64,64,11,172,172,168.986,0,9999.99,4.18,4.307,2,9,31.8,0,31.79999924,26.74,1540.57016,9/18/20,11:48:56,30.67,41.92,26.74,0.951,8.31,-78.9,-5.8,-3.2,-1407,77.8,5.02,12.9,
25.91216717,-80.13745134,08:41.3,9/18/20,10,0.374,308.13,-7.021401481,0.91,167.8,157.71,1.14,-2.78,35.6,0,4.16,4.16,91,22,494.8,16.1,-1.3,D,1471.9,3,21.166,2,0.35,128,166.11,-80.13740054,25.91198239,0,0,1,N,0.6385772,62,62,11,173,173,168.9366,0,9999.99,4.17,4.297,2,9,31.8,0,31.79999924,26.74,1540.57016,9/18/20,11:48:56,30.67,41.92,26.74,0.951,8.31,-78.9,-5.8,-3.2,-1407,77.8,5.02,12.9,
25.91216597,-80.13745118,08:42.3,9/18/20,10,0.326,308.13,-7.021401481,0.91,167.8,157.71,1.04,-2.71,35.6,0,4.18,4.18,91,22,494.8,16.1,-1.3,D,1471.9,3,21.033,2,0.34,128,166.06,-80.13740054,25.91198239,0,0,1,N,0.6185885,63,63,11,171,171,168.7943,0,9999.99,4.19,4.317,2,9,31.8,0,31.79999924,26.75,1540.58041,9/18/20,11:48:57,30.68,41.93,26.75,0.965,8.31,-78.7,-5.2,-4.4,-2468,77.8,5.02,13.1,
25.9121648,-80.13745095,08:43.2,9/18/20,10,0.312,308.13,-7.021401481,0.91,168.1,158.01,1.35,-2.28,35.6,0,4.16,4.16,91,22,494.8,16.1,-1.3,D,1471.9,3,20.9,2,0.34,128,166.04,-80.13740054,25.91198239,0,0,1,N,0.6059499,65,65,11,168,168,168.7043,0,9999.99,4.17,4.297,2,9,31.8,0,31.79999924,26.75,1540.58049,9/18/20,11:48:59,30.68,41.93,26.75,0.945,8.31,-78.7,-5.6,-1.5,-2628,77.8,5.02,13.1,
25.91216335,-80.13745032,08:44.3,9/18/20,10,0.336,308.13,-7.021401481,0.91,168.3,158.2,1.01,-3.14,35.6,0,4.12,4.12,91,22,494.8,16.1,-1.3,D,1471.9,3,20.729,2,0.33,128,166.1,-80.13740054,25.91198239,0,0,1,N,0.6236867,63,63,11,170,170,168.8305,0,9999.99,4.13,4.257,2,9,31.8,0,31.79999924,26.75,1540.58049,9/18/20,11:48:59,30.68,41.93,26.75,0.945,8.31,-78.7,-5.6,-1.5,-2628,77.8,5.02,13.1,
25.91216225,-80.13744993,08:45.3,9/18/20,10,0.274,308.13,-7.021401481,0.91,168.4,158.3,0.83,-3.04,35.6,0,4.14,4.14,91,22,494.8,16.1,-1.3,D,1499.7,3,20.6,2,0.33,128,166.13,-80.13740054,25.91198239,0,0,1,N,0.6275038,63,63,11,170,170,168.8577,0,9999.99,4.15,4.277,2,9,31.8,0,31.79999924,26.75,1540.58038,9/18/20,11:49:00,30.69,41.93,26.75,0.947,8.31,-78.9,-5.6,-2.3,-3785,77.9,5.03,13,
25.91216098,-80.13744981,08:46.3,9/18/20,10,0.328,308.13,-7.021401481,0.91,169.8,159.68,1.36,-2.51,35.6,0,4.02,4.02,91,22,494.8,16.1,-1.3,D,1499.7,3,20.461,2,0.28,128,166.06,-80.13740054,25.91198239,0,0,1,N,0.6023874,65,65,11,163,163,168.6789,0,9999.99,4.03,4.157,2,9,31.8,0,31.79999924,26.76,1540.59067,9/18/20,11:49:02,30.69,41.95,26.76,0.964,8.31,-78.9,-4,-4.4,-1763,78,5.03,13.1,
25.91216048,-80.13744937,08:47.3,9/18/20,10,0.227,308.13,-7.021401481,0.91,169.1,158.99,0.62,-4.08,35.6,0,4,4.01,91,22,494.8,16.1,-1.3,D,1499.7,3,20.396,2,0.27,128,166.15,-80.13740054,25.91198239,0,0,1,N,0.6290179,90,90,11,123,123,168.8685,0,9999.99,4.01,4.137,2,9,31.8,0,31.79999924,26.77,1540.60098,9/18/20,11:49:03,30.69,41.96,26.77,0.937,8.31,-78.8,-4.8,-3.6,-3298,78,5.03,13.1,
