Latitude,Longitude,Time,Date,Number of Sats,GPS Speed (Kn),GPS True Heading,GPS Magnetic Variation,HDOP,C Magnetic Heading,C True Heading,Pitch Angle,Roll Angle,C Inside Temp (c),DFS Depth (m),DTB Height (m),Total Water Column (m),Batt Percent,Power Watts,Watt-Hours,Batt Volts,Batt Ampers,Batt State,Time to Empty,Current Step,Dist To Next (m),Next Speed (kn),Vehicle Speed (kn),Motor Speed CMD,Next Heading,Next Long,Next Lat,Next Depth (m),Depth Goal (m),Vehicle State,Error State,Distance to Track (m),Fin Pitch R,Fin Pitch L,Pitch Goal,Fin Yaw T,Fin Yaw B,Yaw Goal,Fin Roll,DVL-Depth (m),DVL -Altitude (m),DVL -Water Column (m),DVL-FixType,DVL-FixQuality,DVL-Temperature,Conductivity (mmhos/cm),Temperature (c),Salinity (ppt),Sound Speed (m/s),Date m/d/y   ,Time hh:mm:ss,Temp C,SpCond mS/cm,Sal ppt,Depth feet,pH,pH mV,Turbid+ NTU,Chl ug/L,BGA-PC cells/mL,ODOsat %,ODO mg/L,Battery volts,ROSEM Command Type
25.912756,-80.13784883,57:31.2,9/18/20,9,0.161,69.05,-7.021243614,1,93.4,87.82,1.23,-5.36,31,0,3.52,3.52,95,21,513.2,16.3,-1.3,D,1586.3,0,8.41,2,0.14,128,48.51,-80.13778585,25.91280611,0,0,1,N,7.983579,64,64,11,5,5,24.45045,0,9999.99,3.53,3.657,2,9,30.8,0,30.79999924,25.73,1537.49052,9/18/20,10:37:47,30.37,40.49,25.73,0.772,8.29,-77.3,-5.1,-1.3,-1555,85.8,5.59,13.2,
25.91275633,-80.13784933,57:32.2,9/18/20,9,0.076,69.05,-7.021243614,1,93.9,88.29,1.45,-6.32,31,0,3.52,3.52,95,21,513.2,16.3,-1.3,D,1586.3,0,8.423,2,0.14,128,48.92,-80.13778585,25.91280611,0,0,1,N,8.015216,66,66,11,5,5,24.49222,0,9999.99,3.53,3.657,2,9,30.8,0,30.79999924,25.73,1537.49052,9/18/20,10:37:47,30.37,40.49,25.73,0.772,8.29,-77.3,-5.1,-1.3,-1555,85.8,5.59,13.2,
25.91275528,-80.13784934,57:33.2,9/18/20,9,0.066,69.05,-7.021243614,1,90.4,85,3.53,0.65,31.1,0.01,3.53,3.54,95,21,513.2,16.3,-1.3,D,1586.3,0,8.5,2,0.01,174,48.33,-80.13778585,25.91280611,0,0,1,N,8.015216,78,78,11,5,5,48.32984,0,9999.99,3.56,3.687,2,9,30.8,0,30.79999924,25.75,1537.51121,9/18/20,10:37:48,30.35,40.51,25.75,0.776,8.28,-76.9,-4.4,-1.2,-347,85.4,5.57,12.9,
25.91275563,-80.1378479,57:34.2,9/18/20,9,0.342,69.05,-7.021243614,1,91.3,85.85,1.05,-7.73,31.1,0.01,3.51,3.52,95,26,513.1,16.3,-1.6,D,1296.5,0,8.368,2,0.02,174,47.87,-80.13778585,25.91280611,0,0,1,N,8.015216,62,62,11,5,5,47.8821,0,9999.99,3.52,3.647,2,9,30.8,0,30.79999924,25.78,1537.54309,9/18/20,10:37:50,30.35,40.55,25.78,0.788,8.28,-76.8,-5.7,-5.5,-2209,84.7,5.53,13.2,
25.91275713,-80.1378428,57:35.2,9/18/20,9,0.975,69.05,-7.021243614,1,90.9,85.47,0.83,-3.09,31.1,0,3.5,3.51,95,26,513.1,16.3,-1.6,D,1296.5,0,7.881,2,0.23,174,46.28,-80.13778585,25.91280611,0,0,1,N,8.015216,63,63,11,5,5,46.33528,0,9999.99,3.51,3.637,2,9,30.8,0,30.79999924,25.78,1537.54309,9/18/20,10:37:50,30.35,40.55,25.78,0.788,8.28,-76.8,-5.7,-5.5,-2209,84.7,5.53,13.2,
25.91275924,-80.13783485,57:36.2,9/18/20,9,1.208,69.05,-7.021243614,1,87.2,81.98,1.23,-3.5,31.1,0,3.5,3.5,95,26,513.1,16.3,-1.6,D,1296.5,0,7.154,2,0.55,174,43.24,-80.13778585,25.91280611,0,0,1,N,8.015216,64,64,11,5,5,43.41671,0,9999.99,3.51,3.637,2,9,30.8,0,30.79999924,25.71,1537.46964,9/18/20,10:37:51,30.35,40.46,25.71,0.829,8.29,-77.5,-5.2,-1.8,-2230,84.4,5.51,13.1,
25.912763,-80.13782584,57:37.2,9/18/20,9,1.463,79.31,-7.021243614,1,82.6,77.62,1.27,-1.8,31.1,0,3.95,3.95,95,40,513.1,16.2,-2.4,D,866.4,0,6.243,2,1.14,174,39.84,-80.13778585,25.91280611,0,0,1,N,8.015216,65,65,11,5,5,40.24407,0,9999.99,3.96,4.087,2,9,30.8,0,30.79999924,25.73,1537.49028,9/18/20,10:37:52,30.32,40.48,25.73,0.826,8.3,-77.8,-3.4,-3,-4379,84,5.48,13,
25.91276361,-80.1378173,57:38.2,9/18/20,9,1.613,79.02,-7.021243614,1,74.3,69.67,1.69,-0.34,31.1,0,3.96,3.96,95,40,513.1,16.2,-2.4,D,866.4,0,5.677,2,1.14,174,33.65,-80.13778585,25.91280611,0,0,1,N,8.015216,67,67,11,5,5,34.02533,0,9999.99,3.97,4.097,2,9,30.8,0,30.79999924,25.74,1537.5007,9/18/20,10:37:53,30.29,40.49,25.74,0.805,8.28,-76.7,-4,-4.9,-2495,83.5,5.46,13.3,
25.91276687,-80.13780706,57:39.2,9/18/20,10,1.766,76.26,-7.021243614,1,65.3,60.94,3.05,-1.22,31.1,0.01,4.02,4.03,95,40,513.1,16.2,-2.4,D,866.4,0,4.851,2,1.42,174,25.93,-80.13778585,25.91280611,0,0,1,N,8.015216,75,75,11,5,5,26.43212,0,9999.99,4.05,4.177,2,9,30.8,0,30.79999924,25.76,1537.52167,9/18/20,10:37:55,30.23,40.51,25.76,0.799,8.28,-77,-5,-3.2,-1876,82.8,5.41,13.1,
25.91277128,-80.13780091,57:40.3,9/18/20,10,1.766,76.26,-7.021243614,1,55.8,51.59,0.57,8,31.1,0.01,4.14,4.16,95,40,513.1,16.2,-2.4,D,866.4,1,153.866,3,1.42,195,155.74,-80.13716883,25.91150973,1.00584,1.00584,1,N,3.136822,213,213,-15.3381,250,250,135.4126,0,9999.99,4.15,4.277,0,0,30.8,0,30.79999924,25.76,1537.52167,9/18/20,10:37:55,30.23,40.51,25.76,0.799,8.28,-77,-5,-3.2,-1876,82.8,5.41,13.1,
25.91277582,-80.13779469,57:41.3,9/18/20,10,1.766,76.26,-7.021243614,1,57.7,53.47,-3.77,-7.63,31.1,0,4.22,4.22,95,50,513.1,16.2,-3.1,D,686.5,1,154.072,3,1.62,195,156.03,-80.13716883,25.91150973,1.00584,1.00584,1,N,2.240476,203,203,-15.43589,250,250,141.1764,0,9999.99,4.18,4.307,2,9,30.7,0,30.79999924,25.8,1537.56349,9/18/20,10:37:56,30.21,40.57,25.8,0.783,8.29,-77.4,-4.8,-5,-4041,82.3,5.38,13,
25.91277895,-80.13778704,57:42.3,9/18/20,10,1.766,76.26,-7.021243614,1,74.3,69.67,-2.91,-2.06,31.1,0,4.18,4.18,95,50,513.1,16.2,-3.1,D,686.5,1,154.082,3,1.6,195,156.34,-80.13716883,25.91150973,1.00584,1.00584,1,N,1.387544,209,209,-15.50772,250,250,146.9849,0,9999.99,4.15,4.277,2,9,30.7,0,30.70000076,26.23,1537.80047,9/18/20,10:37:58,30.18,41.18,26.23,1.012,8.26,-75.7,-3.5,-1.6,-3203,81.5,5.32,13,
25.91277978,-80.13777973,57:43.3,9/18/20,10,1.766,76.26,-7.021243614,1,95.6,89.89,-0.19,-5.71,31.1,0,4.15,4.15,95,50,513.1,16.2,-3.1,D,686.5,1,153.875,3,1.53,195,156.6,-80.13716883,25.91150973,1.00584,1.00584,1,N,0.679784,213,213,-15.50994,250,250,151.9664,0,9999.99,4.15,4.277,2,9,30.7,0,30.70000076,26.23,1537.80047,9/18/20,10:37:58,30.18,41.18,26.23,1.012,8.26,-75.7,-3.5,-1.6,-3203,81.5,5.32,13,
25.91277859,-80.13777202,57:44.3,9/18/20,9,1.766,76.26,-7.021243614,1.19,113.1,106.16,-1.29,-4.83,31.1,0,4.1,4.1,95,54,513.1,16.2,-3.3,D,638.2,1,153.449,3,1.53,195,156.85,-80.13716883,25.91150973,1.00584,1.00584,1,N,8.31E-03,213,213,-15.51,250,250,156.7642,0,9999.99,4.09,4.217,2,9,30.7,0,30.70000076,26.23,1537.80043,9/18/20,10:37:59,30.2,41.18,26.23,0.917,8.28,-77,-5.1,-0.7,-1594,81.2,5.3,13.1,
25.91277521,-80.13776513,57:45.3,9/18/20,10,1.766,76.26,-7.021243614,1.19,129.6,121.43,-1.81,-1.62,31.1,0,4.08,4.08,95,54,513.1,16.2,-3.3,D,638.2,1,152.833,3,1.4,195,157.03,-80.13716883,25.91150973,1.00584,1.00584,1,N,0.5096323,213,213,-15.49747,250,250,160.4691,0,9999.99,4.06,4.187,2,9,30.7,0,30.70000076,25.87,1537.42758,9/18/20,10:38:01,30.18,40.67,25.87,0.938,8.27,-76.1,-4.5,-1.4,-4675,80.6,5.27,13.2,
25.91277088,-80.13775993,57:46.3,9/18/20,10,1.766,76.26,-7.021243614,1.19,147.3,137.99,0.03,0.54,31.1,0,4.06,4.06,95,54,513.1,16.2,-3.3,D,638.2,1,152.187,3,1.4,195,157.14,-80.13716883,25.91150973,1.00584,1.00584,1,N,0.8167342,213,213,-15.50876,235,235,162.6533,0,9999.99,4.06,4.187,2,9,30.7,0,30.70000076,25.87,1537.42758,9/18/20,10:38:01,30.18,40.67,25.87,0.938,8.27,-76.1,-4.5,-1.4,-4675,80.6,5.27,13.2,
25.91276545,-80.1377565,57:47.3,9/18/20,10,1.766,76.26,-7.021243614,1.19,168,157.91,-1.37,-7.91,31.1,0,4.04,4.04,95,54,513.1,16.2,-3.3,D,638.2,1,151.497,3,1.42,195,157.17,-80.13716883,25.91150973,1.00584,1.00584,1,N,0.9223633,213,213,-15.50958,157,157,163.4008,0,9999.99,4.03,4.157,2,9,30.7,0,30.70000076,25.86,1537.41716,9/18/20,10:38:02,30.15,40.65,25.86,0.861,8.26,-75.8,-4.5,-3.2,-3308,80.2,5.25,13.1,
25.91275904,-80.13775491,57:48.3,9/18/20,10,1.766,76.26,-7.021243614,1,181.9,171.71,-1.34,-10.8,31.1,0,4,4,95,56,513,16.2,-3.4,D,616,1,150.779,3,1.42,195,157.12,-80.13716883,25.91150973,1.00584,1.00584,1,N,0.8091368,213,213,-15.50998,100,100,162.5995,0,9999.99,3.99,4.116096,2,9,30.7,0,30.70000076,25.8,1537.355,9/18/20,10:38:04,30.11,40.57,25.8,0.899,8.28,-76.6,-3.1,-4.6,-1990,79.6,5.21,13.1,
25.91275065,-80.13775496,57:49.4,9/18/20,10,1.766,76.26,-7.021243614,1,190.6,180.52,-1.79,-6.68,31.1,0,4.06,4.06,95,56,513,16.2,-3.4,D,616,1,149.922,3,3,195,156.98,-80.13716883,25.91150973,1.00584,1.00584,1,N,0.4862661,213,213,-15.51,38,38,160.3021,0,9999.99,4.04,4.167,0,0,30.7,0,30.70000076,25.8,1537.355,9/18/20,10:38:04,30.11,40.57,25.8,0.899,8.28,-76.6,-3.1,-4.6,-1990,79.6,5.21,13.1,
25.91273738,-80.13775716,57:50.4,9/18/20,10,1.766,76.26,-7.021243614,1,204.7,195.04,-2.12,-7.01,31.1,0,4.07,4.07,95,56,513,16.2,-3.4,D,616,1,148.651,3,1.85,195,156.68,-80.13716883,25.91150973,1.00584,1.00584,1,N,0.1734173,213,213,-15.51,5,5,155.5818,0,9999.99,4.05,4.177,2,9,30.7,0,30.70000076,25.78,1537.33429,9/18/20,10:38:05,30.1,40.55,25.78,0.885,8.26,-75.7,-4.1,-8.3,-3656,79.3,5.19,13.1,
25.91272943,-80.13776029,57:51.4,9/18/20,10,1.766,76.26,-7.021243614,1,213.6,204.33,-1.76,-7.4,31.1,0,4.04,4.04,95,48,513,16.2,-3,D,709.8,1,147.965,3,1.71,195,156.43,-80.13716883,25.91150973,1.00584,1.00584,1,N,0.9216741,213,213,-15.51,5,5,150.2513,0,9999.99,4.03,4.157,2,9,30.7,0,30.70000076,25.92,1537.4793,9/18/20,10:38:07,30.11,40.73,25.92,0.887,8.28,-76.6,-5.3,-5.2,114,78.8,5.16,13.2,
25.912723,-80.13776499,57:52.4,9/18/20,10,1.766,76.26,-7.021243614,1,225.3,216.62,-2.33,-10.9,31.1,0,4.05,4.05,95,48,513,16.2,-3,D,709.8,1,147.5,3,1.61,195,156.16,-80.13716883,25.91150973,1.00584,1.00584,1,N,1.641041,213,213,-15.51,5,5,145.2314,0,9999.99,4.03,4.157,2,9,30.7,0,30.70000076,25.92,1537.4793,9/18/20,10:38:07,30.11,40.73,25.92,0.887,8.28,-76.6,-5.3,-5.2,114,78.8,5.16,13.2,
25.91271716,-80.13776985,57:53.4,9/18/20,10,1.766,76.26,-7.021243614,1,223.7,214.94,-1.3,-3.23,31.1,0,4.02,4.02,95,48,513,16.2,-3,D,709.8,1,147.103,3,1.56,195,155.88,-80.13716883,25.91150973,1.00584,1.00584,1,N,2.345503,213,213,-15.51,5,5,140.4829,0,9999.99,4.01,4.137,2,9,30.7,0,30.70000076,26.06,1537.62433,9/18/20,10:38:08,30.13,40.94,26.06,0.914,8.28,-77,-3.6,-1.4,-3334,78.6,5.14,13,
25.91271158,-80.1377756,57:54.4,9/18/20,10,1.766,76.26,-7.021243614,1,232.2,223.89,-2.16,-5.7,31.2,0,4.02,4.02,95,48,513,16.2,-3,D,709.8,1,146.775,3,1.52,195,155.58,-80.13716883,25.91150973,1.00584,1.00584,1,N,3.10298,213,213,-15.51,5,5,135.6232,0,9999.99,4,4.127,2,9,30.7,0,30.70000076,26.12,1537.68648,9/18/20,10:38:10,30.18,41.03,26.12,0.904,8.27,-76.2,-4.6,-3.4,-494,78.3,5.11,13,
25.91270685,-80.1377814,57:55.4,9/18/20,10,1.766,76.26,-7.021243614,1,237.5,229.48,-1.73,-2.86,31.2,0,4.04,4.04,95,48,513,16.2,-2.9,D,717.1,1,146.536,3,1.52,195,155.29,-80.13716883,25.91150973,1.00584,1.00584,1,N,3.840238,213,213,-15.51,5,5,131.1806,0,9999.99,4.02,4.147,2,9,30.7,0,30.70000076,26.12,1537.68648,9/18/20,10:38:10,30.18,41.03,26.12,0.904,8.27,-76.2,-4.6,-3.4,-494,78.3,5.11,13,
25.91270317,-80.13778734,57:56.4,9/18/20,10,1.766,76.26,-7.021243614,1,245.7,238.1,-2.39,-9.1,31.1,0,4,4,95,48,513,16.2,-2.9,D,717.1,1,146.415,3,1.53,195,155.01,-80.13716883,25.91150973,1.00584,1.00584,1,N,4.556465,213,213,-15.51,5,5,127.1592,0,9999.99,3.98,4.107,2,9,30.7,0,30.70000076,26.12,1537.68648,9/18/20,10:38:11,30.2,41.03,26.12,0.902,8.28,-77,-3.9,0,-3486,78.2,5.1,13.1,
25.91269942,-80.13779499,57:57.4,9/18/20,10,1.766,76.26,-7.021243614,1,248.1,240.62,-2.02,-2.37,31.1,0,3.93,3.93,95,48,513,16.2,-2.9,D,717.1,1,146.363,3,1.53,195,154.67,-80.13716883,25.91150973,1.00584,1.00584,1,N,5.411321,213,213,-15.51,5,5,122.749,0,9999.99,3.91,4.037,2,9,30.7,0,30.70000076,26.1,1537.66576,9/18/20,10:38:13,30.22,40.99,26.1,0.895,8.28,-76.7,-5.1,-0.6,-130,78,5.09,13.3,
25.91269694,-80.13780263,57:58.5,9/18/20,10,1.766,76.26,-7.021243614,1,257.8,250.77,-1.99,-11.9,31.2,0,3.88,3.88,95,48,513,16.2,-2.9,D,721.5,1,146.444,3,1.54,195,154.35,-80.13716883,25.91150973,1.00584,1.00584,1,N,6.22241,213,213,-15.51,5,5,118.9474,0,9999.99,3.86,3.987,2,9,30.7,0,30.70000076,26.05,1537.61397,9/18/20,10:38:14,30.22,40.93,26.05,0.902,8.27,-76.4,-3.8,-4,-486,78,5.09,13.2,
25.91269526,-80.13781014,57:59.5,9/18/20,10,1.766,76.26,-7.021243614,1,262.5,255.66,-1.42,-3.3,31.1,0,3.77,3.77,95,48,513,16.2,-2.9,D,721.5,1,146.602,3,1.58,195,154.05,-80.13716883,25.91150973,1.00584,1.00584,1,N,6.973288,213,213,-15.51,5,5,115.7465,0,9999.99,3.75,3.877,2,9,30.7,0,30.70000076,26.05,1537.61397,9/18/20,10:38:14,30.22,40.93,26.05,0.902,8.27,-76.4,-3.8,-4,-486,78,5.09,13.2,
25.9126943,-80.13781815,58:00.5,9/18/20,10,1.766,76.26,-7.021243614,1,268.4,261.78,-2.05,-4.19,31.1,0,3.69,3.69,95,48,513,16.2,-2.9,D,720.4,1,146.858,3,1.57,195,153.75,-80.13716883,25.91150973,1.00584,1.00584,1,N,7.669495,213,213,-15.51,5,5,113.0302,0,9999.99,3.67,3.797,2,9,30.7,0,30.70000076,25.83,1537.38608,9/18/20,10:38:16,30.21,40.61,25.83,0.935,8.29,-77.3,-4.9,-4.6,-1503,77.9,5.09,13,
25.91269411,-80.13782646,58:01.5,9/18/20,10,1.766,76.26,-7.021243614,1,276.6,270.23,-1.64,-1.07,31.2,0,3.54,3.54,95,48,513,16.2,-2.9,D,720.4,1,147.21,3,1.58,195,153.46,-80.13716883,25.91150973,1.00584,1.00584,1,N,8.555306,213,213,-15.51,5,5,109.9023,0,9999.99,3.53,3.657,2,9,30.7,0,30.70000076,25.83,1537.38608,9/18/20,10:38:16,30.21,40.61,25.83,0.935,8.29,-77.3,-4.9,-4.6,-1503,77.9,5.09,13,
25.91269466,-80.13783443,58:02.5,9/18/20,10,1.766,76.26,-7.021243614,1,279.3,273,-2.33,-10.1,31.1,0,3.31,3.31,95,48,513,16.2,-2.9,D,720.4,1,147.621,3,1.59,195,153.19,-80.13716883,25.91150973,1.00584,1.00584,1,N,9.255072,212,212,-15.51,5,5,107.6621,0,9999.99,3.29,3.417,2,9,30.7,0,30.70000076,25.86,1537.41715,9/18/20,10:38:18,30.21,40.66,25.86,0.925,8.27,-76,-4.2,-1.5,-1724,77.8,5.08,13.2,
25.91269592,-80.13784257,58:03.5,9/18/20,10,1.766,76.26,-7.021243614,1,286.4,280.27,-1.84,-7.36,31.2,0,3.25,3.25,95,48,513,16.2,-2.9,D,720.4,1,148.115,3,1.58,195,152.94,-80.13716883,25.91150973,1.00584,1.00584,1,N,9.95505,213,213,-15.51,5,5,105.6074,0,9999.99,3.23,3.357,2,9,30.7,0,30.70000076,25.86,1537.41715,9/18/20,10:38:18,30.21,40.66,25.86,0.925,8.27,-76,-4.2,-1.5,-1724,77.8,5.08,13.2,
25.91269783,-80.13785038,58:04.6,9/18/20,10,1.766,76.26,-7.021243614,1,292,285.97,-2.18,-9.3,31.2,0,3.05,3.05,95,47,512.9,16.2,-2.9,D,728.7,1,148.661,3,1.56,195,152.71,-80.13716883,25.91150973,1.00584,1.00584,1,N,10.60594,211,211,-15.51,250,250,103.8498,0,9999.99,3.03,3.159793,2,9,30.7,0,30.70000076,26.02,1537.58289,9/18/20,10:38:19,30.2,40.89,26.02,0.898,8.28,-76.6,-4.1,-8.3,-1945,77.7,5.07,13.2,
25.91270079,-80.13785839,58:05.5,9/18/20,10,1.766,76.26,-7.021243614,1,298.2,292.27,-2.4,-0.83,31.1,0,2.96,2.96,95,48,512.9,16.2,-3,D,711.4,1,149.322,3,1.63,195,152.49,-80.13716883,25.91150973,1.00584,1.00584,1,N,11.20072,212,212,-15.51,250,250,102.3588,0,9999.99,2.95,3.077,2,9,30.6,0,30.70000076,26,1537.56217,9/18/20,10:38:20,30.19,40.85,26,0.927,8.28,-77,-2.4,-3.2,-3534,77.5,5.06,13,
25.9127056,-80.13786608,58:06.7,9/18/20,10,1.766,76.26,-7.021243614,1,315.5,309.77,-0.6,-4.16,31.1,0,2.88,2.88,95,48,512.9,16.2,-3,D,711.4,1,150.152,3,1.62,195,152.33,-80.13716883,25.91150973,1.00584,1.00584,1,N,11.7332,213,213,-15.51,250,250,101.1098,0,9999.99,2.86,2.987,2,9,30.6,0,30.60000038,26.01,1537.36446,9/18/20,10:38:22,30.2,40.87,26.01,0.913,8.26,-75.7,-5.8,-4.4,-2966,77.3,5.05,13.1,
25.91271112,-80.13787067,58:07.7,9/18/20,9,1.766,76.26,-7.021243614,1,336.8,331.34,-0.13,-1.93,31.2,0,2.92,2.92,95,48,512.9,16.2,-3,D,711.4,1,150.909,3,1.57,195,152.28,-80.13716883,25.91150973,1.00584,1.00584,1,N,11.94632,213,213,-15.51,250,250,100.632,0,9999.99,2.92,3.047,2,9,30.6,0,30.60000038,26.01,1537.36446,9/18/20,10:38:23,30.22,40.87,26.01,0.854,8.26,-75.6,-4.9,-2.9,-2427,77.1,5.03,13.2,
25.91271853,-80.13787356,58:08.7,9/18/20,9,1.766,76.26,-7.021243614,1.19,351.3,346.1,-0.73,-0.1,31.1,0,3.14,3.14,95,48,512.9,16.2,-3,D,711.4,1,151.772,3,1.54,195,152.33,-80.13716883,25.91150973,1.00584,1.00584,1,N,11.91562,213,213,-15.51,250,250,100.6977,0,9999.99,3.14,3.267,2,9,30.6,0,30.60000038,25.93,1537.28153,9/18/20,10:38:24,30.24,40.75,25.93,0.89,8.28,-76.5,-3.9,-3,-3834,76.9,5.02,13,
25.91272553,-80.13787319,58:09.7,9/18/20,9,1.766,76.26,-7.021243614,1,12.6,7.88,0.37,-1.57,31.1,0,3.25,3.25,95,50,512.9,16.2,-3.1,D,682.5,1,152.446,3,1.5,195,152.48,-80.13716883,25.91150973,1.00584,1.00584,1,N,11.61109,213,213,-15.51,250,250,101.3883,0,9999.99,3.24,3.367,2,9,30.6,0,30.60000038,25.87,1537.21934,9/18/20,10:38:25,30.29,40.68,25.87,0.842,8.3,-78.2,-5,-5.9,-4946,76.8,5.01,13.1,
25.91273159,-80.13787059,58:10.7,9/18/20,9,1.766,76.26,-7.021243614,1,29.4,25.04,-0.72,0.77,31.2,0,3.1,3.1,95,50,512.9,16.2,-3.1,D,682.5,1,152.924,3,1.45,195,152.68,-80.13716883,25.91150973,1.00584,1.00584,1,N,11.12442,213,213,-15.51,250,250,102.5438,0,9999.99,3.1,3.227,2,9,30.6,0,30.60000038,25.79,1537.13642,9/18/20,10:38:26,30.32,40.57,25.79,0.873,8.27,-76.2,-2.4,-0.6,-3914,76.6,5,13,
25.91273693,-80.13786602,58:11.7,9/18/20,9,1.766,76.26,-7.021243614,1,49.2,45.02,-0.17,1.26,31.1,0,3.02,3.02,95,57,512.9,16.2,-3.5,D,598.8,1,153.243,3,1.43,195,152.93,-80.13716883,25.91150973,1.00584,1.00584,1,N,10.47545,213,213,-15.51,250,250,104.1906,0,9999.99,3.01,3.137,2,9,30.6,0,30.60000038,25.76,1537.10532,9/18/20,10:38:27,30.34,40.53,25.76,0.852,8.25,-75.2,-4.1,-2.6,-3253,76.5,4.99,13.2,
25.9127408,-80.13785972,58:12.7,9/18/20,9,1.766,76.26,-7.021243614,1.01,61.7,57.41,-0.87,-6.47,31.1,0,3.08,3.08,95,57,512.9,16.2,-3.5,D,598.8,1,153.341,3,1.41,195,153.22,-80.13716883,25.91150973,1.00584,1.00584,1,N,9.740709,213,213,-15.51,250,250,106.2162,0,9999.99,3.07,3.197,2,9,30.6,0,30.60000038,25.72,1537.06386,9/18/20,10:38:28,30.34,40.47,25.72,0.883,8.28,-76.7,-4.6,0.8,-3694,76.3,4.98,12.9,
25.91274205,-80.13785276,58:13.7,9/18/20,9,1.766,76.26,-7.021243614,1.01,88.5,83.21,-4.02,5.29,31.1,0,3.2,3.2,95,57,512.9,16.2,-3.5,D,598.8,1,153.154,3,1.4,195,153.47,-80.13716883,25.91150973,1.00584,1.00584,1,N,9.039348,195,195,-15.51,225,225,108.3348,0,9999.99,3.17,3.295709,2,9,30.6,0,30.60000038,25.98,1537.33336,9/18/20,10:38:29,30.33,40.84,25.98,0.89,8.29,-77.5,-3.9,-6.1,-2827,76.2,4.97,13.3,
25.91274261,-80.13784784,58:14.7,9/18/20,9,1.766,76.26,-7.021243614,1.01,87.5,82.27,-2.32,0.1,31.2,0,3.33,3.33,95,45,512.8,16.2,-2.7,D,769.5,1,152.99,3,0.75,195,153.65,-80.13716883,25.91150973,1.00584,1.00584,1,N,8.519093,213,213,-15.51,244,244,110.0215,0,9999.99,3.34,3.467,2,9,30.6,0,30.60000038,5.78,1516.44749,9/18/20,10:38:30,30.27,10.33,5.78,0.621,8.27,-76.2,-4.8,-6,-1669,76.1,5.55,13.1,
25.91274302,-80.13784504,58:15.7,9/18/20,9,1.766,76.26,-7.021243614,1.01,86.3,81.13,-0.65,4.03,31.1,0,2.82,2.82,95,45,512.8,16.2,-2.7,D,769.5,1,152.907,3,0.42,195,153.75,-80.13716883,25.91150973,1.00584,1.00584,1,N,8.226168,213,213,-15.51,247,247,111.0206,0,9999.99,2.81,2.937,2,9,30.6,0,30.60000038,0.83,1511.34547,9/18/20,10:38:31,30.23,1.655,0.83,0.599,8.27,-76.3,-3.7,55.4,-2039,76.1,5.71,13.1,