Latitude,Longitude,Time,Date,Number of Sats,GPS Speed (Kn),GPS True Heading,GPS Magnetic Variation,HDOP,C Magnetic Heading,C True Heading,Pitch Angle,Roll Angle,C Inside Temp (c),DFS Depth (m),DTB Height (m),Total Water Column (m),Batt Percent,Power Watts,Watt-Hours,Batt Volts,Batt Ampers,Batt State,Time to Empty,Current Step,Dist To Next (m),Next Speed (kn),Vehicle Speed (kn),Motor Speed CMD,Next Heading,Next Long,Next Lat,Next Depth (m),Depth Goal (m),Vehicle State,Error State,Distance to Track (m),Fin Pitch R,Fin Pitch L,Pitch Goal,Fin Yaw T,Fin Yaw B,Yaw Goal,Fin Roll,DVL-Depth (m),DVL -Altitude (m),DVL -Water Column (m),DVL-FixType,DVL-FixQuality,DVL-Temperature,Conductivity (mmhos/cm),Temperature (c),Salinity (ppt),Sound Speed (m/s),Date m/d/y   ,Time hh:mm:ss,Temp C,SpCond mS/cm,Sal ppt,Depth feet,pH,pH mV,Turbid+ NTU,Chl ug/L,BGA-PC cells/mL,ODOsat %,ODO mg/L,Battery volts,ROSEM Command Type
25.8459855,-80.1763955,18:50.8,10/4/20,9,0.538,209.91,-6.993015135,1.02,141,132.09,3.52,-3.23,39.9,0,0.16,0.16,93,21,506.3,16.2,-1.2,D,1621.7,0,21.43,2,0,128,288.38,-80.17659872,25.84604627,0,0,1,N,2.90813,78,78,11,250,250,308.891,0,9999.99,999.99,999.99,0,0,33.4,0,33.40000153,4.35,1520.95792,10/4/20,16:58:56,28.15,7.906,4.35,1.084,7.82,-49.1,-1.3,-8.4,-1543,47.2,3.6,13.3,
25.84598654,-80.17639625,18:51.9,10/4/20,9,0.331,209.91,-6.993015135,1.02,135.9,127.32,3.52,-2.42,39.8,0,0.24,0.24,93,21,506.3,16.2,-1.2,D,1621.7,0,21.323,2,0.26,174,288.15,-80.17659872,25.84604627,0,0,1,N,2.90813,78,78,11,250,250,288.3803,0,9999.99,0.27,0.397,2,9,33.4,0,33.40000153,4.35,1520.95792,10/4/20,16:58:56,28.15,7.906,4.35,1.084,7.82,-49.1,-1.3,-8.4,-1543,47.2,3.6,13.3,
25.8459886,-80.17639647,18:52.9,10/4/20,9,0.482,209.91,-6.993015135,1.02,121.9,114.32,5.02,3.26,39.8,0.02,0.24,0.26,93,21,506.3,16.2,-1.2,D,1621.7,0,21.231,2,0.32,174,287.58,-80.17659872,25.84604627,0,0,1,N,2.90813,86,86,11,250,250,287.5832,0,9999.99,0.27,0.397,2,9,33.4,0,33.40000153,4.33,1520.93872,10/4/20,16:58:57,28.15,7.864,4.33,1.048,7.82,-49,-0.9,-1.6,-3951,46.7,3.56,13.3,
25.84598469,-80.17639562,18:53.9,10/4/20,7,1.007,209.91,-6.993015135,1.13,148.8,139.44,2.66,4.44,39.8,0.02,0.92,0.94,93,34,506.3,16.2,-2.1,D,1000.9,0,21.447,2,0.34,174,288.62,-80.17659872,25.84604627,0,0,1,N,2.90813,73,73,11,250,250,288.6281,0,9999.99,0.95,1.077,2,9,33.3,0,33.40000153,4.33,1520.94149,10/4/20,16:58:58,28.15,7.865,4.33,1.059,7.83,-49.2,-2.5,-1.3,-966,46.2,3.52,13.4,
25.8459804,-80.17639647,18:54.9,10/4/20,9,0.854,209.91,-6.993015135,1.13,152.7,143.15,0.08,-0.46,39.8,0.03,0.96,0.99,93,34,506.3,16.2,-2.1,D,1000.9,0,21.524,2,0.55,174,289.89,-80.17659872,25.84604627,0,0,1,N,2.90813,57,57,11,250,250,289.8454,0,9999.99,0.97,1.097,2,9,33.3,0,33.29999924,4.31,1520.71615,10/4/20,16:59:00,28.15,7.838,4.31,1.094,7.82,-48.6,-2.1,-3.8,-4185,45.2,3.45,13.4,
25.84597536,-80.17639359,18:55.9,10/4/20,9,1.339,209.91,-6.993015135,1.09,154.1,144.49,-0.31,-5.77,39.9,0.07,0.95,1.02,93,34,506.3,16.2,-2.1,D,1000.9,0,21.99,2,0.72,174,291.01,-80.17659872,25.84604627,0,0,1,N,2.90813,52,52,11,250,250,290.9363,0,9999.99,0.94,1.067,2,9,33.3,0,33.29999924,4.31,1520.71615,10/4/20,16:59:00,28.15,7.838,4.31,1.094,7.82,-48.6,-2.1,-3.8,-4185,45.2,3.45,13.4,
25.84596363,-80.17639613,18:56.9,10/4/20,9,1.038,209.91,-6.993015135,1.02,139.4,130.59,2.98,7.09,39.9,0.08,0.97,1.05,93,41,506.2,16.1,-2.5,D,817.3,0,22.259,2,0.71,174,294.38,-80.17659872,25.84604627,0,0,1,N,2.90813,75,75,11,250,250,294.3576,0,9999.99,0.99,1.117,2,9,33.3,0,33.29999924,4.31,1520.72521,10/4/20,16:59:01,28.15,7.83,4.31,1.463,7.81,-48,-1.1,-4.4,-2050,44.7,3.41,13.3,
25.84595544,-80.17639266,18:57.9,10/4/20,9,1.458,143.1,-6.993015135,1.02,135.3,126.76,6.49,0.22,39.8,0.07,1.04,1.11,93,41,506.2,16.1,-2.5,D,817.3,0,22.962,2,0.71,174,296.1,-80.17659872,25.84604627,0,0,1,N,2.90813,96,96,11,250,250,296.0836,0,9999.99,1.1,1.227,2,9,33.2,0,33.29999924,4.32,1520.7346,10/4/20,16:59:03,28.14,7.841,4.32,1.368,7.82,-48.6,-1.3,-2.4,-1388,43.8,3.34,13.3,
25.84595191,-80.17638525,18:58.9,10/4/20,9,1.434,136.5,-6.993015135,1.02,140.1,131.24,2.81,2.01,39.8,0.02,1.16,1.18,93,41,506.2,16.1,-2.5,D,817.3,0,23.8,2,1.31,174,296.16,-80.17659872,25.84604627,0,0,1,N,2.90813,74,74,11,250,250,296.1256,0,9999.99,1.2,1.327,2,9,33.2,0,33.29999924,4.32,1520.7346,10/4/20,16:59:03,28.14,7.841,4.32,1.368,7.82,-48.6,-1.3,-2.4,-1388,43.8,3.34,13.3,
25.84594946,-80.17637862,18:59.9,10/4/20,9,1.977,131.22,-6.993015135,1.05,145.9,136.7,2.71,2.65,39.8,0,1.25,1.25,93,41,506.2,16.1,-2.5,D,817.3,0,24.516,2,1.49,174,296.05,-80.17659872,25.84604627,0,0,1,N,2.90813,73,73,11,250,250,295.9926,0,9999.99,1.27,1.397,2,9,33.1,0,33.20000076,4.24,1520.43808,10/4/20,16:59:04,28.14,7.707,4.24,1.02,7.81,-48.3,-1.8,-9,-2680,43.3,3.3,13.4,
25.84594658,-80.17637273,19:00.9,10/4/20,9,1.789,130.13,-6.993015135,1.02,155.1,145.44,3.08,1.26,39.8,0,1.28,1.28,93,38,506.2,16.2,-2.3,D,878.6,0,25.186,2,1.65,174,296.11,-80.17659872,25.84604627,0,0,1,N,2.90813,75,75,11,250,250,296.034,0,9999.99,1.31,1.437,2,9,33.1,0,33.09999847,4.29,1520.28083,10/4/20,16:59:05,28.12,7.795,4.29,1.091,7.81,-48,-1.3,-2.4,-2271,42.8,3.26,13.3,
25.84594038,-80.17636436,19:02.0,10/4/20,9,2.161,129.71,-6.993015135,1.02,164.7,154.71,5.06,2.82,39.8,0,1.29,1.29,93,38,506.2,16.2,-2.3,D,878.6,0,26.243,2,1.73,174,296.66,-80.17659872,25.84604627,0,0,1,N,2.90813,87,87,11,250,250,296.5577,0,9999.99,1.33,1.457,2,9,33,0,33.09999847,4.33,1520.322,10/4/20,16:59:07,28.11,7.867,4.33,1.033,7.8,-47.5,-2.3,-6,-577,41.9,3.2,13.2,
25.84593215,-80.17635669,19:03.0,10/4/20,9,2.039,135.19,-6.993015135,1.02,174.6,164.45,5.09,1.85,39.8,0,1.26,1.26,93,38,506.2,16.2,-2.3,D,878.6,0,27.344,2,1.72,174,297.65,-80.17659872,25.84604627,0,0,1,N,0.2035314,88,88,11,250,250,298.3876,0,9999.99,1.3,1.427,2,9,33,0,33.09999847,4.33,1520.322,10/4/20,16:59:07,28.11,7.867,4.33,1.033,7.8,-47.5,-2.3,-6,-577,41.9,3.2,13.2,
25.84592602,-80.1763505,19:03.9,10/4/20,9,1.971,143.4,-6.993015135,1.02,183.7,173.55,4.46,2.96,39.8,0.01,1.19,1.19,93,38,506.2,16.2,-2.3,D,894.9,0,28.211,2,1.69,175,298.29,-80.17659872,25.84604627,0,0,1,N,0.5171807,84,84,11,250,250,300.0116,0,9999.99,1.23,1.357,2,9,32.9,0,33,4.32,1520.10512,10/4/20,16:59:08,28.11,7.848,4.32,1.019,7.78,-46.6,-1,-1.3,-373,41.5,3.16,13.4,
25.84592015,-80.17634693,19:05.0,10/4/20,9,1.846,153.36,-6.993015135,1.02,189.2,179.12,5.18,4.25,39.8,0.02,1.36,1.37,93,38,506.2,16.2,-2.3,D,894.9,0,28.837,2,1.68,175,299.1,-80.17659872,25.84604627,0,0,1,N,0.9415901,88,88,11,250,250,302.0077,0,9999.99,1.4,1.527,2,9,32.9,0,32.90000153,4.36,1519.93899,10/4/20,16:59:09,28.11,7.92,4.36,1.049,7.8,-47.4,-0.9,-6.7,-3312,41.1,3.13,13.3,
25.84591479,-80.17634364,19:06.0,10/4/20,9,1.768,157.2,-6.993015135,1.02,198.7,188.86,4.92,1.55,39.8,0.01,1.62,1.62,93,38,506.2,16.2,-2.3,D,894.9,0,29.417,2,1.69,175,299.8,-80.17659872,25.84604627,0,0,1,N,1.315616,84,84,11,250,250,303.5205,0,9999.99,1.66,1.787,2,9,32.9,0,32.90000153,4.19,1519.76677,10/4/20,16:59:11,28.11,7.625,4.19,1.059,7.79,-46.9,-0.9,-2.9,-1246,40.3,3.08,13.2,
25.84590604,-80.17634189,19:07.0,10/4/20,9,1.903,164.18,-6.993015135,1.02,204.9,195.28,3.69,0.72,39.8,0.01,1.86,1.87,93,38,506.2,16.2,-2.3,D,894.9,0,30.062,2,1.68,175,301.24,-80.17659872,25.84604627,0,0,1,N,2.088518,80,80,11,250,250,306.6336,0,9999.99,1.89,2.017,2,9,32.8,0,32.90000153,4.08,1519.65433,10/4/20,16:59:12,28.1,7.432,4.08,1.059,7.81,-47.9,0.2,-3.8,-1479,40,3.05,13.4,
25.84590056,-80.17634053,19:07.9,10/4/20,9,1.548,164.18,-6.993015135,1.02,213.8,204.57,4.8,3.13,39.8,0,1.99,1.99,93,39,506.2,16.1,-2.4,D,854.3,0,30.498,2,1.68,176,302.09,-80.17659872,25.84604627,0,0,1,N,2.563189,86,86,11,250,250,308.2971,0,9999.99,2.03,2.157,2,9,32.8,0,32.79999924,4.15,1519.51727,10/4/20,16:59:13,28.09,7.554,4.15,1.084,7.8,-47.4,-1.7,-2.8,-2054,39.7,3.03,13.3,
25.84589243,-80.17634203,19:09.0,10/4/20,9,1.602,178.14,-6.993015135,1.02,224.7,216.02,3.59,3,39.8,0,2.21,2.21,93,39,506.2,16.1,-2.4,D,854.3,0,30.862,2,1.61,176,303.66,-80.17659872,25.84604627,0,0,1,N,3.447314,79,79,11,250,250,311.6125,0,9999.99,2.24,2.367,2,9,32.7,0,32.79999924,4.15,1519.51727,10/4/20,16:59:13,28.09,7.554,4.15,1.084,7.8,-47.4,-1.7,-2.8,-2054,39.7,3.03,13.3,
25.84588702,-80.17634283,19:10.0,10/4/20,9,1.4,187.6,-6.993015135,1.02,234.6,226.45,4.65,6.41,39.8,0,2.31,2.31,93,39,506.2,16.1,-2.4,D,854.3,0,31.134,2,1.52,177,304.66,-80.17659872,25.84604627,0,0,1,N,4.010711,85,85,11,250,250,313.5517,0,9999.99,2.35,2.477,2,9,32.7,0,32.70000076,4.22,1519.37883,10/4/20,16:59:14,28.09,7.672,4.22,1.059,7.77,-46,-1.7,-3.6,-2663,39.3,3,13.3,
25.84588159,-80.1763475,19:11.0,10/4/20,9,1.508,198.3,-6.993015135,1.02,243.6,235.92,5.15,2.94,39.8,0.01,2.48,2.49,93,39,506.2,16.1,-2.4,D,854.3,0,31.102,2,1.45,177,306.07,-80.17659872,25.84604627,0,0,1,N,4.766198,88,88,11,250,250,316.6483,0,9999.99,2.53,2.657,2,9,32.7,0,32.70000076,4.05,1519.20593,10/4/20,16:59:16,28.09,7.384,4.05,1.091,7.8,-47.4,-1.3,-2.5,-6158,38.6,2.95,13.3,
25.84587561,-80.17635342,19:12.0,10/4/20,9,1.383,204.01,-6.993015135,1.02,253.9,246.72,4.31,3.88,39.8,0.01,2.56,2.57,93,41,506.2,16.1,-2.5,D,820.2,0,31.028,2,1.36,178,307.71,-80.17659872,25.84604627,0,0,1,N,5.646469,83,83,11,250,250,320.3257,0,9999.99,2.6,2.727,2,9,32.7,0,32.70000076,4.05,1519.20593,10/4/20,16:59:16,28.09,7.384,4.05,1.091,7.8,-47.4,-1.3,-2.5,-6158,38.6,2.95,13.3,
25.84587043,-80.1763579,19:13.0,10/4/20,9,1.392,212.11,-6.993015135,1.02,263.2,256.42,3.61,2.5,39.8,0.01,2.67,2.67,93,41,506.2,16.1,-2.5,D,820.2,0,31.034,2,1.29,180,309.05,-80.17659872,25.84604627,0,0,1,N,6.372306,79,79,11,250,250,323.2127,0,9999.99,2.7,2.827,2,9,32.6,0,32.70000076,3.89,1519.04385,10/4/20,16:59:17,28.08,7.11,3.89,1.095,7.78,-46.2,-1.7,1.2,3491,38.3,2.93,13.5,
25.84586938,-80.1763633,19:14.0,10/4/20,9,1.144,219.34,-6.993015135,1.02,274.3,267.89,5.41,4.4,39.7,0.01,2.71,2.72,93,41,506.2,16.1,-2.5,D,820.2,0,30.69,2,1.21,182,309.86,-80.17659872,25.84604627,0,0,1,N,6.726569,89,89,11,250,250,325.4102,0,9999.99,2.76,2.887,2,9,32.6,0,32.59999847,3.86,1518.80364,10/4/20,16:59:18,28.07,7.06,3.86,1.054,7.81,-48.1,-1.8,-0.8,-2641,38.1,2.92,13.3,
25.84587012,-80.17636955,19:15.0,10/4/20,9,1.352,233.34,-6.993015135,1.02,286.4,280.29,3.52,3.48,39.8,0.01,2.75,2.75,93,46,506.1,16.1,-2.8,D,734.7,0,30.16,2,1.15,183,310.5,-80.17659872,25.84604627,0,0,1,N,6.955107,78,78,11,250,250,327.7201,0,9999.99,2.78,2.907,2,9,32.6,0,32.59999847,3.86,1518.80414,10/4/20,16:59:20,28.06,7.07,3.86,1.07,7.8,-47.5,-2.2,116.3,31099,37.6,2.87,13.4,
25.84586994,-80.17637514,19:16.0,10/4/20,9,1.081,245.3,-6.993015135,1.02,302.4,296.55,5.83,4.31,39.8,0.01,2.75,2.76,93,46,506.1,16.1,-2.8,D,734.7,0,29.75,2,1.12,187,311.23,-80.17659872,25.84604627,0,0,1,N,7.256701,92,92,11,250,250,330.2102,0,9999.99,2.8,2.927,2,9,32.5,0,32.59999847,3.86,1518.80414,10/4/20,16:59:20,28.06,7.07,3.86,1.07,7.8,-47.5,-2.2,116.3,31099,37.6,2.87,13.4,
25.84587283,-80.17638046,19:17.0,10/4/20,9,1.294,266.83,-6.993015135,1.02,311.3,305.56,4.56,7,39.8,0.01,2.8,2.81,93,46,506.1,16.1,-2.8,D,734.7,0,29.137,2,1.13,191,311.44,-80.17659872,25.84604627,0,0,1,N,7.230698,84,84,11,233,233,332.0786,0,9999.99,2.84,2.967,2,9,32.5,0,32.5,3.89,1518.62406,10/4/20,16:59:21,28.05,7.116,3.89,1.057,7.8,-47.9,-1.8,-4.7,-2930,37.3,2.86,13.3,
25.84587853,-80.17638554,19:18.0,10/4/20,9,1.308,284.76,-6.993015135,1.02,327.9,322.34,6.28,4.15,39.8,0,2.78,2.79,93,46,506.1,16.1,-2.8,D,734.7,0,28.337,2,1.22,194,311.16,-80.17659872,25.84604627,0,0,1,N,6.927503,95,95,11,178,178,333.6336,0,9999.99,2.84,2.967,2,9,32.5,0,32.5,3.84,1518.57281,10/4/20,16:59:23,28.05,7.025,3.84,1.034,7.8,-47.4,-1.6,-4.7,-3892,36.9,2.82,13.2,
25.84588617,-80.17638913,19:19.0,10/4/20,9,1.749,316.18,-6.993015135,1.02,337.8,332.38,4.86,6.34,39.7,0,2.72,2.73,93,66,506.1,16.1,-4,D,514.2,0,27.511,2,1.39,196,310.32,-80.17659872,25.84604627,0,0,1,N,6.351887,88,88,11,140,140,334.3054,0,9999.99,2.77,2.897,2,9,32.5,0,32.5,3.84,1518.57281,10/4/20,16:59:23,28.05,7.025,3.84,1.034,7.8,-47.4,-1.6,-4.7,-3892,36.9,2.82,13.2,
25.84589627,-80.17639349,19:20.0,10/4/20,9,2.027,327.9,-6.993015135,1.02,340.4,335.02,2.02,3.47,39.7,0,2.67,2.67,93,66,506.1,16.1,-4,D,514.2,0,26.458,2,1.65,198,309.08,-80.17659872,25.84604627,0,0,1,N,5.566983,69,69,11,115,115,331.9162,0,9999.99,2.69,2.817,2,9,32.4,0,32.5,3.82,1518.55199,10/4/20,16:59:24,28.05,6.993,3.82,1.091,7.76,-45.4,-2.4,-4.2,-15,36.6,2.81,13.4,
25.84591015,-80.17639583,19:21.0,10/4/20,9,2.221,335.82,-6.993015135,1.02,340.9,335.53,2.42,8.3,39.8,0.01,2.22,2.23,93,66,506.1,16.1,-4,D,514.2,0,25.325,2,1.84,198,306.7,-80.17659872,25.84604627,0,0,1,N,4.308755,72,72,11,86,86,325.3882,0,9999.99,2.23,2.357,2,9,32.4,0,32.40000153,3.8,1518.3208,10/4/20,16:59:26,28.04,6.962,3.8,1.17,7.79,-47.3,-0.6,-2.2,-1038,36.2,2.78,13.3,
25.84592083,-80.1763992,19:22.0,10/4/20,9,2.225,339.86,-6.993015135,1.02,341.8,336.45,3.93,2.07,39.8,0,2.28,2.28,93,73,506.1,16.1,-4.5,D,461.2,0,24.356,2,2.02,198,304.94,-80.17659872,25.84604627,0,0,1,N,3.42882,81,81,11,61,61,320.2823,0,9999.99,2.32,2.447,2,9,32.4,0,32.40000153,3.8,1518.3208,10/4/20,16:59:26,28.04,6.962,3.8,1.17,7.79,-47.3,-0.6,-2.2,-1038,36.2,2.78,13.3,
25.84593183,-80.17640371,19:23.0,10/4/20,9,2.239,341.11,-6.993015135,1.02,330.5,324.98,5.35,8.7,39.8,0,2.19,2.2,93,73,506.1,16.1,-4.5,D,461.2,0,23.298,2,2.1,198,303.11,-80.17659872,25.84604627,0,0,1,N,2.51577,89,89,11,85,85,314.5373,0,9999.99,2.24,2.367,2,9,32.4,0,32.40000153,3.98,1518.50364,10/4/20,16:59:27,28.04,7.274,3.98,1.116,7.78,-46.7,-0.4,-2.8,-2672,36.1,2.76,13.2,
25.84594008,-80.17640953,19:24.0,10/4/20,9,2.096,334.33,-6.993015135,1.02,325.1,319.51,6.36,7.98,39.8,0.01,2.11,2.12,93,73,506.1,16.1,-4.5,D,461.2,0,22.313,2,2.1,198,301.95,-80.17659872,25.84604627,0,0,1,N,1.960256,95,95,11,92,92,310.8496,0,9999.99,2.17,2.297,2,9,32.3,0,32.40000153,4.24,1518.76882,10/4/20,16:59:29,28.07,7.717,4.24,1.066,7.77,-45.8,-1.7,-4.1,-2735,35.7,2.73,13.3,
25.84594748,-80.1764173,19:25.0,10/4/20,9,2.045,330.67,-6.993015135,1.02,319,313.34,5.4,5.92,39.8,0.02,2.01,2.03,93,73,506.1,16.1,-4.5,D,461.2,0,21.22,2,2.12,198,301.18,-80.17659872,25.84604627,0,0,1,N,1.565659,89,89,11,106,106,308.1549,0,9999.99,2.06,2.187,2,9,32.3,0,32.40000153,4.24,1518.76882,10/4/20,16:59:29,28.07,7.717,4.24,1.066,7.77,-45.8,-1.7,-4.1,-2735,35.7,2.73,13.3,
25.8459532,-80.17642348,19:26.0,10/4/20,9,1.77,324.92,-6.993015135,1.02,313.8,308.08,4.91,14,39.8,0.01,1.96,1.97,93,69,506,16.1,-4.3,D,489,0,20.363,2,2.13,198,300.55,-80.17659872,25.84604627,0,0,1,N,1.261916,84,84,11,120,120,306.0457,0,9999.99,2,2.128704,2,9,32.3,0,32.29999924,4.03,1518.34506,10/4/20,16:59:30,28.08,7.363,4.03,1.092,7.78,-46.2,-1.5,-4.4,-1279,35.5,2.72,13.4,
25.84595958,-80.17643105,19:27.0,10/4/20,9,2.144,316.75,-6.993015135,1.02,316.2,310.51,4.1,11.3,39.8,0,1.91,1.92,93,69,506,16.1,-4.3,D,489,0,19.351,2,2.11,198,299.88,-80.17659872,25.84604627,0,0,1,N,0.9792784,82,82,11,101,101,304.0607,0,9999.99,1.96,2.084767,2,9,32.3,0,32.29999924,3.83,1518.13961,10/4/20,16:59:32,28.08,7.017,3.83,1.068,7.79,-47,-3.7,-1.3,-921,35.2,2.7,13.4,
25.84596792,-80.17643958,19:28.0,10/4/20,9,2.366,312.23,-6.993015135,1.02,316.2,310.51,5.58,3.58,39.8,0.01,1.88,1.89,93,69,506,16.1,-4.3,D,489,0,18.153,2,2.15,198,298.68,-80.17659872,25.84604627,0,0,1,N,0.5473582,90,90,11,88,88,300.996,0,9999.99,1.93,2.057,2,9,32.3,0,32.29999924,3.83,1518.13961,10/4/20,16:59:32,28.08,7.017,3.83,1.068,7.79,-47,-3.7,-1.3,-921,35.2,2.7,13.4,
25.84597325,-80.17644745,19:29.0,10/4/20,9,2.139,310.84,-6.993015135,1.02,311.9,306.16,5.06,7.98,39.8,0.01,1.84,1.84,93,68,506,16.1,-4.2,D,496.2,0,17.178,2,2.14,198,298.21,-80.17659872,25.84604627,0,0,1,N,0.367731,87,87,11,100,100,299.7138,0,9999.99,1.88,2.007,2,9,32.2,0,32.29999924,4.02,1518.33371,10/4/20,16:59:33,28.06,7.333,4.02,1.111,7.78,-46.5,-1.6,-3.6,-1237,35.1,2.68,13.3,
25.84597912,-80.17645671,19:30.0,10/4/20,9,1.888,308.54,-6.993015135,1.02,308.5,302.73,4.51,8.5,39.8,0.01,1.85,1.85,93,68,506,16.1,-4.2,D,496.2,0,16.053,2,2.14,198,297.72,-80.17659872,25.84604627,0,0,1,N,0.1983899,85,85,11,107,107,298.5026,0,9999.99,1.89,2.017,2,9,32.2,0,32.20000076,3.79,1517.8868,10/4/20,16:59:34,28.07,6.939,3.79,1.052,7.78,-46.6,-2.2,-5.6,-3109,34.9,2.67,13.3,
25.84598308,-80.17646579,19:31.0,10/4/20,9,1.876,308.54,-6.993015135,1.02,307.9,302.12,4.85,7.3,39.8,0.01,1.83,1.84,93,68,506,16.1,-4.2,D,496.2,0,15.045,2,2.18,198,297.84,-80.17659872,25.84604627,0,0,1,N,0.217359,86,86,11,113,113,298.6384,0,9999.99,1.88,2.007,2,9,32.2,0,32.20000076,3.72,1517.81509,10/4/20,16:59:36,28.05,6.83,3.72,1.063,7.79,-47.3,-1.1,1.9,-3958,34.6,2.65,13.3,
25.8459889,-80.17647496,19:32.0,10/4/20,9,2.167,308.54,-6.993015135,1.02,306,300.2,5.12,9.4,39.8,0.01,1.85,1.86,93,68,506,16.1,-4.2,D,496.2,0,13.931,2,2.25,198,297.25,-80.17659872,25.84604627,0,0,1,N,5.62E-02,88,88,11,116,116,297.4845,0,9999.99,1.89,2.017,2,9,32.2,0,32.20000076,3.98,1518.08081,10/4/20,16:59:37,28.05,7.262,3.98,1.095,7.78,-46.5,-1.9,-7,-3330,34.5,2.64,13.3,
25.84599487,-80.17648239,19:33.0,10/4/20,9,1.915,308.54,-6.993015135,1.02,304.9,299.08,4.74,9.8,39.8,0.01,1.87,1.88,93,70,506,16.1,-4.3,D,484.4,0,12.968,2,2.27,197,296.15,-80.17659872,25.84604627,0,0,1,N,0.2022458,85,85,11,115,115,295.6339,0,9999.99,1.91,2.037,2,9,32.2,0,32.20000076,3.88,1517.97848,10/4/20,16:59:38,28.06,7.102,3.88,1.105,7.76,-45.1,-1.2,0.6,-2654,34.4,2.63,13.3,
25.84599851,-80.1764917,19:34.0,10/4/20,9,2.038,308.54,-6.993015135,1.02,306.1,300.3,4.54,8.9,39.8,0.01,1.87,1.88,93,70,506,16.1,-4.3,D,484.4,0,11.954,2,2.25,197,296.38,-80.17659872,25.84604627,0,0,1,N,0.1357212,86,86,11,108,108,296.1101,0,9999.99,1.91,2.037,2,9,32.1,0,32.20000076,3.88,1517.97848,10/4/20,16:59:38,28.06,7.102,3.88,1.105,7.76,-45.1,-1.2,0.6,-2654,34.4,2.63,13.3,
25.8460027,-80.17650279,19:35.0,10/4/20,9,2.097,304.46,-6.993015135,1.02,304.5,298.68,4,10.8,39.8,0,1.89,1.89,93,70,506,16.1,-4.3,D,484.4,0,10.753,2,2.24,197,296.78,-80.17659872,25.84604627,0,0,1,N,5.24E-02,81,81,11,119,119,296.7069,0,9999.99,1.92,2.047,2,9,32.1,0,32.09999847,3.77,1517.6533,10/4/20,16:59:39,28.06,6.914,3.77,1.087,7.79,-46.9,-1.8,-1,-390,34.2,2.62,13.1,
25.84600615,-80.17651385,19:36.0,10/4/20,9,2.192,298.28,-6.993015135,1.02,303.4,297.57,4.29,10.7,39.8,0.01,1.91,1.92,93,67,505.9,16.1,-4.1,D,506.9,0,9.594,2,2.26,197,297.71,-80.17659872,25.84604627,0,0,1,N,0.1077324,83,83,11,128,128,297.8536,0,9999.99,1.95,2.074202,2,9,32.1,0,32.09999847,3.94,1517.82641,10/4/20,16:59:41,28.06,7.201,3.94,1.089,7.77,-46.1,-0.8,0.6,73,34,2.6,13.3,
25.84600884,-80.17652207,19:37.0,10/4/20,9,1.581,298.28,-6.993015135,1.02,305.1,299.29,4.15,8,39.8,0.01,1.94,1.95,93,67,505.9,16.1,-4.1,D,506.9,0,8.727,2,2.19,196,298.49,-80.17659872,25.84604627,0,0,1,N,0.2202018,82,82,11,124,124,298.6588,0,9999.99,1.98,2.107,2,9,32.1,0,32.09999847,3.94,1517.82641,10/4/20,16:59:41,28.06,7.201,3.94,1.089,7.77,-46.1,-0.8,0.6,73,34,2.6,13.3,
25.84601141,-80.17653153,19:38.0,10/4/20,9,1.777,296.5,-6.993015135,1.02,309.3,303.53,3.78,5.82,39.8,0.01,1.96,1.96,93,67,505.9,16.1,-4.1,D,506.9,0,7.761,2,2.17,196,299.96,-80.17659872,25.84604627,0,0,1,N,0.4070756,80,80,11,115,115,299.9951,0,9999.99,1.99,2.117,2,9,32.1,0,32.09999847,3.81,1517.69471,10/4/20,16:59:42,28.06,6.985,3.81,1.079,7.78,-46.7,-1.6,-5.8,-3195,33.9,2.6,13.3,
25.84601851,-80.1765408,19:39.0,10/4/20,9,2.102,301.99,-6.993015135,1.02,310.2,304.44,3.95,8.4,39.8,0,1.95,1.95,93,67,505.9,16.1,-4.1,D,506.9,0,6.567,2,2.2,196,298.04,-80.17659872,25.84604627,0,0,1,N,0.1310742,81,81,11,101,101,298.0207,0,9999.99,1.98,2.107,2,9,32.1,0,32.09999847,3.85,1517.7347,10/4/20,16:59:43,28.06,7.05,3.85,1.08,7.78,-46.3,-1.9,-4.2,-1258,33.8,2.59,13.1,
25.84602322,-80.17655027,19:40.0,10/4/20,9,2.072,300.13,-6.993015135,1.02,307.1,301.31,4.62,10.3,39.8,0.01,1.98,1.99,93,65,505.9,16.1,-4,D,516.5,1,14.13,2,2.23,196,237.4,-80.17666921,25.84595475,0,0,1,N,5.570148,85,85,11,5,5,248.0127,0,9999.99,2.02,2.147,2,9,32,0,32.09999847,3.74,1517.62237,10/4/20,16:59:44,28.06,6.857,3.74,1.083,7.79,-46.8,-2.3,-6.5,-590,33.7,2.58,13.3,
25.84602836,-80.17655903,19:41.0,10/4/20,9,2.049,299.26,-6.993015135,1.02,298.5,292.6,4.06,0,39.8,0.01,2.02,2.03,93,65,505.9,16.1,-4,D,516.5,1,13.732,2,2.24,196,233.41,-80.17666921,25.84595475,0,0,1,N,4.524077,83,83,11,5,5,242.8244,0,9999.99,2.06,2.187,2,9,32,0,32,3.87,1517.54138,10/4/20,16:59:46,28.05,7.081,3.87,1.045,7.77,-45.7,-0.6,-3.6,-2438,33.5,2.56,13.4,
25.84603498,-80.17656718,19:42.0,10/4/20,9,1.767,296.02,-6.993015135,1.02,281.6,275.39,4.17,-3.71,39.8,0.01,1.95,1.96,93,65,505.9,16.1,-4,D,516.5,1,13.56,2,2.04,196,228.86,-80.17666921,25.84595475,0,0,1,N,3.434402,82,82,11,5,5,236.435,0,9999.99,1.99,2.117,2,9,32,0,32,3.87,1517.54138,10/4/20,16:59:46,28.05,7.081,3.87,1.045,7.77,-45.7,-0.6,-3.6,-2438,33.5,2.56,13.4,
25.84603705,-80.17657666,19:43.0,10/4/20,9,1.784,284.57,-6.993015135,1.02,262.9,256.1,5.28,0.54,39.8,0.01,2.01,2.02,93,65,505.9,16.1,-4,D,516.5,1,13.02,2,1.95,196,225.35,-80.17666921,25.84595475,0,0,1,N,2.471741,89,89,11,27,27,231.1642,0,9999.99,2.06,2.187,2,9,32,0,32,3.77,1517.43964,10/4/20,16:59:47,28.05,6.915,3.77,1.065,7.78,-46.5,-2.8,-2.2,-2943,33.4,2.55,13.2,
25.8460336,-80.17658604,19:44.0,10/4/20,9,1.821,269.8,-6.993015135,1.02,250.1,242.75,4.4,4.84,39.8,0.01,2.09,2.09,93,70,505.9,16.1,-4.3,D,484.7,1,12.089,2,1.89,196,223.51,-80.17666921,25.84595475,0,0,1,N,1.881232,84,84,11,63,63,227.9492,0,9999.99,2.13,2.257,2,9,32,0,32,3.78,1517.45045,10/4/20,16:59:49,28.06,6.933,3.78,1.038,7.76,-45.1,-1.1,-0.6,-719,33.1,2.54,13.4,
25.84602899,-80.17659659,19:45.1,10/4/20,9,1.905,247.77,-6.993015135,1.02,240.2,232.35,2.75,10,39.9,0,2.23,2.23,93,70,505.9,16.1,-4.3,D,484.7,1,10.999,2,1.97,196,221.36,-80.17666921,25.84595475,0,0,1,N,1.281379,73,73,11,93,93,223.8273,0,9999.99,2.25,2.377,2,9,32,0,32,3.78,1517.45045,10/4/20,16:59:49,28.06,6.933,3.78,1.038,7.76,-45.1,-1.1,-0.6,-719,33.1,2.54,13.4,
25.84601983,-80.17660475,19:46.1,10/4/20,9,2.165,231.62,-6.993015135,1.02,236.7,228.66,2.76,9.5,39.8,0.01,2.3,2.31,93,70,505.9,16.1,-4.3,D,484.7,1,9.695,2,2.07,196,221.72,-80.17666921,25.84595475,0,0,1,N,1.180689,74,74,11,105,105,223.1242,0,9999.99,2.33,2.455569,2,9,32,0,32,3.76,1517.42861,10/4/20,16:59:50,28.06,6.899,3.76,1.086,7.78,-46.4,-1.1,-8,-1070,33,2.53,13.4,
25.84601579,-80.17661336,19:47.1,10/4/20,9,2.214,225.69,-6.993015135,1.02,234.3,226.13,3.74,6.68,39.8,0,2.43,2.43,93,69,505.8,16.1,-4.3,D,486.9,1,8.793,2,2.21,196,219.47,-80.17666921,25.84595475,0,0,1,N,0.7183567,76,76,11,102,102,219.8597,0,9999.99,2.45,2.577,2,9,32,0,32,3.74,1517.40875,10/4/20,16:59:51,28.05,6.864,3.74,1.068,7.78,-46.3,-1.6,0.8,-5128,32.9,2.52,13.2,
25.84600786,-80.17661947,19:48.1,10/4/20,9,2.312,223.23,-6.993015135,1.02,233.3,225.08,4.52,7.03,39.8,0.01,2.51,2.52,93,69,505.8,16.1,-4.3,D,486.9,1,7.724,2,2.29,195,220.12,-80.17666921,25.84595475,0,0,1,N,0.7187093,84,84,11,106,106,219.8619,0,9999.99,2.55,2.678737,2,9,31.9,0,32,3.7,1517.36759,10/4/20,16:59:53,28.05,6.784,3.7,1.035,7.78,-46.4,-2,-4.5,-1106,32.8,2.51,13.3,
25.84599908,-80.17662709,19:49.1,10/4/20,9,2.301,218.61,-6.993015135,1.02,231.3,222.97,4.83,9.4,39.8,0.01,2.76,2.77,93,69,505.8,16.1,-4.3,D,486.9,1,6.486,2,2.38,195,220.54,-80.17666921,25.84595475,0,0,1,N,0.6414065,86,86,11,112,112,219.3124,0,9999.99,2.8,2.927,2,9,31.9,0,32,3.7,1517.36759,10/4/20,16:59:53,28.05,6.784,3.7,1.035,7.78,-46.4,-2,-4.5,-1106,32.8,2.51,13.3,
25.84598787,-80.17663699,19:50.1,10/4/20,9,2.546,215.03,-6.993015135,1.02,228.9,220.44,4.08,8,40,0.01,2.76,2.77,93,69,505.8,16.1,-4.3,D,486.9,1,4.894,2,2.44,195,221.2,-80.17666921,25.84595475,0,0,1,N,0.5291269,81,81,11,119,119,218.5124,0,9999.99,2.8,2.927,2,9,31.9,0,31.89999962,3.69,1517.14381,10/4/20,16:59:54,28.04,6.772,3.69,1.033,7.77,-46.1,-2,-0.8,-2912,32.7,2.5,13.4,
25.84597759,-80.17664416,19:51.1,10/4/20,9,2.51,214.19,-6.993015135,1.02,225.9,217.28,4.01,8.5,39.9,0.01,2.87,2.87,93,64,505.8,16.1,-3.9,D,526.8,2,14.173,2,2.44,194,138.16,-80.17654968,25.84588264,0,0,1,N,3.641382,85,85,11,5,5,148.3087,0,9999.99,2.91,3.037,2,9,31.9,0,31.89999962,3.7,1517.15416,10/4/20,16:59:55,28.04,6.784,3.7,1.044,7.78,-46.3,-1.2,0,-4090,32.6,2.5,13.2,
25.8459671,-80.17664842,19:52.1,10/4/20,9,2.384,210.48,-6.993015135,1.02,210.7,201.32,4.56,-10,39.9,0.01,2.9,2.92,93,64,505.8,16.1,-3.9,D,526.8,2,13.632,2,2.44,193,133.55,-80.17654968,25.84588264,0,0,1,N,2.441218,82,82,11,5,5,140.8014,0,9999.99,2.94,3.067,2,9,31.9,0,31.89999962,3.68,1517.13288,10/4/20,16:59:56,28.04,6.757,3.68,1.044,7.78,-46.5,-2.7,-5.1,-1033,32.5,2.49,13.3,
25.845957,-80.17665285,19:53.1,10/4/20,9,2.144,207.15,-6.993015135,1.02,196.5,186.59,3.81,2.45,39.9,0.02,2.83,2.85,93,64,505.8,16.1,-3.9,D,526.8,2,13.228,2,2.38,193,128.69,-80.17654968,25.84588264,0,0,1,N,1.232608,80,80,11,5,5,132.5928,0,9999.99,2.88,3.007,2,9,31.9,0,31.89999962,3.68,1517.13474,10/4/20,16:59:58,28.04,6.752,3.68,1.043,7.78,-46.5,-1.9,1.5,-3645,32.4,2.48,13.3,
25.84594697,-80.17665397,19:54.1,10/4/20,9,2.302,197.41,-6.993015135,1.02,180.6,170.43,5.71,6.3,39.9,0.02,2.79,2.81,93,66,505.8,16.1,-4.1,D,512.1,2,12.653,2,2.38,192,124.43,-80.17654968,25.84588264,0,0,1,N,0.2000406,91,91,11,5,5,125.2676,0,9999.99,2.82,2.947,2,9,31.9,0,31.89999962,3.68,1517.13474,10/4/20,16:59:58,28.04,6.752,3.68,1.043,7.78,-46.5,-1.9,1.5,-3645,32.4,2.48,13.3,
25.84593274,-80.17665331,19:55.2,10/4/20,9,2.619,181.81,-6.993015135,1.02,170.8,160.69,2.91,2.87,39.9,0.01,2.77,2.77,93,66,505.8,16.1,-4.1,D,512.1,2,11.772,2,2.4,192,118.25,-80.17654968,25.84588264,0,0,1,N,1.096953,74,74,11,5,5,116.0273,0,9999.99,2.8,2.927,2,9,31.9,0,31.89999962,3.69,1517.1451,10/4/20,16:59:59,28.03,6.77,3.69,1.061,7.78,-46.2,-1.9,-5,-3161,32.3,2.48,13.2,
25.84592422,-80.17664849,19:56.2,10/4/20,9,2.42,177.09,-6.993015135,1.02,153.9,144.3,2.66,5.02,39.8,0.01,2.7,2.71,93,66,505.8,16.1,-4.1,D,512.1,2,10.916,2,2.49,191,115.06,-80.17654968,25.84588264,0,0,1,N,1.640331,82,82,11,5,5,112.2479,0,9999.99,2.74,2.867,2,9,31.9,0,31.89999962,3.75,1517.20453,10/4/20,17:00:01,28.03,6.869,3.75,1.086,7.77,-46,-2.8,0.3,-1696,32.2,2.47,13.2,
25.8459135,-80.17664164,19:57.2,10/4/20,9,2.89,161.69,-6.993015135,1.02,138.9,130.12,4.1,5.2,39.8,0.01,2.66,2.67,93,66,505.8,16.1,-4.1,D,512.1,2,9.821,2,2.55,191,110.45,-80.17654968,25.84588264,0,0,1,N,2.279792,78,78,11,30,30,107.9296,0,9999.99,2.68,2.807,2,9,31.8,0,31.89999962,3.75,1517.20453,10/4/20,17:00:01,28.03,6.869,3.75,1.086,7.77,-46,-2.8,0.3,-1696,32.2,2.47,13.2,
25.84590454,-80.17663158,19:58.2,10/4/20,9,2.633,150.82,-6.993015135,1.02,126.4,118.49,3.97,7.89,39.8,0.01,2.61,2.62,93,63,505.7,16.1,-3.9,D,537.4,2,8.551,2,2.6,190,106.55,-80.17654968,25.84588264,0,0,1,N,2.575405,81,81,11,77,77,105.9911,0,9999.99,2.65,2.777,2,9,31.8,0,31.79999924,3.77,1517.01073,10/4/20,17:00:02,28.03,6.912,3.77,1.116,7.77,-45.8,-2.7,-3.1,-1786,32.2,2.47,13.1,
25.84589716,-80.17662016,19:59.2,10/4/20,9,2.76,136.65,-6.993015135,1.02,118.8,111.45,3.52,7.11,39.9,0.01,2.68,2.69,93,63,505.7,16.1,-3.9,D,537.4,2,7.236,2,2.65,188,102.89,-80.17654968,25.84588264,0,0,1,N,2.627473,77,77,11,99,99,105.6551,0,9999.99,2.7,2.827,2,9,31.8,0,31.79999924,3.83,1517.07164,10/4/20,17:00:04,28.04,7.021,3.83,1.078,7.76,-45.3,-3,2.5,-1835,32.2,2.46,13.2,
25.84588834,-80.17660695,20:00.2,10/4/20,9,3.016,127.01,-6.993015135,1.02,116.9,109.7,2.2,6.57,39.9,0,2.67,2.68,93,63,505.7,16.1,-3.9,D,537.4,2,5.765,2,2.68,186,96.31,-80.17654968,25.84588264,0,0,1,N,2.710196,70,70,11,109,109,105.1193,0,9999.99,2.7,2.827,2,9,31.8,0,31.79999924,3.83,1517.07164,10/4/20,17:00:04,28.04,7.021,3.83,1.078,7.76,-45.3,-3,2.5,-1835,32.2,2.46,13.2,
25.84588274,-80.17659325,20:01.2,10/4/20,9,2.78,122.2,-6.993015135,1.02,116,108.87,3.13,5.38,39.8,0.01,2.67,2.68,93,52,505.7,16.1,-3.2,D,643.2,3,15.167,2,2.76,184,52.47,-80.17647306,25.84596584,0,0,1,N,2.473042,76,76,11,6,6,78.65154,0,9999.99,2.7,2.827,2,9,31.8,0,31.79999924,3.84,1517.08171,10/4/20,17:00:06,28.05,7.025,3.84,1.204,7.76,-45.5,-1.6,-2.7,-4293,32.1,2.46,13.2,
25.84587638,-80.17657929,20:02.2,10/4/20,9,2.71,115.25,-6.993015135,1.02,111.5,104.7,1.5,-3.6,39.8,0,2.69,2.69,93,52,505.7,16.1,-3.2,D,643.2,3,14.559,2,2.83,183,46.9,-80.17647306,25.84596584,0,0,1,N,1.98304,71,71,11,5,5,50.97149,0,9999.99,2.71,2.837,2,9,31.8,0,31.79999924,3.88,1517.12219,10/4/20,17:00:07,28.05,7.102,3.88,1.079,7.76,-45.2,-1.4,0.3,-1371,32,2.45,13,
25.84587175,-80.17656572,20:03.2,10/4/20,9,2.659,115.32,-6.993015135,1.02,100.1,94.12,2.42,0.51,39.8,0,2.67,2.67,93,48,505.6,16.1,-3,D,696.1,3,13.98,2,2.76,179,41.55,-80.17647306,25.84596584,0,0,1,N,0.610211,72,72,11,5,5,43.30877,0,9999.99,2.68,2.807,2,9,31.8,0,31.79999924,3.82,1517.06066,10/4/20,17:00:08,28.05,6.989,3.82,1.072,7.76,-45.5,-2.5,0,-867,32,2.45,13.2,
25.84587109,-80.17655244,20:04.2,10/4/20,9,2.533,111.96,-6.993015135,1.02,88,82.77,4.04,1.91,39.8,0.01,2.71,2.72,93,48,505.6,16.1,-3,D,696.1,3,13.195,2,2.65,177,37.02,-80.17647306,25.84596584,0,0,1,N,0.484277,81,81,11,5,5,36.54859,0,9999.99,2.74,2.867,2,9,31.8,0,31.79999924,3.81,1517.05063,10/4/20,17:00:09,28.04,6.983,3.81,1.111,7.77,-45.7,-3.1,-4.9,-1977,31.9,2.45,13.1,
25.84586999,-80.17654165,20:05.2,10/4/20,9,2.362,107.88,-6.993015135,1.02,75.3,70.66,4.05,-2.61,39.8,0.01,2.75,2.76,93,48,505.6,16.1,-3,D,696.1,3,12.677,2,2.47,176,32.78,-80.17647306,25.84596584,0,0,1,N,1.429629,80,80,11,5,5,30.43072,0,9999.99,2.78,2.907,2,9,31.8,0,31.79999924,3.77,1517.01094,10/4/20,17:00:10,28.04,6.913,3.77,1.054,7.74,-44.1,-3.6,-6.4,-320,31.9,2.44,13.1,
25.84587111,-80.17653072,20:06.3,10/4/20,9,1.974,104.47,-6.993015135,1.02,64.4,60.08,3.89,-0.11,39.9,0.01,2.79,2.8,93,48,505.6,16.1,-3,D,696.1,3,12.01,2,2.29,175,28.71,-80.17647306,25.84596584,0,0,1,N,2.219023,80,80,11,5,5,24.16157,0,9999.99,2.83,2.957,2,9,31.8,0,31.79999924,3.83,1517.07262,10/4/20,17:00:11,28.04,7.019,3.83,1.034,7.77,-45.6,-2.4,-2.1,-2007,31.9,2.44,13,
25.84587204,-80.17652254,20:07.3,10/4/20,9,1.94,90.79,-6.993015135,1.02,52.4,48.24,4.41,-2.27,39.8,0.01,2.88,2.89,93,39,505.6,16.1,-2.4,D,854.5,3,11.546,2,2.11,175,25.39,-80.17647306,25.84596584,0,0,1,N,2.794807,86,86,11,8,8,20.40372,0,9999.99,2.92,3.047,2,9,31.7,0,31.79999924,3.76,1517.00082,10/4/20,17:00:12,28.04,6.901,3.76,1.079,7.76,-45.2,-1.3,-3.5,-1707,31.8,2.44,13.2,
25.84587533,-80.17651301,20:08.3,10/4/20,9,1.877,84.86,-6.993015135,1.02,46.4,42.25,3.59,-1.78,39.8,0.01,2.93,2.94,93,39,505.6,16.1,-2.4,D,854.5,3,10.829,2,2,175,21.66,-80.17647306,25.84596584,0,0,1,N,3.302085,79,79,11,27,27,17.22334,0,9999.99,2.96,3.087,2,9,31.8,0,31.79999924,3.78,1517.02027,10/4/20,17:00:13,28.04,6.924,3.78,1.026,7.77,-45.8,-2.1,-0.5,89,31.8,2.44,13.2,
25.84587884,-80.17650737,20:09.3,10/4/20,9,1.785,69.6,-6.993015135,1.02,37.4,33.18,2.94,6.6,39.8,0.01,2.98,2.99,93,39,505.6,16.1,-2.4,D,854.5,3,10.265,2,1.84,175,19.54,-80.17647306,25.84596584,0,0,1,N,3.51363,75,75,11,58,58,15.94113,0,9999.99,3.02,3.147,2,9,31.7,0,31.70000076,3.79,1516.81533,10/4/20,17:00:14,28.04,6.94,3.79,1.121,7.77,-45.7,-2.8,-4,-2179,31.8,2.43,13.2,
25.84588466,-80.1764985,20:10.3,10/4/20,9,1.692,60.13,-6.993015135,1.02,27.5,23.13,4.54,-3.38,39.8,0.02,2.97,2.99,93,39,505.6,16.1,-2.4,D,865.6,3,9.378,2,1.81,175,15.75,-80.17647306,25.84596584,0,0,1,N,3.795974,84,84,11,92,92,14.26579,0,9999.99,2.99,3.117,2,9,31.7,0,31.70000076,3.76,1516.7851,10/4/20,17:00:15,28.04,6.89,3.76,1.05,7.76,-45.5,-1.3,-2.1,-1134,31.8,2.43,13,
25.84589141,-80.17649221,20:11.3,10/4/20,9,1.698,55.01,-6.993015135,1.02,29.4,25.07,3.2,7.85,39.8,0.01,2.97,2.98,93,39,505.6,16.1,-2.4,D,865.6,3,8.495,2,1.74,175,13.04,-80.17647306,25.84596584,0,0,1,N,3.796136,76,76,11,84,84,14.26527,0,9999.99,3.01,3.137,2,9,31.7,0,31.70000076,3.75,1516.77426,10/4/20,17:00:16,28.04,6.884,3.75,1.094,7.77,-45.6,-3.1,-2.6,-745,31.7,2.43,13.2,
25.84589752,-80.17648779,20:12.3,10/4/20,9,1.623,40.55,-6.993015135,1.02,19.5,14.97,4.08,0.7,39.8,0,2.93,2.93,93,39,505.6,16.1,-2.4,D,865.6,3,7.738,2,1.71,175,10.98,-80.17647306,25.84596584,0,0,1,N,3.720205,81,81,11,126,126,14.71122,0,9999.99,2.96,3.087,2,9,31.7,0,31.70000076,3.78,1516.80423,10/4/20,17:00:17,28.04,6.926,3.78,1.065,7.76,-45.5,-1.9,-3.7,-2878,31.7,2.43,13.1,
25.84590386,-80.17648177,20:13.3,10/4/20,9,1.89,43.06,-6.993015135,1.02,22,17.52,3.17,-0.15,39.8,0.01,2.88,2.89,93,39,505.6,16.1,-2.4,D,865.6,3,6.947,2,1.73,176,7.21,-80.17647306,25.84596584,0,0,1,N,3.723848,75,75,11,111,111,14.69003,0,9999.99,2.91,3.037,2,9,31.7,0,31.70000076,3.75,1516.77331,10/4/20,17:00:18,28.04,6.878,3.75,1.062,7.74,-43.9,-2.1,1.8,-3396,31.7,2.43,13.3,
25.84591154,-80.17647591,20:14.4,10/4/20,9,1.795,34.24,-6.993015135,1.02,19.8,15.27,3.32,4.21,39.8,0.01,2.8,2.8,93,39,505.5,16.1,-2.4,D,872.4,3,6.045,2,1.73,176,2.71,-80.17647306,25.84596584,0,0,1,N,3.639807,77,77,11,127,127,15.1865,0,9999.99,2.83,2.957,2,9,31.7,0,31.70000076,3.76,1516.7842,10/4/20,17:00:19,28.04,6.89,3.76,1.089,7.77,-45.6,-2.4,-2.5,-1569,31.7,2.43,13.1,
25.84591889,-80.17646972,20:15.4,10/4/20,9,1.78,34.05,-6.993015135,1.02,23,18.54,3.1,0.46,39.8,0.01,2.7,2.71,93,39,505.5,16.1,-2.4,D,872.4,4,11.427,2,1.79,176,97.86,-80.1763566,25.84590483,0,0,1,N,3.583591,74,74,11,250,250,62.20909,0,9999.99,2.73,2.857,2,9,31.7,0,31.70000076,3.75,1516.77382,10/4/20,17:00:20,28.04,6.874,3.75,1.044,7.76,-45.2,-2.5,0.5,-878,31.6,2.42,13.1,
25.8459267,-80.17646498,20:16.4,10/4/20,9,1.86,29.61,-6.993015135,1.02,21.7,17.21,2.13,5.71,39.8,0,2.62,2.62,93,39,505.5,16.1,-2.4,D,872.4,4,11.116,2,1.82,176,102.64,-80.1763566,25.84590483,0,0,1,N,3.455496,70,70,11,250,250,96.84196,0,9999.99,2.64,2.767,2,9,31.7,0,31.70000076,3.74,1516.76352,10/4/20,17:00:21,28.04,6.856,3.74,1.052,7.76,-45.5,-2,-6.3,-4496,31.6,2.42,13.2,
25.84593374,-80.17645918,20:17.4,10/4/20,9,1.653,30.37,-6.993015135,1.02,29.6,25.27,4.24,-1.82,39.8,0.01,2.5,2.5,93,40,505.5,16.1,-2.4,D,846.7,4,10.757,2,1.82,176,107.39,-80.1763566,25.84590483,0,0,1,N,2.498484,82,82,11,250,250,102.859,0,9999.99,2.52,2.647,2,9,31.7,0,31.70000076,3.73,1516.75316,10/4/20,17:00:22,28.04,6.836,3.73,1.076,7.77,-45.6,-2.4,-3.8,-1471,31.6,2.42,13,
25.84593836,-80.1764533,20:18.4,10/4/20,9,1.672,34.89,-6.993015135,1.02,44.2,40.04,5.07,2.83,39.9,0.01,2.35,2.37,93,40,505.5,16.1,-2.4,D,846.7,4,10.37,2,1.77,177,111.07,-80.1763566,25.84590483,0,0,1,N,1.745597,87,87,11,250,250,107.8938,0,9999.99,2.39,2.517,2,9,31.7,0,31.70000076,3.74,1516.76447,10/4/20,17:00:23,28.04,6.85,3.74,1.036,7.74,-43.9,-2.8,-8.4,-1163,31.6,2.42,12.9,
25.84594469,-80.17644596,20:19.4,10/4/20,9,1.684,40.12,-6.993015135,1.02,50.5,46.35,4.86,8.5,39.8,0.02,2.17,2.19,93,40,505.5,16.1,-2.4,D,846.7,4,9.98,2,1.74,177,116.36,-80.1763566,25.84590483,0,0,1,N,0.7500008,88,88,11,250,250,114.8474,0,9999.99,2.22,2.347,2,9,31.7,0,31.70000076,3.81,1516.83658,10/4/20,17:00:24,28.04,6.979,3.81,1.057,7.76,-45.3,-2.4,-8.3,-1116,31.6,2.42,13.1,
25.84594917,-80.17643948,20:20.4,10/4/20,9,1.698,41.8,-6.993015135,1.02,58.6,54.38,4.43,1.79,39.8,0.02,2.02,2.04,93,40,505.5,16.1,-2.4,D,846.7,4,9.649,2,1.78,177,120.73,-80.1763566,25.84590483,0,0,1,N,1.64E-02,84,84,11,250,250,120.3211,0,9999.99,2.06,2.187,2,9,31.7,0,31.70000076,3.92,1516.94926,10/4/20,17:00:25,28.05,7.173,3.92,1.035,7.75,-44.6,-2.9,0.4,112,31.6,2.42,13.1,
25.84595224,-80.17643204,20:21.5,10/4/20,9,1.451,47.27,-6.993015135,1.02,73.5,68.92,4.92,2.4,39.8,0.02,1.91,1.93,93,41,505.4,16.1,-2.5,D,809.8,4,9.208,2,1.83,177,124.93,-80.1763566,25.84590483,0,0,1,N,0.6896976,85,85,11,250,250,125.1313,0,9999.99,1.95,2.077,2,9,31.7,0,31.70000076,3.8,1516.82628,10/4/20,17:00:26,28.05,6.97,3.8,1.037,7.76,-45.2,-2.7,-3.6,-2736,31.6,2.42,13,
25.8459545,-80.17642281,20:22.5,10/4/20,9,2.051,59.88,-6.993015135,1.02,83.8,78.79,5.42,2.85,39.8,0.02,1.79,1.81,93,41,505.4,16.1,-2.5,D,809.8,4,8.626,2,1.88,177,129.81,-80.1763566,25.84590483,0,0,1,N,1.382181,90,90,11,250,250,130.0067,0,9999.99,1.84,1.967,2,9,31.7,0,31.70000076,3.92,1516.94943,10/4/20,17:00:28,28.05,7.163,3.92,1.05,7.75,-44.7,-2,-8,-3864,31.6,2.41,13.1,
25.84595518,-80.17641229,20:23.5,10/4/20,9,2.039,71.07,-6.993015135,1.02,93.1,87.57,5.19,5.23,39.8,0.02,1.71,1.72,93,41,505.4,16.1,-2.5,D,809.8,4,7.9,2,1.88,177,135.13,-80.1763566,25.84590483,0,0,1,N,2.010181,88,88,11,250,250,134.3094,0,9999.99,1.76,1.887,2,9,31.6,0,31.70000076,3.92,1516.94943,10/4/20,17:00:28,28.05,7.163,3.92,1.05,7.75,-44.7,-2,-8,-3864,31.6,2.41,13.1,
25.8459555,-80.17640115,20:24.5,10/4/20,9,1.988,77.17,-6.993015135,1.02,103.6,97.38,4.84,4.38,39.9,0.01,1.62,1.63,93,41,505.4,16.1,-2.5,D,813.2,4,7.184,2,1.98,177,141.65,-80.1763566,25.84590483,0,0,1,N,2.609672,86,86,11,250,250,138.2703,0,9999.99,1.66,1.787,2,9,31.6,0,31.60000038,4.1,1516.9166,10/4/20,17:00:29,28.06,7.468,4.1,1.034,7.74,-44.1,-2.1,-0.1,-2361,31.6,2.41,13.1,
25.84595505,-80.176391,20:25.5,10/4/20,9,2.066,86.56,-6.993015135,1.02,113.5,106.55,4.44,3.06,39.8,0.01,1.55,1.55,93,41,505.4,16.1,-2.5,D,813.2,4,6.561,2,2.03,177,148.35,-80.1763566,25.84590483,0,0,1,N,3.087557,84,84,11,250,250,141.3081,0,9999.99,1.59,1.717,2,9,31.6,0,31.60000038,4.2,1517.0183,10/4/20,17:00:31,28.08,7.652,4.2,1.039,7.74,-43.9,-2.8,1.2,790,31.5,2.41,13.1,
25.84595248,-80.17638162,20:26.5,10/4/20,9,2.139,96.16,-6.993015135,1.02,123.8,116.08,4.12,3.83,39.8,0,1.49,1.49,93,41,505.4,16.1,-2.5,D,813.2,4,5.861,2,2.04,177,154.71,-80.1763566,25.84590483,0,0,1,N,3.325565,82,82,11,234,234,142.7762,0,9999.99,1.53,1.657,2,9,31.6,0,31.60000038,4.2,1517.0183,10/4/20,17:00:31,28.08,7.652,4.2,1.039,7.74,-43.9,-2.8,1.2,790,31.5,2.41,13.1,
25.84594861,-80.17637221,20:27.5,10/4/20,8,2.083,103.25,-6.993015135,1.05,133.6,125.17,5.59,2.06,39.8,0.02,1.38,1.4,93,41,505.4,16.1,-2.5,D,813.2,4,5.112,2,2.05,177,162.21,-80.1763566,25.84590483,0,0,1,N,3.436569,91,91,11,205,205,143.4481,0,9999.99,1.42,1.547,2,9,31.6,0,31.60000038,4.23,1517.04987,10/4/20,17:00:32,28.09,7.688,4.23,1.011,7.74,-44.1,-0.2,0.7,-2853,31.5,2.4,13.2,
25.84594223,-80.17636237,20:28.6,10/4/20,9,2.055,113.27,-6.993015135,1.02,143.2,134.15,4.41,3.66,39.8,0.01,1.28,1.3,93,42,505.4,16.1,-2.6,D,806,5,15.314,2,2.03,177,208.88,-80.17643628,25.84582163,0,0,1,N,3.282559,83,83,11,250,250,202.9003,0,9999.99,1.33,1.457,2,9,31.6,0,31.60000038,4.26,1517.08101,10/4/20,17:00:33,28.1,7.743,4.26,1.021,7.74,-44,-2.7,-7.8,-1658,31.5,2.4,13.1,
25.8459382,-80.17635269,20:29.6,10/4/20,9,2.147,114.83,-6.993015135,1.02,154.2,144.58,3.74,1.72,39.8,0.01,1.36,1.36,93,42,505.4,16.1,-2.6,D,806,5,15.427,2,2.06,177,212.84,-80.17643628,25.84582163,0,0,1,N,2.255638,79,79,11,250,250,208.5848,0,9999.99,1.4,1.527,2,9,31.6,0,31.60000038,4.14,1516.95699,10/4/20,17:00:35,28.1,7.542,4.14,1.049,7.74,-44.2,-1,-4.8,-2150,31.4,2.4,13.1,
25.84593174,-80.17634434,20:30.6,10/4/20,9,2.185,119.76,-6.993015135,1.02,162.2,152.28,4.1,2.31,39.8,0.01,1.54,1.55,93,42,505.4,16.1,-2.6,D,806,5,15.315,2,2.06,177,216.92,-80.17643628,25.84582163,0,0,1,N,1.134658,82,82,11,250,250,214.5693,0,9999.99,1.58,1.707,2,9,31.6,0,31.60000038,4.14,1516.95699,10/4/20,17:00:35,28.1,7.542,4.14,1.049,7.74,-44.2,-1,-4.8,-2150,31.4,2.4,13.1,
25.84592423,-80.17633741,20:31.6,10/4/20,9,2.251,128.35,-6.993015135,1.02,170.6,160.49,4.49,5.1,39.7,0.01,1.76,1.77,93,42,505.3,16.1,-2.6,D,807.2,5,15.102,2,2.01,177,220.93,-80.17643628,25.84582163,0,0,1,N,7.33E-02,84,84,11,250,250,220.351,0,9999.99,1.79,1.917,2,9,31.6,0,31.60000038,4,1516.81429,10/4/20,17:00:36,28.09,7.309,4,1.01,7.75,-44.8,-2.7,-0.6,-2820,31.4,2.4,13.2,
25.84591557,-80.17633106,20:32.6,10/4/20,9,2.063,136.27,-6.993015135,1.02,182.3,172.14,5.09,3.03,39.8,0.01,1.84,1.86,93,42,505.3,16.1,-2.6,D,807.2,5,14.832,2,1.97,177,225.23,-80.17643628,25.84582163,0,0,1,N,1.046725,88,88,11,250,250,226.6939,0,9999.99,1.88,2.007,2,9,31.6,0,31.60000038,3.87,1516.68131,10/4/20,17:00:37,28.08,7.088,3.87,1.053,7.74,-43.9,-1.8,-3.1,-3563,31.3,2.4,13.2,
25.8459075,-80.17632658,20:33.6,10/4/20,9,1.925,141.92,-6.993015135,1.02,193.7,183.71,4.38,0.76,39.7,0.01,2.02,2.04,93,42,505.3,16.1,-2.6,D,807.2,5,14.55,2,1.96,177,228.98,-80.17643628,25.84582163,0,0,1,N,1.996639,83,83,11,250,250,232.336,0,9999.99,2.07,2.197,2,9,31.6,0,31.60000038,3.96,1516.77329,10/4/20,17:00:38,28.07,7.231,3.96,1.043,7.75,-44.7,-3.5,-5.8,-687,31.4,2.4,13.2,
25.84589833,-80.17632363,20:34.6,10/4/20,9,1.853,147.89,-6.993015135,1.02,201.2,191.44,4.92,7.41,39.7,0.01,2.19,2.2,93,42,505.3,16.1,-2.6,D,807.2,5,14.136,2,1.88,177,232.89,-80.17643628,25.84582163,0,0,1,N,2.896367,87,87,11,250,250,238.1026,0,9999.99,2.23,2.357,2,9,31.6,0,31.60000038,4.09,1516.90655,10/4/20,17:00:40,28.08,7.461,4.09,1.04,7.72,-42.6,-2.9,-2.5,-2009,31.3,2.39,13.1,
25.84588995,-80.17632391,20:35.6,10/4/20,9,1.965,163.85,-6.993015135,1.02,211.7,202.37,5.09,6.06,39.7,0.01,2.34,2.35,93,41,505.3,16.1,-2.5,D,810.8,5,13.571,2,1.8,177,235.96,-80.17643628,25.84582163,0,0,1,N,3.493591,88,88,11,250,250,242.5953,0,9999.99,2.38,2.507,2,9,31.6,0,31.60000038,4.09,1516.90655,10/4/20,17:00:40,28.08,7.461,4.09,1.04,7.72,-42.6,-2.9,-2.5,-2009,31.3,2.39,13.1,
25.84588133,-80.1763225,20:36.7,10/4/20,9,1.825,175.96,-6.993015135,1.02,218.7,209.71,4.17,4,39.7,0.01,2.45,2.47,93,41,505.3,16.1,-2.5,D,810.8,5,13.083,2,1.71,178,239.44,-80.17643628,25.84582163,0,0,1,N,4.137121,82,82,11,250,250,247.5378,0,9999.99,2.5,2.627,2,9,31.6,0,31.60000038,3.96,1516.77286,10/4/20,17:00:41,28.08,7.242,3.96,1.091,7.75,-44.6,-1.1,-4.2,-2911,31.3,2.39,13.3,
25.84587383,-80.176324,20:37.7,10/4/20,9,1.525,181.08,-6.993015135,1.02,225.6,216.97,4.59,6.7,39.7,0.01,2.45,2.47,93,41,505.3,16.1,-2.5,D,810.8,5,12.582,2,1.68,178,242.57,-80.17643628,25.84582163,0,0,1,N,4.635962,85,85,11,250,250,250.8597,0,9999.99,2.5,2.627,2,9,31.6,0,31.60000038,3.78,1516.58918,10/4/20,17:00:43,28.06,6.932,3.78,1.039,7.76,-45.2,-3.1,-2.2,-3282,31.2,2.39,13,
25.84586746,-80.17632715,20:38.7,10/4/20,9,1.525,181.08,-6.993015135,1.02,238.6,230.66,4.41,0,39.7,0,2.68,2.68,93,43,505.2,16.1,-2.6,D,783.6,5,12.051,2,1.63,178,244.98,-80.17643628,25.84582163,0,0,1,N,4.924284,79,79,11,216,216,252.3705,0,9999.99,2.71,2.837,2,9,31.6,0,31.60000038,3.78,1516.58918,10/4/20,17:00:43,28.06,6.932,3.78,1.039,7.76,-45.2,-3.1,-2.2,-3282,31.2,2.39,13,
25.84585883,-80.17633067,20:39.7,10/4/20,9,1.496,197.71,-6.993015135,1.02,247.3,239.81,4.31,1.72,39.7,0,2.72,2.72,93,43,505.2,16.1,-2.6,D,783.6,5,11.363,2,1.55,178,248,-80.17643628,25.84582163,0,0,1,N,5.193966,85,85,11,186,186,253.7531,0,9999.99,2.76,2.887,2,9,31.5,0,31.5,3.75,1516.33927,10/4/20,17:00:44,28.05,6.879,3.75,1.107,7.76,-45.4,-1.8,-3.6,-3033,31.2,2.39,13.2,
25.845853,-80.17633517,20:40.7,10/4/20,9,1.51,213.45,-6.993015135,1.02,255.5,248.4,5.01,2.43,39.7,0,2.78,2.78,93,43,505.2,16.1,-2.6,D,783.6,5,10.631,2,1.46,179,250.62,-80.17643628,25.84582163,0,0,1,N,5.298748,87,87,11,151,151,254.2753,0,9999.99,2.82,2.947,2,9,31.5,0,31.5,3.74,1516.32887,10/4/20,17:00:45,28.04,6.851,3.74,1.029,7.74,-43.8,-1.3,-0.2,-3518,31.2,2.39,13.2,
25.84584933,-80.176341,20:41.7,10/4/20,9,1.38,222.86,-6.993015135,1.02,258.4,251.42,5.27,3.57,39.7,0.01,2.83,2.83,93,43,505.2,16.1,-2.6,D,783.6,5,10.073,2,1.45,180,252.52,-80.17643628,25.84582163,0,0,1,N,5.313353,89,89,11,141,141,254.3478,0,9999.99,2.87,2.997,2,9,31.5,0,31.5,3.77,1516.36022,10/4/20,17:00:46,28.04,6.905,3.77,1.024,7.76,-45.2,-1.6,-0.1,-1004,31.2,2.39,13.1,
25.84584767,-80.1763475,20:42.7,10/4/20,9,1.175,233.57,-6.993015135,1.02,263.4,256.62,2.49,-0.03,39.7,0.01,2.91,2.92,93,44,505.2,16.1,-2.7,D,760.5,5,9.263,2,1.46,181,253.61,-80.17643628,25.84582163,0,0,1,N,5.050401,70,70,11,115,115,253.0209,0,9999.99,2.96,3.087,2,9,31.5,0,31.5,3.78,1516.37121,10/4/20,17:00:48,28.04,6.927,3.78,1.084,7.76,-45,-2.7,-4.3,-230,31.1,2.38,13.2,
25.84584434,-80.17635715,20:43.7,10/4/20,9,1.899,242.53,-6.993015135,1.02,257.9,250.9,2.07,4.32,39.7,0,2.91,2.91,93,47,505.2,16.1,-2.9,D,722.6,5,8.312,2,1.53,182,252.31,-80.17643628,25.84582163,0,0,1,N,4.649341,69,69,11,122,122,249.5531,0,9999.99,2.93,3.057,2,9,31.5,0,31.5,3.78,1516.37121,10/4/20,17:00:48,28.04,6.927,3.78,1.084,7.76,-45,-2.7,-4.3,-230,31.1,2.38,13.2,
25.84584244,-80.17636515,20:44.7,10/4/20,9,1.511,240.41,-6.993015135,1.02,263.6,256.83,3.56,5.43,39.7,0.01,2.91,2.92,93,47,505.2,16.1,-2.9,D,722.6,5,7.485,2,1.64,182,251.99,-80.17643628,25.84582163,0,0,1,N,4.112258,78,78,11,87,87,246.853,0,9999.99,2.93,3.057,2,9,31.5,0,31.5,3.79,1516.38044,10/4/20,17:00:49,28.04,6.938,3.79,1.053,7.76,-45,-3,-1.2,-1694,31.1,2.38,13.1,
25.84583985,-80.17637375,20:45.7,10/4/20,9,1.962,244.71,-6.993015135,1.02,257.5,250.48,3.04,3.49,39.6,0.01,2.95,2.96,93,47,505.2,16.1,-2.9,D,722.6,5,6.577,2,1.64,183,252.06,-80.17643628,25.84582163,0,0,1,N,3.654003,75,75,11,101,101,244.0023,0,9999.99,2.98,3.107,2,9,31.5,0,31.5,3.76,1516.35063,10/4/20,17:00:50,28.04,6.885,3.76,1.079,7.75,-44.9,-2.7,-5.4,-3110,31.1,2.38,13.2,
25.84583622,-80.17638138,20:46.8,10/4/20,9,1.811,240.97,-6.993015135,1.02,254.1,246.93,3.27,7.83,39.6,0.01,2.91,2.92,93,47,505.2,16.1,-2.9,D,722.6,5,5.728,2,1.74,183,253.55,-80.17643628,25.84582163,0,0,1,N,3.252423,77,77,11,108,108,242.0666,0,9999.99,2.94,3.067,2,9,31.5,0,31.5,3.78,1516.37053,10/4/20,17:00:52,28.04,6.924,3.78,1.044,7.75,-44.8,-1.8,-3.9,-863,31.1,2.38,13.1,
25.84583137,-80.17639056,20:47.8,10/4/20,9,1.798,239.56,-6.993015135,1.02,254.5,247.35,2.53,2.43,39.6,0,2.91,2.92,93,47,505.1,16.1,-2.9,D,715.4,5,4.701,2,1.77,183,256.69,-80.17643628,25.84582163,0,0,1,N,2.929069,72,72,11,97,97,239.8822,0,9999.99,2.94,3.067,2,9,31.5,0,31.5,3.78,1516.37053,10/4/20,17:00:52,28.04,6.924,3.78,1.044,7.75,-44.8,-1.8,-3.9,-863,31.1,2.38,13.1,
25.84582609,-80.17639926,20:48.8,10/4/20,9,1.938,234.07,-6.993015135,1.02,250.7,243.38,2.83,6.76,39.6,0,2.87,2.87,93,47,505.1,16.1,-2.9,D,715.4,6,30.917,2,1.76,184,320.53,-80.17659566,25.84604072,0,0,1,N,3.469254,72,72,11,250,250,308.0776,0,9999.99,2.89,3.017,2,9,31.5,0,31.5,4.1,1516.69832,10/4/20,17:00:54,28.05,7.47,4.1,1.077,7.74,-44,-2.3,-3.6,-806,31.1,2.38,13.3,
25.8458213,-80.176406,20:49.8,10/4/20,9,1.845,229.64,-6.993015135,1.02,259.1,252.15,1.43,8.9,39.6,0,2.75,2.75,93,47,505.1,16.1,-2.9,D,715.4,6,30.911,2,1.82,184,322.12,-80.17659566,25.84604072,0,0,1,N,2.557199,66,66,11,250,250,312.6912,0,9999.99,2.76,2.891578,2,9,31.5,0,31.5,4.1,1516.69832,10/4/20,17:00:54,28.05,7.47,4.1,1.077,7.74,-44,-2.3,-3.6,-806,31.1,2.38,13.3,
25.84581649,-80.17641456,20:50.9,10/4/20,9,1.833,231.44,-6.993015135,1.02,273.1,266.66,5.29,3.69,39.7,0,2.71,2.71,93,50,505.1,16.1,-3.1,D,676.2,6,30.824,2,1.64,184,323.99,-80.17659566,25.84604072,0,0,1,N,1.608167,87,87,11,250,250,317.9783,0,9999.99,2.75,2.877,2,9,31.5,0,31.5,3.88,1516.47255,10/4/20,17:00:56,28.05,7.097,3.88,1.077,7.75,-44.5,-2.6,-2.8,-742,31.1,2.38,13.1,
25.84581439,-80.17642167,20:51.9,10/4/20,9,1.339,236.99,-6.993015135,1.02,287.4,281.31,3.83,8.9,39.7,0.01,2.64,2.65,93,50,505.1,16.1,-3.1,D,676.2,6,30.603,2,1.56,184,325.32,-80.17659566,25.84604072,0,0,1,N,0.8784815,80,80,11,250,250,321.844,0,9999.99,2.68,2.803241,2,9,31.4,0,31.5,3.91,1516.50418,10/4/20,17:00:57,28.05,7.142,3.91,1.03,7.74,-44.3,-2,-1.5,-615,31.1,2.38,13.1,
25.84581438,-80.17642908,20:53.0,10/4/20,9,1.31,255.27,-6.993015135,1.02,303.5,297.67,5.35,3.49,39.7,0.02,2.65,2.67,93,50,505.1,16.1,-3.1,D,676.2,6,30.188,2,1.44,185,326.48,-80.17659566,25.84604072,0,0,1,N,0.2147646,87,87,11,247,247,325.506,0,9999.99,2.7,2.827,2,9,31.4,0,31.5,3.91,1516.50418,10/4/20,17:00:57,28.05,7.142,3.91,1.03,7.74,-44.3,-2,-1.5,-615,31.1,2.38,13.1,
25.84581579,-80.17643518,20:54.0,10/4/20,9,1.11,269.45,-6.993015135,1.02,317.1,311.42,5.4,7.33,39.7,0.01,2.66,2.67,93,50,505.1,16.1,-3.1,D,676.2,6,29.723,2,1.31,186,327.3,-80.17659566,25.84604072,0,0,1,N,0.2357174,89,89,11,194,194,328.2915,0,9999.99,2.7,2.827,2,9,31.4,0,31.39999962,3.93,1516.30831,10/4/20,17:00:58,28.05,7.188,3.93,1.009,7.74,-44.3,-1.5,-4.4,-1442,31.1,2.38,13.2,
25.84582045,-80.17643931,20:55.0,10/4/20,9,1.388,295.36,-6.993015135,1.02,328.7,323.15,4.9,1.54,39.7,0.01,2.66,2.67,93,54,505.1,16.1,-3.3,D,625.2,6,29.064,2,1.35,188,327.43,-80.17659566,25.84604072,0,0,1,N,0.3202645,86,86,11,151,151,329.0584,0,9999.99,2.71,2.837,2,9,31.4,0,31.39999962,3.91,1516.28688,10/4/20,17:01:00,28.05,7.144,3.91,1.033,7.74,-44.1,-1.6,-5.6,-2210,31,2.37,13.2,
25.84582725,-80.17644381,20:56.0,10/4/20,9,1.665,308.04,-6.993015135,1.02,333.7,328.22,3.68,1.74,39.7,0,2.73,2.73,93,54,505.1,16.1,-3.3,D,625.2,6,28.185,2,1.49,189,327.37,-80.17659566,25.84604072,0,0,1,N,0.2970743,75,75,11,132,132,328.9143,0,9999.99,2.75,2.877,2,9,31.4,0,31.39999962,3.84,1516.21497,10/4/20,17:01:01,28.05,7.025,3.84,1.043,7.75,-44.7,-2.6,0.7,-1817,31,2.37,13.1,
25.84583436,-80.17644722,20:57.0,10/4/20,9,1.791,325.04,-6.993015135,1.02,336.1,330.66,4.08,1.79,39.7,0,2.79,2.79,93,56,505,16.1,-3.4,D,604.2,6,27.335,2,1.61,190,327.08,-80.17659566,25.84604072,0,0,1,N,0.1562721,81,81,11,116,116,327.9064,0,9999.99,2.83,2.957,2,9,31.4,0,31.39999962,3.84,1516.21497,10/4/20,17:01:01,28.05,7.025,3.84,1.043,7.75,-44.7,-2.6,0.7,-1817,31,2.37,13.1,
25.84584286,-80.17645234,20:58.1,10/4/20,9,1.755,325.04,-6.993015135,1.02,337.1,331.67,2.66,6.35,39.7,0,2.83,2.83,93,56,505,16.1,-3.4,D,604.2,6,26.264,2,1.69,191,326.9,-80.17659566,25.84604072,0,0,1,N,7.65E-02,73,73,11,110,110,327.3356,0,9999.99,2.85,2.977,2,9,31.4,0,31.39999962,3.79,1516.16263,10/4/20,17:01:03,28.04,6.948,3.79,1.04,7.75,-44.9,-1.8,-4.4,-1358,30.9,2.37,13.1,
25.84585336,-80.17645631,20:59.1,10/4/20,9,2.074,326.78,-6.993015135,1.02,337.3,331.87,4.08,5.07,39.7,0.01,2.85,2.86,93,56,505,16.1,-3.4,D,604.2,6,25.07,2,1.83,191,326.2,-80.17659566,25.84604072,0,0,1,N,0.2258814,81,81,11,100,100,325.1701,0,9999.99,2.89,3.017,2,9,31.4,0,31.39999962,3.79,1516.16263,10/4/20,17:01:03,28.04,6.948,3.79,1.04,7.75,-44.9,-1.8,-4.4,-1358,30.9,2.37,13.1,
25.84586054,-80.17646039,21:00.1,10/4/20,9,1.718,329.88,-6.993015135,1.02,332.7,327.21,0.49,6.48,39.7,0.01,2.92,2.93,93,58,505,16.1,-3.6,D,581.7,6,24.18,2,1.83,191,325.95,-80.17659566,25.84604072,0,0,1,N,0.3383109,60,60,11,116,116,324.3659,0,9999.99,2.94,3.067,2,9,31.4,0,31.39999962,3.74,1516.1124,10/4/20,17:01:05,28.03,6.867,3.74,1.024,7.76,-45,-0.4,-2,-3246,31,2.37,13.2,
25.84586905,-80.17646481,21:01.1,10/4/20,10,1.814,331.68,-6.993015135,1.02,335.7,330.25,1.25,2.19,39.7,0.01,2.92,2.93,93,58,505,16.1,-3.6,D,581.7,6,23.148,2,1.86,191,325.55,-80.17659566,25.84604072,0,0,1,N,0.4677171,62,62,11,100,100,323.4416,0,9999.99,2.92,3.047,2,9,31.4,0,31.39999962,3.74,1516.1124,10/4/20,17:01:05,28.03,6.867,3.74,1.024,7.76,-45,-0.4,-2,-3246,31,2.37,13.2,
25.84587759,-80.17646937,21:02.2,10/4/20,10,2.067,330.86,-6.993015135,1.02,333.7,328.22,5.19,4.36,39.6,0.01,2.95,2.96,93,59,505,16.1,-3.6,D,570.6,6,22.108,2,1.96,191,325.13,-80.17659566,25.84604072,0,0,1,N,0.6175625,88,88,11,102,102,322.3732,0,9999.99,2.99,3.117,2,9,31.4,0,31.39999962,4.08,1516.46073,10/4/20,17:01:07,28.04,7.438,4.08,1.088,7.7,-42,-2.7,-2,-1192,31,2.37,12.9,
25.84588686,-80.17647405,21:03.2,10/4/20,10,1.953,333.77,-6.993015135,1.02,329.1,323.56,4.25,6.25,39.7,0.02,2.96,2.98,93,59,505,16.1,-3.6,D,570.6,6,20.995,2,1.91,191,324.57,-80.17659566,25.84604072,0,0,1,N,0.8027204,83,83,11,117,117,321.0577,0,9999.99,3.01,3.137,2,9,31.4,0,31.39999962,3.79,1516.16499,10/4/20,17:01:08,28.06,6.94,3.79,1.028,7.75,-44.9,-2.7,0,-900,31,2.37,13.2,
25.8458949,-80.17647867,21:04.3,10/4/20,10,2.02,330.7,-6.993015135,1.02,329.1,323.56,3.13,5.3,39.6,0,3,3,93,59,505,16.1,-3.6,D,570.6,6,19.999,2,1.92,191,324.17,-80.17659566,25.84604072,0,0,1,N,0.9054644,76,76,11,114,114,320.33,0,9999.99,3.03,3.157,2,9,31.4,0,31.39999962,3.69,1516.06071,10/4/20,17:01:09,28.05,6.768,3.69,1.017,7.75,-44.8,-1.7,-1.7,-4777,30.9,2.37,13.2,
25.8459051,-80.17648635,21:05.3,10/4/20,10,2.388,329.26,-6.993015135,1.02,325.2,319.61,4.99,7.53,39.6,0,2.99,2.99,93,57,504.9,16.1,-3.5,D,586.3,6,18.63,2,1.95,191,324.04,-80.17659566,25.84604072,0,0,1,N,0.8917032,87,87,11,130,130,320.4274,0,9999.99,3.03,3.157,2,9,31.4,0,31.39999962,3.69,1516.06042,10/4/20,17:01:10,28.04,6.772,3.69,1.091,7.76,-45,-2.4,-2.6,-3121,30.9,2.37,13.2,
25.84591195,-80.17649172,21:06.3,10/4/20,10,1.639,329.35,-6.993015135,1.02,327.3,321.74,3.85,7.09,39.6,0,2.99,2.99,93,57,504.9,16.1,-3.5,D,586.3,6,17.698,2,1.9,191,324,-80.17659566,25.84604072,0,0,1,N,0.8561555,79,79,11,126,126,320.679,0,9999.99,3.03,3.157,2,9,31.3,0,31.29999924,3.69,1515.84175,10/4/20,17:01:11,28.04,6.777,3.69,0.99,7.75,-44.8,-1.8,-0.1,-2903,30.9,2.37,13.1,
25.84591847,-80.17649791,21:07.3,10/4/20,10,1.865,326.69,-6.993015135,1.02,329.2,323.66,4.27,2.85,39.6,0.01,2.93,2.94,93,57,504.9,16.1,-3.5,D,586.3,6,16.747,2,1.9,191,324.26,-80.17659566,25.84604072,0,0,1,N,0.7308798,83,83,11,119,119,321.5674,0,9999.99,2.96,3.087,2,9,31.4,0,31.39999962,3.68,1516.05075,10/4/20,17:01:12,28.04,6.756,3.68,1.061,7.72,-42.8,-1.5,-1.1,-421,30.9,2.37,13.2,
25.84592777,-80.17650257,21:08.3,10/4/20,10,2.078,328.08,-6.993015135,1.02,328.6,323.05,4.82,2.83,39.6,0.01,2.9,2.91,93,57,504.9,16.1,-3.5,D,586.3,6,15.637,2,1.93,191,323.43,-80.17659566,25.84604072,0,0,1,N,0.9065769,86,86,11,116,116,320.3222,0,9999.99,2.94,3.067,2,9,31.4,0,31.39999962,3.68,1516.05082,10/4/20,17:01:13,28.04,6.761,3.68,1.049,7.75,-44.9,-1.9,-1.1,-3090,30.8,2.36,13.1,
25.84593536,-80.17650701,21:09.3,10/4/20,10,1.676,329.57,-6.993015135,1.02,328,322.45,2.67,8.4,39.6,0,2.83,2.84,93,56,504.9,16.1,-3.5,D,597.5,6,14.695,2,1.89,191,322.86,-80.17659566,25.84604072,0,0,1,N,0.9938954,75,75,11,115,115,319.7056,0,9999.99,2.87,2.997,2,9,31.3,0,31.29999924,3.64,1515.79069,10/4/20,17:01:14,28.04,6.687,3.64,1.029,7.75,-44.9,-1.5,-5.6,-2459,30.8,2.36,13.2,
25.84594337,-80.17651221,21:10.3,10/4/20,10,1.938,329.24,-6.993015135,1.02,327.5,321.94,3.38,6.74,39.6,0,2.82,2.82,93,56,504.9,16.1,-3.5,D,597.5,6,13.672,2,1.91,191,322.35,-80.17659566,25.84604072,0,0,1,N,1.049531,77,77,11,116,116,319.3134,0,9999.99,2.85,2.977,2,9,31.3,0,31.29999924,3.65,1515.80061,10/4/20,17:01:15,28.04,6.702,3.65,1.044,7.75,-44.8,-0.2,-1.9,-2459,30.7,2.36,13.1,
25.84595133,-80.17651794,21:11.3,10/4/20,10,1.887,325.62,-6.993015135,1.02,326.7,321.13,3.61,6.98,39.6,0,2.79,2.79,93,56,504.9,16.1,-3.5,D,597.5,6,12.621,2,1.94,191,321.96,-80.17659566,25.84604072,0,0,1,N,1.058093,79,79,11,119,119,319.2535,0,9999.99,2.82,2.947,2,9,31.3,0,31.29999924,3.66,1515.81122,10/4/20,17:01:16,28.04,6.725,3.66,1.026,7.76,-45,-1.7,-3,-993,30.7,2.36,13.1,
25.84595821,-80.17652268,21:12.3,10/4/20,10,1.8,325.57,-6.993015135,1.02,331.4,325.89,4.79,3.73,39.6,0,2.73,2.73,93,57,504.8,16.1,-3.5,D,585.1,6,11.727,2,1.9,191,321.48,-80.17659566,25.84604072,0,0,1,N,1.068585,86,86,11,100,100,319.1793,0,9999.99,2.77,2.897,2,9,31.3,0,31.29999924,3.69,1515.84194,10/4/20,17:01:17,28.03,6.777,3.69,1.008,7.72,-42.7,-1.7,-3,-2771,30.7,2.36,13.2,
25.84596682,-80.17652866,21:13.4,10/4/20,10,1.941,327.84,-6.993015135,1.02,327,321.43,4.09,8.1,39.7,0.01,2.67,2.68,93,57,504.8,16.1,-3.5,D,585.1,6,10.605,2,1.91,191,320.78,-80.17659566,25.84604072,0,0,1,N,1.104139,82,82,11,117,117,318.9296,0,9999.99,2.71,2.837,2,9,31.3,0,31.29999924,3.69,1515.84158,10/4/20,17:01:18,28.04,6.781,3.69,1.011,7.75,-44.7,-2.3,-2.1,-2134,30.7,2.35,13.2,
25.84597367,-80.17653459,21:14.4,10/4/20,10,1.841,325.96,-6.993015135,1.02,325.5,319.92,3.92,7.75,39.7,0.01,2.64,2.65,93,56,504.8,16.1,-3.5,D,597,6,9.64,2,1.95,191,320.66,-80.17659566,25.84604072,0,0,1,N,1.028232,81,81,11,125,125,319.4633,0,9999.99,2.68,2.807,2,9,31.3,0,31.29999924,3.69,1515.84323,10/4/20,17:01:19,28.04,6.776,3.69,1.011,7.75,-44.4,-1.1,-1.1,-1866,30.7,2.35,13.1,
25.84597895,-80.17653907,21:15.4,10/4/20,9,1.771,324.69,-6.993015135,1.43,325.9,320.32,1.97,6.78,39.6,0.01,2.58,2.59,93,56,504.8,16.1,-3.5,D,597,6,8.902,2,1.91,191,320.49,-80.17659566,25.84604072,0,0,1,N,0.9732535,74,74,11,125,125,319.8511,0,9999.99,2.61,2.737,2,9,31.3,0,31.29999924,3.72,1515.87289,10/4/20,17:01:20,28.04,6.817,3.72,1.05,7.75,-44.7,-1.5,0.4,-1715,30.7,2.35,13.2,
25.84598768,-80.17654552,21:16.4,10/4/20,10,1.937,323.56,-6.993015135,1.43,327.8,322.24,3.72,3.44,39.6,0,2.49,2.49,93,56,504.8,16.1,-3.5,D,597,6,7.744,2,1.91,191,319.61,-80.17659566,25.84604072,0,0,1,N,0.9603629,79,79,11,118,118,319.9426,0,9999.99,2.51,2.637,2,9,31.3,0,31.29999924,3.7,1515.85189,10/4/20,17:01:22,28.04,6.794,3.7,1.042,7.73,-43.3,-1.9,-6.6,-3273,30.6,2.35,13.2,
25.84599482,-80.17655114,21:17.5,10/4/20,10,1.861,323.65,-6.993015135,1.43,328.9,323.36,5.17,2.79,39.6,0,2.41,2.41,93,56,504.8,16.1,-3.5,D,597,6,6.774,2,1.94,191,318.88,-80.17659566,25.84604072,0,0,1,N,0.9240945,89,89,11,116,116,320.1983,0,9999.99,2.46,2.587,2,9,31.3,0,31.29999924,3.7,1515.85189,10/4/20,17:01:22,28.04,6.794,3.7,1.042,7.73,-43.3,-1.9,-6.6,-3273,30.6,2.35,13.2,
25.84600201,-80.17655527,21:18.5,10/4/20,10,1.709,326.53,-6.993015135,1.02,329.7,324.17,4.37,5.81,39.7,0.01,2.34,2.34,93,56,504.8,16.1,-3.5,D,596.5,6,5.905,2,1.89,191,316.8,-80.17659566,25.84604072,0,0,1,N,1.013708,83,83,11,109,109,319.566,0,9999.99,2.38,2.507,2,9,31.3,0,31.29999924,3.8,1515.95547,10/4/20,17:01:23,28.04,6.956,3.8,1.007,7.74,-44.2,-1,-1.8,-1676,30.6,2.34,13.1,
25.84600863,-80.17656018,21:19.5,10/4/20,10,1.769,326.15,-6.993015135,1.02,327.9,322.34,1.87,6.72,39.6,0.01,2.29,2.3,93,56,504.8,16.1,-3.5,D,596.5,7,5.034,2,1.89,174,315.14,-80.17659566,25.84604072,0,0,6,N,1.00321,68,68,11,100,100,315.4765,0,9999.99,2.32,2.447,2,9,31.3,0,31.29999924,3.76,1515.91429,10/4/20,17:01:25,28.05,6.9,3.76,1.107,7.75,-44.4,-0.3,-4,-1449,30.6,2.34,13,
25.84601621,-80.1765653,21:20.5,10/4/20,10,1.912,326.34,-6.993015135,1.02,327.3,321.74,2.41,-4.68,39.6,0.01,2.23,2.24,93,56,504.8,16.1,-3.5,D,596.5,7,4.081,2,1.92,128,311.9,-80.17659566,25.84604072,0,0,6,N,1.00321,67,67,11,91,91,312.3141,0,9999.99,2.24,2.367,2,9,31.3,0,31.29999924,3.76,1515.91429,10/4/20,17:01:25,28.05,6.9,3.76,1.107,7.75,-44.4,-0.3,-4,-1449,30.6,2.34,13,
25.84602383,-80.17656865,21:21.5,10/4/20,10,1.477,328.4,-6.993015135,1.02,325.5,319.92,3.95,-6.22,39.6,0.01,2.19,2.2,93,31,504.7,16.1,-1.9,D,1063.3,7,3.291,2,1.73,128,304.8,-80.17659566,25.84604072,0,0,6,N,1.00321,81,81,11,69,69,305.4534,0,9999.99,2.22,2.347,2,9,31.3,0,31.29999924,3.78,1515.93449,10/4/20,17:01:26,28.05,6.922,3.78,1.042,7.75,-44.4,-1.6,-2.8,-3213,30.6,2.34,13.2,
25.84602443,-80.17657209,21:22.5,10/4/20,10,1.073,328.4,-6.993015135,1.02,321.2,315.57,4.68,-4.06,39.6,0.02,2.13,2.16,93,31,504.7,16.1,-1.9,D,1063.3,7,2.973,2,1.46,128,307.51,-80.17659566,25.84604072,0,0,6,N,1.00321,85,85,11,97,97,307.9417,0,9999.99,2.17,2.297,2,9,31.3,0,31.29999924,3.67,1515.8247,10/4/20,17:01:28,28.05,6.742,3.67,1.018,7.75,-44.6,-2.4,-3.7,-4087,30.5,2.34,13.2,
25.84602544,-80.17657335,21:23.5,10/4/20,10,0.666,328.4,-6.993015135,1.02,319.1,313.44,3.68,-3.13,39.6,0.02,2.12,2.14,93,31,504.7,16.1,-1.9,D,1063.3,7,2.805,2,1.19,128,307.27,-80.17659566,25.84604072,0,0,6,N,1.00321,79,79,11,104,104,307.6074,0,9999.99,2.16,2.287,2,9,31.3,0,31.29999924,3.67,1515.8247,10/4/20,17:01:28,28.05,6.742,3.67,1.018,7.75,-44.6,-2.4,-3.7,-4087,30.5,2.34,13.2,
25.8460274,-80.17657359,21:24.6,10/4/20,10,0.585,328.4,-6.993015135,1.02,316.4,310.71,4.08,-3.91,39.6,0.02,2.1,2.12,93,31,504.7,16.1,-1.9,D,1063.3,7,2.662,2,0.96,128,303.84,-80.17659566,25.84604072,0,0,6,N,1.00321,81,81,11,101,101,304.1646,0,9999.99,2.13,2.257,2,9,31.3,0,31.29999924,3.64,1515.79429,10/4/20,17:01:29,28.04,6.69,3.64,0.999,7.75,-44.8,-0.9,-2.6,-760,30.5,2.33,13.2,
25.84602756,-80.17657362,21:25.6,10/4/20,9,0.414,328.4,-6.993015135,1.43,316.2,310.51,3.44,-2.99,39.6,0.01,2.09,2.1,93,22,504.7,16.1,-1.3,D,1542.9,7,2.648,2,0.73,128,303.56,-80.17659566,25.84604072,0,0,6,N,1.00321,79,79,11,100,100,303.8361,0,9999.99,2.13,2.257,2,9,31.3,0,31.29999924,3.62,1515.77144,10/4/20,17:01:31,28.04,6.65,3.62,0.997,7.75,-44.8,-1.4,-5.7,-2445,30.4,2.33,13.1,
25.84602926,-80.17657398,21:26.6,10/4/20,10,0.429,328.4,-6.993015135,1.02,315.3,309.6,3.75,-4.23,39.6,0.01,2.1,2.11,93,22,504.7,16.1,-1.3,D,1542.9,7,2.515,2,0.57,128,300.43,-80.17659566,25.84604072,0,0,6,N,1.00321,79,79,11,91,91,300.709,0,9999.99,2.13,2.257,2,9,31.3,0,31.29999924,3.62,1515.77144,10/4/20,17:01:31,28.04,6.65,3.62,0.997,7.75,-44.8,-1.4,-5.7,-2445,30.4,2.33,13.1,
25.8460312,-80.17657356,21:27.6,10/4/20,10,0.176,328.4,-6.993015135,1.02,314.5,308.79,3.18,-4.15,39.6,0.01,2.09,2.09,93,22,504.7,16.1,-1.3,D,1542.9,7,2.452,2,0.42,128,295.57,-80.17659566,25.84604072,0,0,6,N,1.00321,76,76,11,75,75,295.9003,0,9999.99,2.12,2.247,2,9,31.2,0,31.20000076,3.62,1515.55178,10/4/20,17:01:32,28.04,6.647,3.62,1.018,7.75,-44.6,-0.7,-1.7,1494,30.4,2.33,13.3,
