Latitude,Longitude,Time,Date,Number of Sats,GPS Speed (Kn),GPS True Heading,GPS Magnetic Variation,HDOP,C Magnetic Heading,C True Heading,Pitch Angle,Roll Angle,C Inside Temp (c),DFS Depth (m),DTB Height (m),Total Water Column (m),Batt Percent,Power Watts,Watt-Hours,Batt Volts,Batt Ampers,Batt State,Time to Empty,Current Step,Dist To Next (m),Next Speed (kn),Vehicle Speed (kn),Motor Speed CMD,Next Heading,Next Long,Next Lat,Next Depth (m),Depth Goal (m),Vehicle State,Error State,Distance to Track (m),Fin Pitch R,Fin Pitch L,Pitch Goal,Fin Yaw T,Fin Yaw B,Yaw Goal,Fin Roll,DVL-Depth (m),DVL -Altitude (m),DVL -Water Column (m),DVL-FixType,DVL-FixQuality,DVL-Temperature,Conductivity (mmhos/cm),Temperature (c),Salinity (ppt),Sound Speed (m/s),Date m/d/y   ,Time hh:mm:ss,Temp C,SpCond mS/cm,Sal ppt,Depth feet,pH,pH mV,Turbid+ NTU,Chl ug/L,BGA-PC cells/mL,ODOsat %,ODO mg/L,Battery volts,ROSEM Command Type
25.91275067,-80.1378505,57:06.6,9/18/20,8,0.103,105.25,-7.021242762,1.03,80.5,75.62,1.35,-1.99,36.9,0.36,3.43,3.79,91,23,493.5,16.1,-1.4,D,1426,0,9.101,2,1.54,128,56.93,-80.13777424,25.91279533,0,0,1,N,8.606048,65,65,11,52,52,74.85973,0,9999.99,3.44,3.567,2,9,32.2,0,32.20000076,26.38,1541.02938,9/18/20,11:37:22,30.66,41.41,26.38,0.911,8.3,-78.3,-4.6,-5.8,-2308,76.5,4.95,12.9,
25.91275067,-80.1378505,57:07.7,9/18/20,8,0.103,105.25,-7.021242762,1.03,80.2,75.33,1.06,-4.01,36.9,0.37,3.43,3.81,91,23,493.5,16.1,-1.4,D,1426,0,9.101,2,1.54,128,56.93,-80.13777424,25.91279533,0,0,1,N,8.606048,90,90,11,123,123,56.93035,0,9999.99,3.44,3.567,2,9,32.2,0,32.20000076,26.38,1541.02878,9/18/20,11:37:23,30.66,41.41,26.38,0.9,8.3,-78.3,-4.6,0.2,-704,76.5,4.95,13.1,
25.91275067,-80.1378505,57:08.7,9/18/20,8,0.103,105.25,-7.021242762,1.03,77.8,73.03,3,0.03,36.8,0.37,3.43,3.8,91,23,493.5,16.1,-1.4,D,1426,0,9.101,2,1.54,128,56.93,-80.13777424,25.91279533,0,0,1,N,8.606048,90,90,11,123,123,56.93035,0,9999.99,3.45,3.577,2,9,32.2,0,32.20000076,26.38,1541.02878,9/18/20,11:37:23,30.66,41.41,26.38,0.9,8.3,-78.3,-4.6,0.2,-704,76.5,4.95,13.1,
25.91275067,-80.1378505,57:09.7,9/18/20,9,0.103,105.25,-7.021242762,1.03,78.3,73.51,1.17,-0.75,36.8,0.36,3.48,3.84,91,27,493.5,16.1,-1.7,D,1198.1,0,9.101,2,1.54,128,56.93,-80.13777424,25.91279533,0,0,1,N,8.606048,90,90,11,123,123,56.93035,0,9999.99,3.49,3.617,2,9,32.2,0,32.20000076,26.38,1541.02909,9/18/20,11:37:24,30.66,41.41,26.38,0.909,8.3,-78.1,-3.1,-3.2,-1734,76.5,4.95,13,
25.91275067,-80.1378505,57:10.7,9/18/20,9,0.103,105.25,-7.021242762,1.03,77.9,73.13,1.85,-1.62,36.8,0.37,3.54,3.9,91,27,493.5,16.1,-1.7,D,1198.1,0,9.101,2,1.54,128,56.93,-80.13777424,25.91279533,0,0,1,N,8.606048,90,90,11,123,123,56.93035,0,9999.99,3.55,3.677,2,9,32.2,0,32.20000076,26.38,1541.02821,9/18/20,11:37:26,30.65,41.41,26.38,0.938,8.3,-77.9,-3.3,0.8,-2817,76.6,4.95,13,
25.91275067,-80.1378505,57:11.7,9/18/20,9,0.103,105.25,-7.021242762,1.03,78.9,74.09,0.83,-0.35,36.8,0.37,3.65,4.02,91,27,493.5,16.1,-1.7,D,1198.1,0,9.101,2,1.54,128,56.93,-80.13777424,25.91279533,0,0,1,N,8.606048,90,90,11,123,123,56.93035,0,9999.99,3.66,3.787,2,9,32.2,0,32.20000076,26.38,1541.02821,9/18/20,11:37:26,30.65,41.41,26.38,0.938,8.3,-77.9,-3.3,0.8,-2817,76.6,4.95,13,
25.91275917,-80.13783133,57:12.7,9/18/20,9,1.651,77.06,-7.021242485,0.98,76.3,71.59,1,0.34,36.8,0.37,3.81,4.18,91,40,493.5,16.1,-2.5,D,809.8,0,6.984,2,1.54,174,54.85,-80.13777424,25.91279533,0,0,1,N,8.606048,63,63,11,68,68,56.93035,0,9999.99,3.82,3.947,2,9,32.2,0,32.20000076,26.36,1541.00865,9/18/20,11:37:27,30.64,41.39,26.36,0.927,8.3,-78.3,-3.6,-3.4,-2154,76.6,4.96,12.9,
25.91276245,-80.13782238,57:13.7,9/18/20,9,1.685,73.13,-7.021242485,0.98,74.2,69.57,0.32,1.32,36.7,0.28,3.91,4.19,91,40,493.5,16.1,-2.5,D,809.8,0,6.045,2,1.32,174,52.79,-80.13777424,25.91279533,0,0,1,N,8.606048,59,59,11,66,66,54.36676,0,9999.99,3.92,4.047,2,9,32.2,0,32.20000076,26.39,1541.03905,9/18/20,11:37:29,30.66,41.42,26.39,0.939,8.3,-78.1,-3.4,-8.3,-4795,76.6,4.95,13.1,
25.9127662,-80.13781363,57:14.7,9/18/20,9,1.755,66.73,-7.021242485,0.98,70.3,65.8,1.36,-0.44,36.7,0,4,4.01,91,39,493.4,16.1,-2.4,D,836.2,0,5.101,2,1.5,174,50.58,-80.13777424,25.91279533,0,0,1,N,8.606048,65,65,11,68,68,51.31657,0,9999.99,4.01,4.137,2,9,32.2,0,32.20000076,26.39,1541.03905,9/18/20,11:37:29,30.66,41.42,26.39,0.939,8.3,-78.1,-3.4,-8.3,-4795,76.6,4.95,13.1,
25.91277062,-80.13780507,57:15.7,9/18/20,9,1.799,62.88,-7.021242485,0.98,66.4,62.01,1.48,1.03,36.8,0.01,4.1,4.11,91,39,493.4,16.1,-2.4,D,836.2,1,32.998,2,1.65,174,150.57,-80.13764294,25.91251217,0,0,1,N,4.212893,68,68,11,250,250,128.6097,0,9999.99,4.11,4.237,2,9,32.2,0,32.20000076,26.38,1540.99712,9/18/20,11:37:30,30.69,41.42,26.38,0.978,8.3,-78.1,-3.9,0.6,-2921,76.6,4.95,13,
25.91277367,-80.13779733,57:16.7,9/18/20,9,1.806,62.62,-7.021242485,0.98,67.2,62.79,0.73,11.5,36.8,0.01,4.16,4.17,91,39,493.4,16.1,-2.4,D,836.2,1,33.003,2,1.74,174,152.01,-80.13764294,25.91251217,0,0,1,N,3.187877,61,61,11,250,250,135.6296,0,9999.99,4.17,4.297,2,9,32.2,0,32.20000076,26.31,1540.92572,9/18/20,11:37:32,30.76,41.31,26.31,0.952,8.3,-78.3,-3.5,-6.8,-3465,76.6,4.95,12.9,
25.91277839,-80.13778864,57:17.7,9/18/20,9,1.718,58.49,-7.021242485,0.98,73,68.41,2.52,-4.17,36.8,0,4.15,4.15,91,39,493.4,16.1,-2.4,D,836.2,1,32.995,2,1.74,174,153.79,-80.13764294,25.91251217,0,0,1,N,2.209219,72,72,11,250,250,142.0961,0,9999.99,4.16,4.287,2,9,32.2,0,32.20000076,26.31,1540.92572,9/18/20,11:37:32,30.76,41.31,26.31,0.952,8.3,-78.3,-3.5,-6.8,-3465,76.6,4.95,12.9,
25.91278167,-80.13778183,57:18.7,9/18/20,9,1.645,60.07,-7.021242485,0.98,83.1,78.09,1.58,2.24,36.7,0.01,4.05,4.06,91,37,493.4,16.1,-2.3,D,873.4,1,32.891,2,1.69,128,155.2,-80.13764294,25.91251217,0,0,1,N,1.335566,66,66,11,250,250,147.8843,0,9999.99,4.07,4.197,2,9,32.2,0,32.20000076,26.3,1540.91509,9/18/20,11:37:33,30.78,41.3,26.3,0.945,8.31,-78.5,-3.3,-5.1,-1082,76.7,4.95,13,
25.91278409,-80.13777445,57:19.7,9/18/20,10,1.265,63.66,-7.021242485,0.98,89.7,84.34,2.75,-3.74,36.7,0.01,3.97,3.98,91,37,493.4,16.1,-2.3,D,873.4,1,32.974,2,1.57,128,156.49,-80.13764294,25.91251217,0,0,1,N,0.5045564,73,73,11,250,250,153.1869,0,9999.99,4,4.127,2,9,32.2,0,32.20000076,26.26,1540.8747,9/18/20,11:37:35,30.79,41.24,26.26,0.905,8.3,-78.4,-4.3,-2.9,-3234,76.8,4.96,13.2,
25.91278567,-80.1377693,57:20.7,9/18/20,10,1.046,67.05,-7.021242485,0.98,95.7,89.98,3.18,-2,36.7,0.01,3.95,3.96,91,37,493.4,16.1,-2.3,D,873.4,1,32.933,2,1.35,128,157.43,-80.13764294,25.91251217,0,0,1,N,0.1783803,76,76,11,250,250,157.0904,0,9999.99,3.98,4.107,2,9,32.2,0,32.20000076,26.26,1540.8747,9/18/20,11:37:35,30.79,41.24,26.26,0.905,8.3,-78.4,-4.3,-2.9,-3234,76.8,4.96,13.2,
25.91278705,-80.13776437,57:21.7,9/18/20,9,0.879,73.35,-7.021242485,0.98,102.7,96.51,2.18,-4.03,36.8,0.01,3.95,3.96,91,24,493.4,16.1,-1.5,D,1357.7,1,32.89,2,1.16,128,158.33,-80.13764294,25.91251217,0,0,1,N,0.4998312,70,70,11,250,250,160.9354,0,9999.99,3.97,4.097,2,9,32.2,0,32.20000076,26.27,1540.88515,9/18/20,11:37:36,30.79,41.26,26.27,0.913,8.3,-78.4,-4.7,2.4,-3032,76.8,4.96,12.9,
25.91278724,-80.13776111,57:22.7,9/18/20,9,0.798,76.07,-7.021242485,0.98,108.3,101.71,1.81,-3.17,36.8,0.01,3.92,3.93,91,24,493.4,16.1,-1.5,D,1357.7,1,32.791,2,1,128,158.87,-80.13764294,25.91251217,0,0,1,N,0.9722582,69,69,11,250,250,163.2592,0,9999.99,3.94,4.067,2,9,32.2,0,32.20000076,26.3,1540.91548,9/18/20,11:37:38,30.8,41.3,26.3,0.885,8.3,-78.4,-4.3,-0.8,-3067,76.9,4.96,13,
25.91278673,-80.1377572,57:23.7,9/18/20,9,0.677,76.07,-7.021242485,0.98,113.7,106.71,1.93,-3.41,36.8,0,3.9,3.91,91,24,493.4,16.1,-1.5,D,1357.7,1,32.599,2,0.85,128,159.48,-80.13764294,25.91251217,0,0,1,N,1.2335,69,69,11,250,250,165.6934,0,9999.99,3.92,4.047,2,9,32.2,0,32.20000076,26.3,1540.91514,9/18/20,11:37:39,30.8,41.3,26.3,0.897,8.3,-78.3,-4.1,-8.3,-2852,76.8,4.96,13,
25.91278628,-80.13775337,57:24.8,9/18/20,9,0.602,76.07,-7.021242485,0.98,119.3,111.89,2.33,-4.48,36.8,0,3.89,3.89,91,24,493.4,16.1,-1.5,D,1357.7,1,32.419,2,0.74,128,160.08,-80.13764294,25.91251217,0,0,1,N,1.506994,71,71,11,250,250,168.0278,0,9999.99,3.91,4.037,2,9,32.2,0,32.20000076,26.3,1540.91514,9/18/20,11:37:39,30.8,41.3,26.3,0.897,8.3,-78.3,-4.1,-8.3,-2852,76.8,4.96,13,
25.91278575,-80.13775116,57:25.7,9/18/20,10,0.477,76.07,-7.021242485,0.88,123.8,116.05,2.04,-3.96,36.8,0.01,3.87,3.88,91,23,493.4,16.1,-1.4,D,1430.5,1,32.289,2,0.65,128,160.42,-80.13764294,25.91251217,0,0,1,N,1.695222,69,69,11,250,250,169.3241,0,9999.99,3.89,4.017,2,9,32.2,0,32.20000076,26.3,1540.91512,9/18/20,11:37:40,30.81,41.3,26.3,0.912,8.31,-78.4,-4.6,-4.5,-1064,76.9,4.96,13,
25.91278525,-80.13774875,57:26.8,9/18/20,10,0.457,76.07,-7.021242485,0.88,127.5,119.48,1.61,-3.4,36.8,0.01,3.87,3.88,91,23,493.4,16.1,-1.4,D,1430.5,1,32.157,2,0.58,128,160.79,-80.13764294,25.91251217,0,0,1,N,1.900036,67,67,11,250,250,170.7196,0,9999.99,3.89,4.017,2,9,32.2,0,32.20000076,26.29,1540.90496,9/18/20,11:37:42,30.82,41.29,26.29,0.894,8.31,-78.5,-4.4,-5.7,-1604,76.9,4.97,13.1,
25.91278473,-80.13774697,57:27.7,9/18/20,10,0.45,76.07,-7.021242485,0.88,131.9,123.57,1.73,-4.2,36.8,0.01,3.87,3.87,91,23,493.4,16.1,-1.4,D,1430.5,1,32.044,2,0.5,128,161.05,-80.13764294,25.91251217,0,0,1,N,2.046229,67,67,11,250,250,171.7072,0,9999.99,3.88,4.007,2,9,32.2,0,32.20000076,26.29,1540.90496,9/18/20,11:37:42,30.82,41.29,26.29,0.894,8.31,-78.5,-4.4,-5.7,-1604,76.9,4.97,13.1,
25.91278425,-80.13774575,57:28.7,9/18/20,10,0.336,76.07,-7.021242485,0.88,136.3,127.66,1.84,-3.3,36.9,0,3.86,3.87,91,23,493.4,16.1,-1.4,D,1397.3,1,31.954,2,0.45,128,161.23,-80.13764294,25.91251217,0,0,1,N,2.142022,68,68,11,250,250,172.3509,0,9999.99,3.88,4.007,2,9,32.2,0,32.20000076,26.29,1540.90487,9/18/20,11:37:43,30.82,41.29,26.29,0.902,8.31,-78.4,-3.3,-6.2,-3387,76.9,4.96,13.1,
25.91278393,-80.1377443,57:29.7,9/18/20,10,0.314,76.07,-7.021242485,0.88,139.5,130.65,1.68,-4.34,36.8,0,3.85,3.85,91,23,493.4,16.1,-1.4,D,1397.3,1,31.874,2,0.4,128,161.45,-80.13764294,25.91251217,0,0,1,N,2.263799,67,67,11,250,250,173.1608,0,9999.99,3.87,3.997,2,9,32.2,0,32.20000076,26.29,1540.90458,9/18/20,11:37:45,30.83,41.29,26.29,0.899,8.31,-78.7,-4.2,-0.1,-2004,77,4.97,13,
25.91278328,-80.13774402,57:30.8,9/18/20,10,0.307,76.07,-7.021242485,0.88,142.5,133.47,1.69,-3.27,36.8,0,3.85,3.85,91,23,493.4,16.1,-1.4,D,1397.3,1,31.796,2,0.35,128,161.46,-80.13764294,25.91251217,0,0,1,N,2.264079,67,67,11,250,250,173.1616,0,9999.99,3.86,3.987,2,9,32.2,0,32.20000076,26.29,1540.90458,9/18/20,11:37:45,30.83,41.29,26.29,0.899,8.31,-78.7,-4.2,-0.1,-2004,77,4.97,13,
25.91278239,-80.13774285,57:31.7,9/18/20,10,0.239,76.07,-7.021242485,0.88,144.6,135.44,1.82,-3.04,36.8,0,3.85,3.85,91,23,493.4,16.1,-1.4,D,1397.3,1,31.665,2,0.3,128,161.6,-80.13764294,25.91251217,0,0,1,N,2.340129,90,90,11,123,123,173.6352,0,9999.99,3.86,3.987,2,9,32.2,0,32.20000076,26.28,1540.89438,9/18/20,11:37:46,30.83,41.28,26.28,0.903,8.31,-78.8,-3.7,-1.9,-5203,77.1,4.97,13,
25.91278169,-80.13774135,57:32.8,9/18/20,10,0.398,76.07,-7.021242485,0.88,148.6,139.22,1.81,-5.52,36.9,0,3.85,3.85,91,24,493.3,16.1,-1.5,D,1363,1,31.545,2,0.3,128,161.82,-80.13764294,25.91251217,0,0,1,N,2.401237,90,90,11,123,123,174.2985,0,9999.99,3.86,3.987,2,9,32.2,0,32.20000076,26.28,1540.89425,9/18/20,11:37:47,30.84,41.28,26.28,0.895,8.31,-78.5,-3.9,-2,-4197,77,4.97,13,
25.91278089,-80.13773973,57:33.8,9/18/20,10,0.368,76.07,-7.021242485,0.88,152.1,142.55,1.71,-3.18,36.8,0,3.86,3.86,91,24,493.3,16.1,-1.5,D,1363,1,31.409,2,0.32,128,162.05,-80.13764294,25.91251217,0,0,1,N,2.561651,67,67,11,250,250,175.1157,0,9999.99,3.87,3.997,2,9,32.2,0,32.20000076,26.28,1540.89429,9/18/20,11:37:49,30.84,41.27,26.28,0.903,8.31,-78.8,-5,-1.1,-998,77.1,4.98,13.1,
25.91277986,-80.13773838,57:34.8,9/18/20,10,0.398,76.07,-7.021242485,0.88,154.9,145.22,2.03,-3.17,36.8,0,3.85,3.85,91,24,493.3,16.1,-1.5,D,1363,1,31.259,2,0.35,128,162.22,-80.13764294,25.91251217,0,0,1,N,2.606518,90,90,11,123,123,175.6001,0,9999.99,3.86,3.987,2,9,32.2,0,32.20000076,26.27,1540.88414,9/18/20,11:37:50,30.84,41.26,26.27,0.912,8.31,-78.8,-5.3,-5.6,-1745,77.1,4.98,13,
25.91277866,-80.13773704,57:35.8,9/18/20,10,0.377,76.07,-7.021242485,0.88,158.7,148.87,1.65,-5.21,36.8,0.01,3.85,3.85,91,24,493.3,16.1,-1.5,D,1352.1,1,31.091,2,0.36,128,162.38,-80.13764294,25.91251217,0,0,1,N,2.689669,90,90,11,123,123,176.0788,0,9999.99,3.86,3.987,2,9,32.2,0,32.20000076,26.26,1540.87428,9/18/20,11:37:51,30.84,41.25,26.26,0.906,8.31,-78.6,-4.1,-3,-792,77.1,4.98,13,
25.91277718,-80.13773597,57:36.8,9/18/20,10,0.373,76.07,-7.021242485,0.88,161.7,151.77,1.36,-3.14,36.8,0,3.85,3.85,91,24,493.3,16.1,-1.5,D,1352.1,1,30.902,2,0.36,208,162.48,-80.13764294,25.91251217,0,0,1,N,2.753895,65,65,11,225,225,176.3561,0,9999.99,3.86,3.987,2,9,32.2,0,32.20000076,26.26,1540.87424,9/18/20,11:37:52,30.84,41.25,26.26,0.905,8.31,-78.6,-5.4,-3.4,-1449,77.2,4.98,12.9,
25.91277612,-80.13773546,57:37.8,9/18/20,10,0.36,76.07,-7.021242485,0.88,164.8,154.78,1.46,-4.01,36.8,0,3.85,3.85,91,24,493.3,16.1,-1.5,D,1352.1,1,30.775,2,0.36,208,162.5,-80.13764294,25.91251217,0,0,1,N,2.756013,66,66,11,213,213,176.3679,0,9999.99,3.86,3.987,2,9,32.2,0,32.20000076,26.26,1540.87401,9/18/20,11:37:53,30.84,41.25,26.26,0.912,8.31,-78.8,-5,-3.8,-2066,77.2,4.98,13,
25.91277501,-80.13773467,57:38.8,9/18/20,10,0.348,76.07,-7.021242485,0.88,167.3,157.22,1.44,-4.12,36.8,0,3.86,3.86,91,24,493.3,16.1,-1.5,D,1352.1,1,30.633,2,0.35,208,162.57,-80.13764294,25.91251217,0,0,1,N,2.78222,66,66,11,205,205,176.537,0,9999.99,3.87,3.997,2,9,32.2,0,32.20000076,26.26,1540.874,9/18/20,11:37:54,30.84,41.25,26.26,0.905,8.31,-78.8,-4.6,-8.5,-2271,77.2,4.98,13,
25.91277381,-80.13773419,57:39.8,9/18/20,10,0.293,76.07,-7.021242485,0.88,170.3,160.17,1.49,-3.54,36.8,0.01,3.85,3.85,91,23,493.3,16.1,-1.4,D,1410.6,1,30.491,2,0.35,128,162.58,-80.13764294,25.91251217,0,0,1,N,2.777223,90,90,11,123,123,176.5048,0,9999.99,3.86,3.987,2,9,32.2,0,32.20000076,26.26,1540.87412,9/18/20,11:37:55,30.84,41.25,26.26,0.93,8.31,-78.6,-5.2,-2.5,-2275,77.2,4.98,13,
25.91277287,-80.13773373,57:40.8,9/18/20,10,0.199,76.07,-7.021242485,0.88,172.5,162.34,1.38,-3.66,36.7,0,3.86,3.86,91,23,493.3,16.1,-1.4,D,1410.6,1,30.377,2,0.31,128,162.61,-80.13764294,25.91251217,0,0,1,N,2.779636,90,90,11,123,123,176.5197,0,9999.99,3.87,3.997,2,9,32.2,0,32.20000076,26.26,1540.87411,9/18/20,11:37:56,30.84,41.25,26.26,0.905,8.31,-78.7,-4.3,1.2,-3550,77.2,4.98,12.8,
25.91277172,-80.13773375,57:41.8,9/18/20,10,0.276,76.07,-7.021242485,0.88,175,164.81,1.45,0.63,36.7,0,3.86,3.86,91,23,493.3,16.1,-1.4,D,1410.6,1,30.256,2,0.29,128,162.53,-80.13764294,25.91251217,0,0,1,N,2.728902,69,69,11,174,174,176.1958,0,9999.99,3.88,4.007,2,9,32.2,0,32.20000076,26.26,1540.87401,9/18/20,11:37:57,30.84,41.25,26.26,0.914,8.31,-78.8,-3.9,-2.3,-3199,77.2,4.99,13.1,
25.91276984,-80.1377337,57:42.8,9/18/20,10,0.429,76.07,-7.021242485,0.88,175.6,165.41,2.04,-2.12,36.7,0,3.86,3.86,91,27,493.3,16.1,-1.6,D,1211.6,1,30.055,2,0.33,128,162.42,-80.13764294,25.91251217,0,0,1,N,2.654168,69,69,11,168,168,175.7128,0,9999.99,3.88,4.007,2,9,32.2,0,32.20000076,26.26,1540.87374,9/18/20,11:37:58,30.84,41.25,26.26,0.909,8.31,-78.8,-5.3,-2.6,-6240,77.3,4.99,13.2,
25.91276758,-80.13773339,57:43.8,9/18/20,10,0.472,76.07,-7.021242485,0.88,177.6,167.4,1.35,-3.86,36.8,0,3.88,3.88,91,27,493.3,16.1,-1.6,D,1211.6,1,29.807,2,0.39,128,162.33,-80.13764294,25.91251217,0,0,1,N,2.588492,65,65,11,159,159,175.289,0,9999.99,3.89,4.017,2,9,32.2,0,32.20000076,26.26,1540.87371,9/18/20,11:37:59,30.84,41.25,26.26,0.914,8.31,-78.9,-3.7,-3.8,-3027,77.3,4.99,13.1,
25.91276559,-80.13773325,57:44.8,9/18/20,10,0.465,76.07,-7.021242485,0.88,179.3,169.1,1.43,-1.71,36.7,0,3.89,3.89,91,27,493.3,16.1,-1.6,D,1211.6,1,29.592,2,0.41,128,162.23,-80.13764294,25.91251217,0,0,1,N,2.515756,66,66,11,152,152,174.8176,0,9999.99,3.9,4.027,2,9,32.2,0,32.20000076,26.26,1540.87371,9/18/20,11:38:00,30.84,41.25,26.26,0.901,8.31,-78.7,-4.1,1.9,-4283,77.3,4.99,12.9,
25.91276358,-80.13773343,57:45.8,9/18/20,10,0.389,76.07,-7.021242485,0.88,179.8,169.6,1.46,-2.97,36.7,0,3.89,3.89,91,27,493.3,16.1,-1.6,D,1211.6,1,29.385,2,0.41,128,162.06,-80.13764294,25.91251217,0,0,1,N,2.414305,67,67,11,146,146,174.1535,0,9999.99,3.9,4.027,2,9,32.2,0,32.20000076,26.26,1540.8738,9/18/20,11:38:01,30.84,41.25,26.26,0.913,8.27,-76.5,-5.4,-0.3,-3002,77.3,4.99,13.1,
25.9127619,-80.13773344,57:46.8,9/18/20,10,0.339,76.07,-7.021242485,0.88,180.3,170.1,1.35,-3.7,36.7,0,3.89,3.89,91,24,493.2,16.1,-1.4,D,1373.7,1,29.207,2,0.4,128,161.95,-80.13764294,25.91251217,0,0,1,N,2.341383,65,65,11,141,141,173.6732,0,9999.99,3.9,4.027,2,9,32.2,0,32.20000076,26.27,1540.88405,9/18/20,11:38:02,30.84,41.26,26.27,0.913,8.31,-78.7,-4.9,-0.7,-1075,77.3,4.99,13,
25.91276028,-80.13773395,57:47.9,9/18/20,10,0.423,76.07,-7.021242485,0.88,181,170.8,1.4,-2.04,36.7,0,3.89,3.89,91,24,493.2,16.1,-1.4,D,1373.7,1,29.052,2,0.38,128,161.74,-80.13764294,25.91251217,0,0,1,N,2.224731,65,65,11,135,135,172.9008,0,9999.99,3.9,4.027,2,9,32.2,0,32.20000076,26.26,1540.87378,9/18/20,11:38:03,30.84,41.25,26.26,0.923,8.31,-78.9,-5.3,0.2,-2244,77.3,4.99,13,
25.9127588,-80.13773478,57:48.9,9/18/20,10,0.34,76.07,-7.021242485,0.88,181.1,170.9,1.51,-3.09,36.6,0,3.9,3.9,91,24,493.2,16.1,-1.4,D,1373.7,1,28.921,2,0.35,128,161.48,-80.13764294,25.91251217,0,0,1,N,2.084792,66,66,11,131,131,171.9673,0,9999.99,3.91,4.037,2,9,32.2,0,32.20000076,26.27,1540.88393,9/18/20,11:38:04,30.84,41.26,26.27,0.905,8.31,-78.7,-5.2,-3.2,-1427,77.3,4.99,13,
25.91275749,-80.13773578,57:49.9,9/18/20,10,0.3,76.07,-7.021242485,0.88,181.4,171.21,1.38,-2.87,36.7,0,3.9,3.9,91,24,493.2,16.1,-1.4,D,1373.7,1,28.816,2,0.34,128,161.2,-80.13764294,25.91251217,0,0,1,N,1.936115,65,65,11,126,126,170.9646,0,9999.99,3.91,4.037,2,9,32.2,0,32.20000076,26.26,1540.87367,9/18/20,11:38:05,30.84,41.25,26.26,0.9,8.31,-78.5,-5,-4.7,-2028,77.4,4.99,13.1,
25.91275635,-80.13773612,57:50.9,9/18/20,10,0.343,76.07,-7.021242485,0.98,181.6,171.41,1.38,-2.63,36.7,0,3.9,3.9,91,23,493.2,16.1,-1.4,D,1418.2,1,28.707,2,0.32,128,161.06,-80.13764294,25.91251217,0,0,1,N,1.855963,65,65,11,123,123,170.4213,0,9999.99,3.91,4.037,2,9,32.2,0,32.20000076,26.27,1540.88393,9/18/20,11:38:06,30.84,41.26,26.27,0.92,8.31,-78.8,-4.6,-2.4,-1501,77.4,4.99,13,
25.91275534,-80.1377363,57:51.9,9/18/20,9,0.259,76.07,-7.021242485,0.98,181.3,171.1,1.27,-2.59,36.7,0,3.9,3.9,91,23,493.2,16.1,-1.4,D,1418.2,1,28.607,2,0.3,128,160.95,-80.13764294,25.91251217,0,0,1,N,1.796119,65,65,11,122,122,170.0132,0,9999.99,3.91,4.037,2,9,32.2,0,32.20000076,26.27,1540.88393,9/18/20,11:38:07,30.84,41.26,26.27,0.923,8.32,-79.1,-4.6,-2.7,-1403,77.3,4.99,13.1,
25.91275424,-80.13773645,57:52.9,9/18/20,9,0.258,76.07,-7.021242485,0.98,180.8,170.6,1.15,-2.44,36.6,0,3.9,3.9,91,23,493.2,16.1,-1.4,D,1418.2,1,28.496,2,0.28,128,160.84,-80.13764294,25.91251217,0,0,1,N,1.734345,64,64,11,123,123,169.5919,0,9999.99,3.91,4.037,2,9,32.2,0,32.20000076,26.27,1540.88409,9/18/20,11:38:08,30.84,41.26,26.27,0.917,8.31,-78.7,-4.5,-3.4,-4222,77.3,4.99,12.9,
25.9127529,-80.13773657,57:54.0,9/18/20,9,0.237,76.07,-7.021242485,0.98,181.3,171.1,1.27,-2.7,36.6,0,3.9,3.9,91,21,493.2,16.1,-1.3,D,1534.7,1,28.358,2,0.26,128,160.72,-80.13764294,25.91251217,0,0,1,N,1.666747,65,65,11,119,119,169.1292,0,9999.99,3.91,4.037,2,9,32.2,0,32.20000076,26.27,1540.884,9/18/20,11:38:10,30.84,41.26,26.27,0.912,8.27,-76.2,-5.4,-4.7,-4408,77.3,4.99,13,
25.91275252,-80.13773678,57:55.1,9/18/20,9,0.178,76.07,-7.021242485,0.98,180.3,170.1,1.13,-2.93,36.7,0,3.91,3.91,91,21,493.2,16.1,-1.3,D,1534.7,1,28.326,2,0.24,128,160.65,-80.13764294,25.91251217,0,0,1,N,1.629518,64,64,11,122,122,168.8726,0,9999.99,3.92,4.047,2,9,32.2,0,32.20000076,26.27,1540.884,9/18/20,11:38:10,30.84,41.26,26.27,0.912,8.27,-76.2,-5.4,-4.7,-4408,77.3,4.99,13,
25.91275159,-80.13773709,57:56.1,9/18/20,9,0.228,76.07,-7.021242485,0.98,180.5,170.3,1.18,-2.37,36.7,0,3.92,3.92,91,22,493.2,16.1,-1.4,D,1460.5,1,28.239,2,0.22,128,160.52,-80.13764294,25.91251217,0,0,1,N,1.561713,90,90,11,123,123,168.406,0,9999.99,3.93,4.057,2,9,32.2,0,32.20000076,26.26,1540.87374,9/18/20,11:38:12,30.84,41.25,26.26,0.915,8.31,-78.9,-4.9,-5.3,-2726,77.3,4.99,12.9,
25.91275059,-80.13773729,57:57.1,9/18/20,9,0.257,76.07,-7.021242485,0.98,179.8,169.6,1.3,-2.95,36.6,0,3.92,3.92,91,22,493.2,16.1,-1.4,D,1460.5,1,28.141,2,0.2,128,160.41,-80.13764294,25.91251217,0,0,1,N,1.499326,90,90,11,123,123,167.9748,0,9999.99,3.93,4.057,2,9,32.2,0,32.20000076,26.26,1540.87374,9/18/20,11:38:12,30.84,41.25,26.26,0.915,8.31,-78.9,-4.9,-5.3,-2726,77.3,4.99,12.9,
25.91274966,-80.13773727,57:58.1,9/18/20,9,0.14,76.07,-7.021242485,0.98,179.4,169.2,1.4,-2.75,36.6,0,3.92,3.92,91,22,493.2,16.1,-1.4,D,1460.5,1,28.043,2,0.19,128,160.34,-80.13764294,25.91251217,0,0,1,N,1.460859,90,90,11,123,123,167.7085,0,9999.99,3.93,4.057,2,9,32.2,0,32.20000076,26.26,1540.8737,9/18/20,11:38:13,30.85,41.25,26.26,0.915,8.31,-78.8,-5.7,-4.7,-749,77.3,4.99,13.1,
25.91274922,-80.1377371,57:59.1,9/18/20,9,0.113,76.07,-7.021242485,0.98,179.3,169.1,1.22,-2.92,36.7,0,3.93,3.93,91,22,493.2,16.1,-1.4,D,1448.1,1,27.991,2,0.18,128,160.34,-80.13764294,25.91251217,0,0,1,N,1.456875,90,90,11,123,123,167.6808,0,9999.99,3.94,4.067,2,9,32.2,0,32.20000076,26.26,1540.87367,9/18/20,11:38:15,30.85,41.26,26.26,0.913,8.31,-78.7,-4.8,-1.2,-2555,77.3,4.99,13,
25.91274858,-80.13773744,58:00.1,9/18/20,9,0.185,76.07,-7.021242485,0.98,179.4,169.2,1.07,-0.65,36.6,0,3.93,3.93,91,22,493.2,16.1,-1.4,D,1448.1,1,27.935,2,0.16,128,160.22,-80.13764294,25.91251217,0,0,1,N,1.398623,63,63,11,119,119,167.2765,0,9999.99,3.94,4.067,2,9,32.2,0,32.20000076,26.26,1540.87367,9/18/20,11:38:15,30.85,41.26,26.26,0.913,8.31,-78.7,-4.8,-1.2,-2555,77.3,4.99,13,
25.91274784,-80.13773656,58:01.2,9/18/20,9,0.274,76.07,-7.021242485,0.98,177.9,167.7,1.1,-0.72,36.6,0,3.93,3.93,91,25,493.2,16.1,-1.5,D,1289,1,27.828,2,0.19,128,160.34,-80.13764294,25.91251217,0,0,1,N,1.447563,90,90,11,123,123,167.6165,0,9999.99,3.94,4.067,2,9,32.2,0,32.20000076,26.26,1540.87376,9/18/20,11:38:16,30.84,41.25,26.26,0.919,8.31,-78.7,-4.8,-4.8,-5202,77.3,4.99,12.8,
25.91274678,-80.13773623,58:02.2,9/18/20,10,0.274,76.07,-7.021242485,0.98,177.5,167.3,0.95,-2.22,36.6,0,3.93,3.93,91,25,493.2,16.1,-1.5,D,1289,1,27.707,2,0.22,128,160.32,-80.13764294,25.91251217,0,0,1,N,1.433537,90,90,11,123,123,167.5193,0,9999.99,3.94,4.067,2,9,32.2,0,32.20000076,26.27,1540.88402,9/18/20,11:38:17,30.84,41.26,26.27,0.912,8.27,-76.5,-5.8,-1.4,-2874,77.4,5,13.1,
25.91274527,-80.13773582,58:03.3,9/18/20,10,0.295,76.07,-7.021242485,0.98,177.6,167.4,1.21,-1.59,36.6,0,3.93,3.93,91,25,493.2,16.1,-1.5,D,1289,1,27.534,2,0.25,128,160.28,-80.13764294,25.91251217,0,0,1,N,1.411995,90,90,11,123,123,167.3697,0,9999.99,3.94,4.067,2,9,32.2,0,32.20000076,26.27,1540.88405,9/18/20,11:38:19,30.85,41.26,26.27,0.906,8.31,-79,-5.3,-1.8,-4238,77.4,5,13.2,
25.9127433,-80.13773577,58:04.3,9/18/20,10,0.319,76.07,-7.021242485,0.98,176.9,166.7,1.03,-0.74,36.6,0,3.93,3.93,91,24,493.1,16.1,-1.5,D,1328.9,1,27.326,2,0.29,128,160.14,-80.13764294,25.91251217,0,0,1,N,1.326964,63,63,11,127,127,166.7777,0,9999.99,3.94,4.067,2,9,32.2,0,32.20000076,26.27,1540.88405,9/18/20,11:38:19,30.85,41.26,26.27,0.906,8.31,-79,-5.3,-1.8,-4238,77.4,5,13.2,
25.91274199,-80.13773564,58:05.4,9/18/20,10,0.32,76.07,-7.021242485,0.98,176.3,166.11,1.12,-2.03,36.7,0,3.94,3.94,91,24,493.1,16.1,-1.5,D,1328.9,1,27.185,2,0.31,128,160.06,-80.13764294,25.91251217,0,0,1,N,1.283882,90,90,11,123,123,166.4776,0,9999.99,3.95,4.077,2,9,32.2,0,32.20000076,26.26,1540.87377,9/18/20,11:38:20,30.85,41.26,26.26,0.911,8.31,-78.7,-5.3,-2.8,-1232,77.5,5,13,
25.91274009,-80.13773541,58:06.4,9/18/20,10,0.374,76.07,-7.021242485,0.98,176.3,166.11,1.15,-1.89,36.6,0,3.94,3.94,91,24,493.1,16.1,-1.5,D,1328.9,1,26.978,2,0.34,128,159.95,-80.13764294,25.91251217,0,0,1,N,1.224289,90,90,11,123,123,166.0608,0,9999.99,3.95,4.077,2,9,32.2,0,32.20000076,26.27,1540.88402,9/18/20,11:38:22,30.84,41.26,26.27,0.907,8.31,-78.9,-5.4,-1.8,-2267,77.4,5,13,
25.91273825,-80.13773503,58:07.4,9/18/20,10,0.381,76.07,-7.021242485,0.88,175.7,165.51,1.18,-2.17,36.7,0,3.94,3.94,91,24,493.1,16.1,-1.5,D,1328.9,1,26.773,2,0.36,128,159.88,-80.13764294,25.91251217,0,0,1,N,1.179386,90,90,11,123,123,165.7463,0,9999.99,3.95,4.077,2,9,32.2,0,32.20000076,26.27,1540.88402,9/18/20,11:38:22,30.84,41.26,26.27,0.907,8.31,-78.9,-5.4,-1.8,-2267,77.4,5,13,
25.91273627,-80.13773466,58:08.4,9/18/20,10,0.383,76.07,-7.021242485,0.88,175.4,165.21,1.27,-2.41,36.7,0,3.94,3.94,91,24,493.1,16.1,-1.5,D,1357.9,1,26.553,2,0.37,128,159.79,-80.13764294,25.91251217,0,0,1,N,1.129753,65,65,11,128,128,165.3979,0,9999.99,3.95,4.077,2,9,32.2,0,32.20000076,26.27,1540.88395,9/18/20,11:38:23,30.84,41.27,26.27,0.929,8.31,-78.9,-5.5,-5.9,-2046,77.4,5,13,
25.91273467,-80.1377343,58:09.4,9/18/20,10,0.309,76.07,-7.021242485,0.88,174.5,164.32,0.93,-1.67,36.6,0,3.95,3.95,91,24,493.1,16.1,-1.5,D,1357.9,1,26.375,2,0.36,128,159.73,-80.13764294,25.91251217,0,0,1,N,1.094508,63,63,11,130,130,165.1506,0,9999.99,3.96,4.087,2,9,32.2,0,32.20000076,26.28,1540.89421,9/18/20,11:38:25,30.84,41.27,26.28,0.905,8.31,-78.5,-4.3,-4.4,-2875,77.4,5,13.1,
25.91273334,-80.13773398,58:10.4,9/18/20,10,0.351,76.07,-7.021242485,0.88,174.6,164.42,1.34,-2.68,36.6,0,3.96,3.96,91,24,493.1,16.1,-1.5,D,1357.9,1,26.224,2,0.36,128,159.68,-80.13764294,25.91251217,0,0,1,N,1.066534,65,65,11,129,129,164.9541,0,9999.99,3.97,4.097,2,9,32.2,0,32.20000076,26.28,1540.89421,9/18/20,11:38:25,30.84,41.27,26.28,0.905,8.31,-78.5,-4.3,-4.4,-2875,77.4,5,13.1,
25.91273191,-80.13773313,58:11.4,9/18/20,10,0.321,76.07,-7.021242485,0.88,173.9,163.72,1.3,-1.95,36.6,0,3.96,3.96,91,24,493.1,16.1,-1.5,D,1364.2,1,26.046,2,0.34,128,159.74,-80.13764294,25.91251217,0,0,1,N,1.08336,65,65,11,132,132,165.072,0,9999.99,3.97,4.097,2,9,32.2,0,32.20000076,26.27,1540.88398,9/18/20,11:38:26,30.84,41.27,26.27,0.917,8.31,-79,-5.6,-1.9,-3222,77.4,5,13,
25.9127305,-80.13773277,58:12.4,9/18/20,9,0.336,76.07,-7.021242485,0.98,173.3,163.13,1.14,-2.55,36.7,0,3.96,3.96,91,24,493.1,16.1,-1.5,D,1364.2,1,25.886,2,0.34,128,159.69,-80.13764294,25.91251217,0,0,1,N,1.05567,64,64,11,134,134,164.8774,0,9999.99,3.97,4.097,2,9,32.2,0,32.20000076,26.27,1540.88408,9/18/20,11:38:28,30.84,41.26,26.27,0.911,8.31,-79,-5.3,-5.2,-4168,77.4,5,12.9,
25.91272932,-80.13773261,58:13.4,9/18/20,9,0.28,76.07,-7.021242485,0.98,172.4,162.24,1.43,-2.47,36.6,0,3.96,3.96,91,24,493.1,16.1,-1.5,D,1364.2,1,25.758,2,0.33,128,159.62,-80.13764294,25.91251217,0,0,1,N,1.021316,90,90,11,123,123,164.6354,0,9999.99,3.97,4.097,2,9,32.2,0,32.20000076,26.27,1540.88408,9/18/20,11:38:28,30.84,41.26,26.27,0.911,8.31,-79,-5.3,-5.2,-4168,77.4,5,12.9,
25.91272826,-80.13773267,58:14.4,9/18/20,10,0.266,76.07,-7.021242485,0.98,172.7,162.54,1.25,-2.89,36.6,0,3.97,3.97,91,24,493.1,16.1,-1.5,D,1364.2,1,25.65,2,0.31,128,159.52,-80.13764294,25.91251217,0,0,1,N,0.9685214,90,90,11,123,123,164.2631,0,9999.99,3.98,4.107,2,9,32.2,0,32.20000076,26.27,1540.88394,9/18/20,11:38:29,30.84,41.26,26.27,0.928,8.31,-78.7,-5.7,-0.6,-2018,77.4,5,13,
25.91272748,-80.13773235,58:15.4,9/18/20,10,0.297,76.07,-7.021242485,0.98,172,161.84,1.25,-2.19,36.6,0,3.97,3.97,91,22,493.1,16.1,-1.4,D,1443.7,1,25.558,2,0.29,128,159.52,-80.13764294,25.91251217,0,0,1,N,0.9647042,90,90,11,123,123,164.2362,0,9999.99,3.98,4.107,2,9,32.2,0,32.20000076,26.27,1540.88395,9/18/20,11:38:31,30.83,41.26,26.27,0.924,8.31,-78.9,-5.9,-1.7,-2568,77.3,4.99,13,
25.91272658,-80.13773221,58:16.4,9/18/20,10,0.268,76.07,-7.021242485,0.98,171.6,161.45,1.37,-3.04,36.6,0,3.97,3.97,91,22,493.1,16.1,-1.4,D,1443.7,1,25.459,2,0.26,128,159.47,-80.13764294,25.91251217,0,0,1,N,0.9387726,90,90,11,123,123,164.0527,0,9999.99,3.98,4.107,2,9,32.2,0,32.20000076,26.27,1540.88395,9/18/20,11:38:31,30.83,41.26,26.27,0.924,8.31,-78.9,-5.9,-1.7,-2568,77.3,4.99,13,
25.91272548,-80.13773204,58:17.5,9/18/20,10,0.193,76.07,-7.021242485,0.98,171.5,161.35,1.33,-3.35,36.6,0,3.97,3.97,91,22,493.1,16.1,-1.4,D,1443.7,1,25.338,2,0.24,128,159.41,-80.13764294,25.91251217,0,0,1,N,0.9066339,90,90,11,123,123,163.8259,0,9999.99,3.98,4.107,2,9,32.2,0,32.20000076,26.27,1540.88404,9/18/20,11:38:32,30.83,41.26,26.27,0.928,8.31,-78.9,-4,-3.8,-2176,77.3,4.99,12.9,
25.91272455,-80.13773189,58:18.4,9/18/20,10,0.202,76.07,-7.021242485,0.98,170.6,160.46,1.55,-2.75,36.6,0,3.97,3.97,91,23,493.1,16.1,-1.4,D,1405.1,1,25.236,2,0.22,128,159.36,-80.13764294,25.91251217,0,0,1,N,0.8807772,90,90,11,123,123,163.6428,0,9999.99,3.98,4.107,2,9,32.2,0,32.20000076,26.26,1540.87373,9/18/20,11:38:34,30.82,41.25,26.26,0.916,8.31,-78.7,-4.8,-2.8,-1433,77.3,4.99,13.1,
25.91272353,-80.13773152,58:19.5,9/18/20,9,0.231,76.07,-7.021242485,0.98,170.1,159.97,1.35,-2.54,36.6,0,3.98,3.98,91,23,493.1,16.1,-1.4,D,1437.6,1,25.117,2,0.21,128,159.35,-80.13764294,25.91251217,0,0,1,N,0.8708102,90,90,11,123,123,163.5724,0,9999.99,3.99,4.117,2,9,32.2,0,32.20000076,26.26,1540.87373,9/18/20,11:38:34,30.82,41.25,26.26,0.916,8.31,-78.7,-4.8,-2.8,-1433,77.3,4.99,13.1,
25.91272272,-80.13773137,58:20.4,9/18/20,9,0.156,76.07,-7.021242485,0.98,170,159.87,1.16,-2.89,36.6,0,3.97,3.97,91,23,493.1,16.1,-1.4,D,1437.6,1,25.027,2,0.18,128,159.31,-80.13764294,25.91251217,0,0,1,N,0.8504667,90,90,11,123,123,163.4282,0,9999.99,3.98,4.107,2,9,32.2,0,32.20000076,26.27,1540.88398,9/18/20,11:38:35,30.82,41.26,26.27,0.907,8.31,-78.6,-6,-4.2,-3570,77.3,4.99,13,
25.91272197,-80.13773123,58:21.5,9/18/20,9,0.199,76.07,-7.021242485,0.98,169.4,159.28,1.37,-2.84,36.6,0,3.97,3.97,91,23,493.1,16.1,-1.4,D,1437.6,1,24.945,2,0.17,128,159.27,-80.13764294,25.91251217,0,0,1,N,0.8307542,65,65,11,144,144,163.2887,0,9999.99,3.98,4.107,2,9,32.2,0,32.20000076,26.27,1540.88393,9/18/20,11:38:37,30.82,41.26,26.27,0.916,8.3,-78,-4.9,-5.1,-2096,77.3,4.99,13.1,
25.91272151,-80.13773123,58:22.4,9/18/20,9,0.131,76.07,-7.021242485,0.98,168.7,158.6,1.36,-2.87,36.6,0,3.97,3.97,91,22,493,16.1,-1.4,D,1442.6,1,24.897,2,0.16,128,159.23,-80.13764294,25.91251217,0,0,1,N,0.8107651,65,65,11,145,145,163.147,0,9999.99,3.98,4.107,2,9,32.2,0,32.20000076,26.27,1540.88393,9/18/20,11:38:37,30.82,41.26,26.27,0.916,8.3,-78,-4.9,-5.1,-2096,77.3,4.99,13.1,
25.91272089,-80.13773124,58:23.5,9/18/20,9,0.161,76.07,-7.021242485,0.98,167.8,157.71,1.66,-2.42,36.7,0,3.97,3.97,91,22,493,16.1,-1.4,D,1442.6,1,24.832,2,0.16,208,159.17,-80.13764294,25.91251217,0,0,1,N,0.7836232,66,66,11,146,146,162.9545,0,9999.99,3.98,4.107,2,9,32.2,0,32.20000076,26.27,1540.88399,9/18/20,11:38:38,30.82,41.26,26.27,0.907,8.31,-78.8,-3.9,-1.6,-2210,77.4,5,13,
25.91272031,-80.13773162,58:24.4,9/18/20,9,0.168,76.07,-7.021242485,0.98,167.4,157.32,1.02,-2.68,36.6,0,3.96,3.96,91,22,493,16.1,-1.4,D,1442.6,1,24.786,2,0.15,208,159.03,-80.13764294,25.91251217,0,0,1,N,0.7237984,63,63,11,148,148,162.5297,0,9999.99,3.97,4.097,2,9,32.2,0,32.20000076,26.27,1540.8841,9/18/20,11:38:40,30.82,41.26,26.27,0.921,8.31,-78.8,-5.4,-4.3,-2283,77.4,5,12.9,
25.91271949,-80.13773081,58:25.4,9/18/20,9,0.294,76.07,-7.021242485,0.98,167.3,157.22,1.13,-1.44,36.6,0,3.97,3.97,91,22,493,16.1,-1.4,D,1442.6,1,24.671,2,0.16,208,159.13,-80.13764294,25.91251217,0,0,1,N,0.7610813,63,63,11,149,149,162.7946,0,9999.99,3.98,4.107,2,9,32.2,0,32.20000076,26.27,1540.8841,9/18/20,11:38:40,30.82,41.26,26.27,0.921,8.31,-78.8,-5.4,-4.3,-2283,77.4,5,12.9,
25.91271793,-80.13772987,58:26.4,9/18/20,9,0.307,76.07,-7.021242485,0.98,167.3,157.22,1.06,-3.72,36.6,0,3.98,3.98,91,26,493,16.1,-1.6,D,1251.6,1,24.475,2,0.23,208,159.19,-80.13764294,25.91251217,0,0,1,N,0.7824429,63,63,11,150,150,162.9461,0,9999.99,3.99,4.117,2,9,32.2,0,32.20000076,26.27,1540.88395,9/18/20,11:38:41,30.82,41.26,26.27,0.93,8.32,-79,-5.2,-1.9,-3189,77.4,5,13,
25.91271665,-80.13772898,58:27.4,9/18/20,9,0.346,76.07,-7.021242485,0.98,167.2,157.13,1.2,-1.87,36.6,0,3.97,3.97,91,26,493,16.1,-1.6,D,1251.6,1,24.311,2,0.3,208,159.27,-80.13764294,25.91251217,0,0,1,N,0.8096641,64,64,11,151,151,163.1391,0,9999.99,3.98,4.107,2,9,32.2,0,32.20000076,26.28,1540.8943,9/18/20,11:38:43,30.82,41.28,26.28,0.912,8.31,-78.8,-5.3,-6.3,-722,77.3,4.99,13.1,
25.91271463,-80.13772765,58:28.5,9/18/20,9,0.449,76.07,-7.021242485,0.98,167.2,157.13,1.22,-1.71,36.6,0,3.98,3.98,91,26,493,16.1,-1.6,D,1251.6,1,24.054,2,0.35,208,159.38,-80.13764294,25.91251217,0,0,1,N,0.8458461,64,64,11,152,152,163.3956,0,9999.99,3.99,4.117,2,9,32.2,0,32.20000076,26.28,1540.8943,9/18/20,11:38:43,30.82,41.28,26.28,0.912,8.31,-78.8,-5.3,-6.3,-722,77.3,4.99,13.1,
25.91271267,-80.13772705,58:29.4,9/18/20,9,0.387,76.07,-7.021242485,0.98,167.8,157.71,1.09,-3.08,36.6,0,3.98,3.98,91,24,493,16.1,-1.5,D,1347.7,1,23.829,2,0.38,208,159.33,-80.13764294,25.91251217,0,0,1,N,0.8181061,64,64,11,148,148,163.1991,0,9999.99,3.99,4.117,2,9,32.2,0,32.20000076,26.28,1540.89424,9/18/20,11:38:44,30.81,41.28,26.28,0.944,8.31,-78.9,-5.5,-2.7,-2821,77.3,4.99,12.9,
25.91271075,-80.13772634,58:30.5,9/18/20,10,0.369,76.07,-7.021242485,0.98,167.5,157.42,1.03,-1.22,36.6,0,3.99,3.99,91,24,493,16.1,-1.5,D,1347.7,1,23.604,2,0.42,208,159.3,-80.13764294,25.91251217,0,0,1,N,0.801226,63,63,11,150,150,163.0795,0,9999.99,4,4.127,2,9,32.2,0,32.20000076,26.29,1540.9046,9/18/20,11:38:46,30.81,41.29,26.29,0.926,8.31,-78.5,-5.2,-4.4,-3237,77.3,4.99,12.9,
25.91270851,-80.13772513,58:31.4,9/18/20,10,0.47,76.07,-7.021242485,0.98,167.4,157.32,1.04,-1.69,36.6,0,3.99,3.99,91,24,493,16.1,-1.5,D,1347.7,1,23.329,2,0.44,208,159.37,-80.13764294,25.91251217,0,0,1,N,0.8178146,63,63,11,150,150,163.1969,0,9999.99,4,4.127,2,9,32.2,0,32.20000076,26.29,1540.9046,9/18/20,11:38:46,30.81,41.29,26.29,0.926,8.31,-78.5,-5.2,-4.4,-3237,77.3,4.99,12.9,
25.91270641,-80.13772452,58:32.4,9/18/20,10,0.437,76.07,-7.021242485,0.98,168.7,158.6,0.96,-1.9,36.6,0,4,4,91,24,493,16.1,-1.5,D,1347.7,1,23.089,2,0.44,128,159.31,-80.13764294,25.91251217,0,0,1,N,0.7857279,63,63,11,144,144,162.9695,0,9999.99,4.01,4.137,2,9,32.2,0,32.20000076,26.28,1540.89419,9/18/20,11:38:47,30.81,41.28,26.28,0.941,8.31,-78.7,-5.1,-0.5,-1630,77.3,4.99,13.1,
25.91270401,-80.13772362,58:33.5,9/18/20,10,0.444,76.07,-7.021242485,0.98,169.1,158.99,1.13,-2.33,36.6,0,4,4,91,25,493,16.1,-1.5,D,1325.9,1,22.808,2,0.47,208,159.28,-80.13764294,25.91251217,0,0,1,N,0.7666088,64,64,11,142,142,162.8338,0,9999.99,4.01,4.137,2,9,32.2,0,32.20000076,26.28,1540.89423,9/18/20,11:38:49,30.8,41.28,26.28,0.921,8.31,-78.7,-4.3,-1.6,-1259,77.2,4.99,13.1,
25.91270155,-80.1377227,58:34.5,9/18/20,10,0.455,76.07,-7.021242485,0.98,169.3,159.19,1.48,0.51,36.6,0,4,4,91,25,493,16.1,-1.5,D,1325.9,1,22.518,2,0.49,128,159.25,-80.13764294,25.91251217,0,0,1,N,0.745025,90,90,11,123,123,162.6806,0,9999.99,4.01,4.137,2,9,32.2,0,32.20000076,26.28,1540.89423,9/18/20,11:38:49,30.8,41.28,26.28,0.921,8.31,-78.7,-4.3,-1.6,-1259,77.2,4.99,13.1,
25.9126991,-80.13772206,58:35.5,9/18/20,10,0.512,76.07,-7.021242485,0.88,168.5,158.4,1.24,-1.72,36.6,0,4,4,91,25,493,16.1,-1.5,D,1325.9,1,22.241,2,0.51,128,159.16,-80.13764294,25.91251217,0,0,1,N,0.6980872,90,90,11,123,123,162.3472,0,9999.99,4.01,4.137,2,9,32.2,0,32.20000076,26.28,1540.89432,9/18/20,11:38:50,30.8,41.27,26.28,0.918,8.31,-78.6,-3.5,-4.4,-1052,77.2,4.99,13,
25.91269626,-80.13772145,58:36.5,9/18/20,10,0.565,76.07,-7.021242485,0.88,168.5,158.4,1.6,0.84,36.6,0,4,4,91,25,492.9,16.1,-1.5,D,1303.1,1,21.924,2,0.53,128,159.01,-80.13764294,25.91251217,0,0,1,N,0.6332223,67,67,11,141,141,161.8858,0,9999.99,4.02,4.147,2,9,32.2,0,32.20000076,26.27,1540.88408,9/18/20,11:38:51,30.8,41.26,26.27,0.935,8.31,-78.7,-4.3,-1.8,-491,77.2,4.99,13,
25.91269318,-80.1377208,58:37.5,9/18/20,10,0.688,76.07,-7.021242485,0.88,169.3,159.19,1.54,-1.26,36.5,0,4.01,4.01,91,25,492.9,16.1,-1.5,D,1303.1,1,21.582,2,0.55,128,158.85,-80.13764294,25.91251217,0,0,1,N,0.5625082,66,66,11,136,136,161.3821,0,9999.99,4.02,4.147,2,9,32.2,0,32.20000076,26.26,1540.87387,9/18/20,11:38:52,30.79,41.25,26.26,0.943,8.31,-78.9,-4.5,-2.7,-3,77.2,4.99,12.8,
25.91268972,-80.13772042,58:38.6,9/18/20,10,0.664,76.07,-7.021242485,0.88,168.7,158.6,1.2,-1.22,36.6,0,4,4,91,25,492.9,16.1,-1.5,D,1303.1,1,21.209,2,0.57,128,158.57,-80.13764294,25.91251217,0,0,1,N,0.4486082,66,66,11,135,135,160.5696,0,9999.99,4.01,4.137,2,9,32.2,0,32.20000076,26.26,1540.87371,9/18/20,11:38:54,30.78,41.25,26.26,0.936,8.31,-78.6,-4.1,-3.8,-54,77.2,4.99,13,
25.91268623,-80.13771959,58:39.6,9/18/20,10,0.705,76.07,-7.021242485,0.88,169,158.89,1.49,-0.82,36.5,0,4,4,91,25,492.9,16.1,-1.5,D,1303.1,1,20.818,2,0.57,128,158.39,-80.13764294,25.91251217,0,0,1,N,0.3762829,66,66,11,132,132,160.0531,0,9999.99,4.01,4.137,2,9,32.2,0,32.20000076,26.26,1540.87371,9/18/20,11:38:54,30.78,41.25,26.26,0.936,8.31,-78.6,-4.1,-3.8,-54,77.2,4.99,13,
25.91268243,-80.13771876,58:40.6,9/18/20,10,0.703,76.07,-7.021242485,0.88,168.6,158.5,1.17,-1.96,36.5,0,4.01,4.01,91,24,492.9,16.1,-1.5,D,1359.2,1,20.394,2,0.58,128,158.17,-80.13764294,25.91251217,0,0,1,N,0.2900801,64,64,11,131,131,159.4367,0,9999.99,4.02,4.147,2,9,32.2,0,32.20000076,26.25,1540.86351,9/18/20,11:38:55,30.78,41.24,26.25,0.925,8.27,-76.1,-5.3,-2.4,-168,77.1,4.98,13,
25.9126796,-80.13771813,58:41.6,9/18/20,10,0.662,76.07,-7.021242485,0.98,168.3,158.2,1.25,-1.83,36.6,0,4.01,4.01,91,24,492.9,16.1,-1.5,D,1359.2,1,20.08,2,0.59,128,158.01,-80.13764294,25.91251217,0,0,1,N,0.2255331,65,65,11,130,130,158.9749,0,9999.99,4.02,4.147,2,9,32.2,0,32.20000076,26.25,1540.86355,9/18/20,11:38:56,30.78,41.24,26.25,0.923,8.31,-78.8,-3.9,-4.1,42,77.1,4.99,12.9,
25.91267619,-80.13771737,58:42.6,9/18/20,10,0.62,76.07,-7.021242485,0.98,168.1,158.01,1.32,-2.1,36.6,0,4.01,4.01,91,24,492.9,16.1,-1.5,D,1359.2,1,19.7,2,0.58,128,157.8,-80.13764294,25.91251217,0,0,1,N,0.1500266,65,65,11,129,129,158.4345,0,9999.99,4.02,4.147,2,9,32.2,0,32.20000076,26.24,1540.8532,9/18/20,11:38:58,30.77,41.22,26.24,0.916,8.31,-78.6,-5,-3.5,-2508,77.2,4.99,13,
25.91267365,-80.13771741,58:43.6,9/18/20,10,0.518,76.07,-7.021242485,0.98,167.4,157.32,1.13,-3.18,36.6,0,4,4,91,23,492.9,16.1,-1.4,D,1419.2,1,19.439,2,0.54,128,157.47,-80.13764294,25.91251217,0,0,1,N,3.77E-02,64,64,11,128,128,157.6301,0,9999.99,4.01,4.137,2,9,32.2,0,32.20000076,26.24,1540.8532,9/18/20,11:38:58,30.77,41.22,26.24,0.916,8.31,-78.6,-5,-3.5,-2508,77.2,4.99,13,
25.91267126,-80.13771685,58:44.6,9/18/20,10,0.488,76.07,-7.021242485,0.98,167.5,157.42,1.45,-1.66,36.6,0,4,4,91,23,492.9,16.1,-1.4,D,1419.2,1,19.173,2,0.56,128,157.32,-80.13764294,25.91251217,0,0,1,N,1.52E-02,67,67,11,126,126,157.2511,0,9999.99,4.01,4.137,2,9,32.2,0,32.20000076,26.24,1540.85335,9/18/20,11:38:59,30.77,41.22,26.24,0.904,8.31,-78.4,-4,-4,-1626,77.1,4.98,13.2,
25.91266918,-80.13771637,58:45.6,9/18/20,10,0.491,76.07,-7.021242485,0.98,166.8,156.74,1.49,-2.55,36.6,0,4,4,91,23,492.9,16.1,-1.4,D,1419.2,1,18.941,2,0.51,128,157.19,-80.13764294,25.91251217,0,0,1,N,5.98E-02,66,66,11,128,128,156.9316,0,9999.99,4.01,4.137,2,9,32.2,0,32.20000076,26.24,1540.85338,9/18/20,11:39:00,30.76,41.22,26.24,0.925,8.31,-78.7,-4.6,-3.5,-4309,77.1,4.99,12.9,
25.91266705,-80.13771582,58:46.6,9/18/20,10,0.532,76.07,-7.021242485,0.98,166.6,156.54,1.16,-3.36,36.5,0,4.01,4.01,91,23,492.9,16.1,-1.4,D,1419.2,1,18.701,2,0.47,128,157.06,-80.13764294,25.91251217,0,0,1,N,9.95E-02,64,64,11,127,127,156.6474,0,9999.99,4.02,4.147,2,9,32.2,0,32.20000076,26.25,1540.86353,9/18/20,11:39:01,30.76,41.23,26.25,0.924,8.31,-78.7,-4.3,-4.7,1752,77.2,4.99,13,
25.91266545,-80.13771532,58:47.6,9/18/20,10,0.338,76.07,-7.021242485,0.98,165.8,155.76,1.41,-2.13,36.6,0,4.01,4.01,91,22,492.9,16.1,-1.3,D,1474.2,1,18.518,2,0.43,128,156.99,-80.13764294,25.91251217,0,0,1,N,0.1216201,65,65,11,130,130,156.4891,0,9999.99,4.02,4.147,2,9,32.2,0,32.20000076,26.25,1540.86343,9/18/20,11:39:03,30.76,41.23,26.25,0.925,8.31,-78.5,-5.1,-5.5,509,77.2,4.99,13.1,
25.91266387,-80.13771507,58:48.6,9/18/20,10,0.369,76.07,-7.021242485,0.98,165.9,155.86,1.46,-3.16,36.6,0,4.01,4.01,91,22,492.9,16.1,-1.3,D,1474.2,1,18.347,2,0.4,128,156.84,-80.13764294,25.91251217,0,0,1,N,0.1663531,66,66,11,128,128,156.1688,0,9999.99,4.02,4.147,2,9,32.2,0,32.20000076,26.25,1540.86343,9/18/20,11:39:03,30.76,41.23,26.25,0.925,8.31,-78.5,-5.1,-5.5,509,77.2,4.99,13.1,
25.91266304,-80.13771493,58:49.6,9/18/20,10,0.273,76.07,-7.021242485,0.98,165.4,155.37,1.09,-2.74,36.6,0,4.01,4.01,91,22,492.9,16.1,-1.3,D,1474.2,1,18.256,2,0.39,128,156.77,-80.13764294,25.91251217,0,0,1,N,0.1900131,64,64,11,130,130,155.9995,0,9999.99,4.02,4.147,2,9,32.2,0,32.20000076,26.25,1540.86357,9/18/20,11:39:04,30.76,41.23,26.25,0.934,8.31,-78.7,-3.5,-1.3,-1996,77.1,4.99,12.9,
25.91266192,-80.1377147,58:50.6,9/18/20,10,0.347,76.07,-7.021242485,0.98,165,154.98,1.37,-2.32,36.6,0,4.02,4.02,91,21,492.9,16.1,-1.3,D,1514.5,1,18.133,2,0.35,128,156.68,-80.13764294,25.91251217,0,0,1,N,0.2161267,65,65,11,130,130,155.8126,0,9999.99,4.03,4.157,2,9,32.2,0,32.20000076,26.25,1540.86345,9/18/20,11:39:05,30.75,41.24,26.25,0.913,8.31,-78.6,-3.5,-4.1,-2581,77.1,4.98,13.1,
25.91266071,-80.13771477,58:51.6,9/18/20,10,0.287,76.07,-7.021242485,0.98,163.9,153.91,1.2,-2.67,36.6,0,4.03,4.03,91,21,492.9,16.1,-1.3,D,1514.5,1,18.012,2,0.31,208,156.49,-80.13764294,25.91251217,0,0,1,N,0.2740723,64,64,11,133,133,155.3979,0,9999.99,4.04,4.167,2,9,32.2,0,32.20000076,26.26,1540.87367,9/18/20,11:39:07,30.75,41.24,26.26,0.917,8.31,-78.5,-4.2,-4.4,1504,77,4.98,13.1,
25.91265947,-80.13771433,58:52.6,9/18/20,10,0.244,76.07,-7.021242485,0.98,164.4,154.39,0.91,-2.45,36.6,0,4.03,4.03,91,21,492.9,16.1,-1.3,D,1514.5,1,17.868,2,0.32,208,156.45,-80.13764294,25.91251217,0,0,1,N,0.2853752,61,61,11,129,129,155.3171,0,9999.99,4.04,4.167,2,9,32.2,0,32.20000076,26.26,1540.87367,9/18/20,11:39:07,30.75,41.24,26.26,0.917,8.31,-78.5,-4.2,-4.4,1504,77,4.98,13.1,
25.91265662,-80.1377123,58:53.6,9/18/20,10,0.441,76.07,-7.021242485,0.98,163.7,153.71,0.99,-1.09,36.6,0,3.96,3.96,91,21,492.9,16.1,-1.3,D,1514.5,1,17.497,2,0.36,208,156.64,-80.13764294,25.91251217,0,0,1,N,0.2224581,63,63,11,135,135,155.7718,0,9999.99,3.97,4.097,2,9,32.2,0,32.20000076,26.26,1540.87374,9/18/20,11:39:08,30.75,41.24,26.26,0.936,8.27,-76.6,-4.4,-6.4,-2528,77,4.98,12.9,
25.91265479,-80.13771122,58:54.6,9/18/20,10,0.533,76.07,-7.021242485,0.98,162.7,152.74,1.19,-4.13,36.6,0,4.02,4.02,91,25,492.8,16.1,-1.5,D,1317.9,1,17.267,2,0.4,208,156.7,-80.13764294,25.91251217,0,0,1,N,0.2087245,64,64,11,140,140,155.9299,0,9999.99,4.03,4.157,2,9,32.2,0,32.20000076,26.26,1540.87379,9/18/20,11:39:10,30.75,41.25,26.26,0.948,8.31,-78.5,-4,-0.4,1204,77,4.98,13,
25.91265283,-80.1377105,58:55.6,9/18/20,10,0.46,76.07,-7.021242485,0.98,163.6,153.62,0.99,-2.02,36.6,0,4.03,4.03,91,25,492.8,16.1,-1.5,D,1317.9,1,17.074,2,0.46,208,156.74,-80.13764294,25.91251217,0,0,1,N,0.1869735,62,62,11,137,137,156.0212,0,9999.99,4.04,4.167,2,9,32.2,0,32.20000076,26.26,1540.87379,9/18/20,11:39:10,30.75,41.25,26.26,0.948,8.31,-78.5,-4,-0.4,1204,77,4.98,13,
25.912651,-80.13770917,58:56.6,9/18/20,10,0.456,76.07,-7.021242485,0.98,163.2,153.23,1.02,-2.48,36.5,0,4.02,4.02,91,25,492.8,16.1,-1.5,D,1317.9,1,16.793,2,0.48,208,156.7,-80.13764294,25.91251217,0,0,1,N,0.1964563,63,63,11,138,138,155.9534,0,9999.99,4.03,4.157,2,9,32.2,0,32.20000076,26.27,1540.88397,9/18/20,11:39:11,30.74,41.25,26.27,0.917,8.31,-78.5,-4.6,-0.5,1172,76.9,4.97,13.1,
25.91264894,-80.13770771,58:57.7,9/18/20,10,0.513,76.07,-7.021242485,0.98,162.5,152.55,1.1,-2.03,36.5,0,4.03,4.03,91,24,492.8,16.1,-1.5,D,1349.1,1,16.531,2,0.49,208,156.93,-80.13764294,25.91251217,0,0,1,N,0.1516602,64,64,11,143,143,156.4554,0,9999.99,4.04,4.167,2,9,32.2,0,32.20000076,26.28,1540.89421,9/18/20,11:39:13,30.74,41.27,26.28,0.923,8.31,-78.6,-3.9,-3.5,-3514,76.9,4.97,13.1,
25.91264691,-80.13770686,58:58.7,9/18/20,10,0.462,76.07,-7.021242485,0.98,163,153.03,1.15,-1.99,36.5,0,4.03,4.03,91,24,492.8,16.1,-1.5,D,1351.7,1,16.289,2,0.5,208,156.89,-80.13764294,25.91251217,0,0,1,N,0.1075529,64,64,11,140,140,156.3932,0,9999.99,4.04,4.167,2,9,32.2,0,32.20000076,26.28,1540.89421,9/18/20,11:39:13,30.74,41.27,26.28,0.923,8.31,-78.6,-3.9,-3.5,-3514,76.9,4.97,13.1,
25.91264558,-80.13770618,58:59.7,9/18/20,10,0.405,76.07,-7.021242485,0.98,163,153.03,0.69,-3.55,36.5,0,4.03,4.03,91,24,492.8,16.1,-1.5,D,1351.7,1,16.127,2,0.49,208,156.91,-80.13764294,25.91251217,0,0,1,N,0.1158851,61,61,11,141,141,156.4252,0,9999.99,4.04,4.167,2,9,32.2,0,32.20000076,26.28,1540.8942,9/18/20,11:39:14,30.74,41.27,26.28,0.925,8.31,-78.6,-4.5,1.1,1754,76.9,4.97,12.9,
25.91264389,-80.13770508,59:00.8,9/18/20,10,0.37,76.07,-7.021242485,0.98,162.4,152.45,1.27,-2.51,36.5,0,4.02,4.02,91,24,492.8,16.1,-1.5,D,1351.7,1,15.91,2,0.46,208,157.01,-80.13764294,25.91251217,0,0,1,N,0.1002645,65,65,11,144,144,156.642,0,9999.99,4.03,4.157,2,9,32.2,0,32.20000076,26.28,1540.89422,9/18/20,11:39:16,30.74,41.28,26.28,0.951,8.3,-78.4,-3.3,-0.8,-3267,76.8,4.97,12.9,
25.91264257,-80.13770408,59:01.8,9/18/20,10,0.403,76.07,-7.021242485,0.98,162.5,152.55,1.22,-3.06,36.5,0,4.03,4.03,91,23,492.8,16.1,-1.4,D,1412.1,1,15.737,2,0.45,208,157.13,-80.13764294,25.91251217,0,0,1,N,6.46E-02,64,64,11,144,144,156.8978,0,9999.99,4.04,4.167,2,9,32.2,0,32.20000076,26.29,1540.90463,9/18/20,11:39:17,30.74,41.28,26.29,0.919,8.31,-78.6,-4.4,-4,-1934,76.8,4.97,13.1,
25.91264131,-80.13770322,59:02.8,9/18/20,10,0.392,76.07,-7.021242485,0.98,162.7,152.74,1.07,-2.92,36.5,0,4.03,4.03,91,23,492.8,16.1,-1.4,D,1412.1,1,15.574,2,0.42,208,157.22,-80.13764294,25.91251217,0,0,1,N,4.57E-02,63,63,11,145,145,157.08,0,9999.99,4.04,4.167,2,9,32.2,0,32.20000076,26.29,1540.9047,9/18/20,11:39:18,30.74,41.29,26.29,0.928,8.31,-78.6,-4.8,-2.3,-1823,76.8,4.97,13,
25.91263997,-80.13770238,59:03.8,9/18/20,10,0.325,76.07,-7.021242485,0.98,162.2,152.26,1.22,-2.15,36.5,0,4.04,4.04,91,23,492.8,16.1,-1.4,D,1412.1,1,15.404,2,0.39,208,157.3,-80.13764294,25.91251217,0,0,1,N,1.83E-02,64,64,11,147,147,157.2222,0,9999.99,4.05,4.177,2,9,32.2,0,32.20000076,26.29,1540.90468,9/18/20,11:39:19,30.74,41.29,26.29,0.929,8.31,-78.8,-4.9,-5.8,-4005,76.9,4.97,13.1,
25.91263883,-80.13770148,59:04.8,9/18/20,10,0.34,76.07,-7.021242485,0.98,162.2,152.26,0.91,-3.5,36.5,0,4.05,4.05,91,24,492.8,16.1,-1.4,D,1377.1,1,15.253,2,0.37,208,157.43,-80.13764294,25.91251217,0,0,1,N,1.64E-02,62,62,11,147,147,157.4774,0,9999.99,4.06,4.187,2,9,32.1,0,32.09999847,26.3,1540.71633,9/18/20,11:39:20,30.74,41.3,26.3,0.917,8.31,-78.5,-3.9,-5.3,-1288,76.9,4.97,12.9,
25.91263767,-80.13770131,59:05.8,9/18/20,10,0.278,76.07,-7.021242485,0.98,161.7,151.77,1.06,-2.61,36.5,0,4.04,4.04,91,24,492.8,16.1,-1.4,D,1377.1,1,15.127,2,0.35,208,157.3,-80.13764294,25.91251217,0,0,1,N,1.81E-02,63,63,11,149,149,157.2302,0,9999.99,4.05,4.177,2,9,32.2,0,32.20000076,26.3,1540.91472,9/18/20,11:39:21,30.74,41.3,26.3,0.922,8.27,-76.1,-4.2,-4.8,-4074,76.9,4.97,13.1,
25.91263652,-80.13770082,59:06.8,9/18/20,10,0.283,76.07,-7.021242485,0.98,162.5,152.55,0.88,-2.64,36.6,0,3.94,3.94,91,23,492.8,16.1,-1.4,D,1413,1,14.991,2,0.32,208,157.28,-80.13764294,25.91251217,0,0,1,N,2.19E-02,62,62,11,146,146,157.2033,0,9999.99,3.95,4.077,2,9,32.1,0,32.20000076,26.29,1540.90446,9/18/20,11:39:22,30.74,41.29,26.29,0.92,8.31,-78.7,-3,-1.6,-2111,76.9,4.97,13,
25.9126354,-80.13770035,59:07.8,9/18/20,10,0.305,76.07,-7.021242485,0.98,161.8,151.87,1.22,-3.09,36.5,0,3.99,3.99,91,23,492.8,16.1,-1.4,D,1413,1,14.857,2,0.3,128,157.26,-80.13764294,25.91251217,0,0,1,N,2.59E-02,65,65,11,146,146,157.1743,0,9999.99,4,4.127,2,9,32.1,0,32.09999847,26.3,1540.71636,9/18/20,11:39:23,30.74,41.29,26.3,0.941,8.31,-78.7,-4.4,-5.7,-1244,76.9,4.97,13.1,
25.91263442,-80.13770003,59:08.8,9/18/20,10,0.176,76.07,-7.021242485,0.98,161.7,151.77,1.34,-3.14,36.5,0,4.03,4.03,91,23,492.8,16.1,-1.4,D,1413,1,14.744,2,0.27,128,157.21,-80.13764294,25.91251217,0,0,1,N,3.83E-02,65,65,11,148,148,157.0855,0,9999.99,4.04,4.167,2,9,32.1,0,32.09999847,26.3,1540.71637,9/18/20,11:39:24,30.74,41.3,26.3,0.941,8.31,-78.5,-4.6,-3.1,-1909,76.9,4.97,12.9,
25.91263365,-80.13769948,59:09.8,9/18/20,10,0.204,76.07,-7.021242485,0.98,161.6,151.68,0.78,-3,36.5,0,4.03,4.03,91,23,492.8,16.1,-1.4,D,1413,1,14.644,2,0.25,128,157.29,-80.13764294,25.91251217,0,0,1,N,1.99E-02,62,62,11,149,149,157.2172,0,9999.99,4.04,4.167,2,9,32.1,0,32.09999847,26.29,1540.70615,9/18/20,11:39:25,30.74,41.29,26.29,0.906,8.3,-78.4,-4,-4.4,-3634,76.9,4.97,13.1,
25.9126331,-80.13769938,59:10.8,9/18/20,10,0.286,76.07,-7.021242485,0.98,162.7,152.74,1.43,-2.41,36.5,0,4.04,4.04,91,22,492.7,16.1,-1.3,D,1501.9,1,14.584,2,0.24,128,157.23,-80.13764294,25.91251217,0,0,1,N,3.41E-02,66,66,11,144,144,157.116,0,9999.99,4.05,4.177,2,9,32.2,0,32.20000076,26.3,1540.91477,9/18/20,11:39:26,30.74,41.3,26.3,0.955,8.31,-78.7,-3.6,-6,-986,77,4.98,13.1,
25.91263268,-80.13769901,59:11.8,9/18/20,10,0.175,76.07,-7.021242485,0.98,162.1,152.16,1.21,-4.22,36.5,0,4.05,4.05,91,22,492.7,16.1,-1.3,D,1501.9,1,14.527,2,0.22,128,157.29,-80.13764294,25.91251217,0,0,1,N,1.74E-02,64,64,11,147,147,157.2352,0,9999.99,4.06,4.187,2,9,32.2,0,32.20000076,26.29,1540.90453,9/18/20,11:39:27,30.74,41.29,26.29,0.927,8.31,-78.7,-4.4,-5.2,-1749,77,4.98,13.1,
25.91263214,-80.13769891,59:12.8,9/18/20,10,0.183,76.07,-7.021242485,0.98,162.4,152.45,0.99,-2.3,36.6,0,4.05,4.05,91,22,492.7,16.1,-1.3,D,1501.9,1,14.467,2,0.21,128,157.24,-80.13764294,25.91251217,0,0,1,N,3.13E-02,64,64,11,147,147,157.1356,0,9999.99,4.06,4.187,2,9,32.1,0,32.20000076,26.29,1540.90451,9/18/20,11:39:28,30.75,41.29,26.29,0.925,8.31,-78.6,-5.1,-3.8,-2650,77,4.98,12.9,
25.91263141,-80.13769863,59:13.8,9/18/20,10,0.177,76.07,-7.021242485,0.98,163,153.03,1.4,-3.49,36.5,0,4.06,4.06,91,23,492.7,16.1,-1.4,D,1434.6,1,14.382,2,0.18,128,157.21,-80.13764294,25.91251217,0,0,1,N,0.0308603,65,65,11,143,143,157.0997,0,9999.99,4.07,4.197,2,9,32.1,0,32.09999847,26.29,1540.70612,9/18/20,11:39:29,30.75,41.29,26.29,0.916,8.31,-78.5,-4.3,-1.8,-2973,77,4.98,13,
25.9126305,-80.13769793,59:14.8,9/18/20,10,0.216,76.07,-7.021242485,0.98,163.2,153.23,1.21,-2.12,36.5,0,4.05,4.05,91,23,492.7,16.1,-1.4,D,1434.6,1,14.262,2,0.17,128,157.32,-80.13764294,25.91251217,0,0,1,N,1.07E-02,90,90,11,123,123,157.2831,0,9999.99,4.06,4.187,2,9,32.1,0,32.09999847,26.29,1540.70611,9/18/20,11:39:30,30.75,41.29,26.29,0.915,8.31,-78.6,-4.1,-0.5,-4618,77,4.98,13,
25.91262951,-80.13769809,59:15.8,9/18/20,10,0.205,76.07,-7.021242485,0.98,162.9,152.94,0.63,-2.01,36.5,0,4.05,4.05,91,23,492.7,16.1,-1.4,D,1434.6,1,14.166,2,0.17,128,157.08,-80.13764294,25.91251217,0,0,1,N,6.84E-02,90,90,11,123,123,156.87,0,9999.99,4.06,4.187,2,9,32.2,0,32.20000076,26.29,1540.90458,9/18/20,11:39:31,30.75,41.29,26.29,0.927,8.27,-76.1,-3.1,0.3,-558,77,4.98,13.1,
25.91262852,-80.13769793,59:16.8,9/18/20,10,0.159,76.07,-7.021242485,0.98,162.9,152.94,1.18,-3.44,36.5,0,4.05,4.05,91,23,492.7,16.1,-1.4,D,1434.6,1,14.058,2,0.16,128,156.97,-80.13764294,25.91251217,0,0,1,N,9.59E-02,90,90,11,123,123,156.6735,0,9999.99,4.06,4.187,2,9,32.2,0,32.20000076,26.29,1540.90459,9/18/20,11:39:32,30.75,41.29,26.29,0.957,8.31,-78.7,-3.3,-0.7,-1366,77,4.98,13,
25.91262785,-80.13769777,59:17.8,9/18/20,10,0.123,76.07,-7.021242485,0.98,162.8,152.84,1.38,-1.45,36.4,0,4.05,4.05,91,23,492.8,16.1,-1.4,D,1434.1,1,13.983,2,0.15,128,156.91,-80.13764294,25.91251217,0,0,1,N,0.1094373,90,90,11,123,123,156.5764,0,9999.99,4.06,4.187,2,9,32.2,0,32.20000076,26.29,1540.90462,9/18/20,11:39:33,30.74,41.29,26.29,0.924,8.31,-78.8,-3.3,-2.4,-2554,77,4.98,13.1,
25.91262737,-80.13769811,59:18.8,9/18/20,9,0.134,76.07,-7.021242485,0.98,162.2,152.26,1.04,-2.63,36.5,0,4.05,4.05,91,23,492.8,16.1,-1.4,D,1434.1,1,13.948,2,0.14,128,156.7,-80.13764294,25.91251217,0,0,1,N,0.161337,65,65,11,140,140,156.2048,0,9999.99,4.06,4.187,2,9,32.2,0,32.20000076,26.29,1540.90464,9/18/20,11:39:34,30.74,41.29,26.29,0.922,8.31,-78.7,-5.5,-5.3,-454,77,4.98,12.9,
25.91262636,-80.13769828,59:19.8,9/18/20,9,0.093,76.07,-7.021242485,0.98,163.1,153.13,1.27,-2.24,36.5,0,4.04,4.04,91,23,492.8,16.1,-1.4,D,1434.1,1,13.852,2,0.14,128,156.45,-80.13764294,25.91251217,0,0,1,N,0.2199969,65,65,11,138,138,155.7849,0,9999.99,4.05,4.177,2,9,32.2,0,32.20000076,26.29,1540.90446,9/18/20,11:39:35,30.74,41.29,26.29,0.945,8.31,-78.8,-4.5,-1.4,-439,77,4.98,13,
25.91262565,-80.13769825,59:20.8,9/18/20,9,0.158,76.07,-7.021242485,0.98,162.7,152.74,1.32,-2.17,36.5,0,4.04,4.04,91,22,492.8,16.1,-1.4,D,1452.3,1,13.778,2,0.13,128,156.33,-80.13764294,25.91251217,0,0,1,N,0.248381,65,65,11,138,138,155.5818,0,9999.99,4.05,4.177,2,9,32.2,0,32.20000076,26.3,1540.91479,9/18/20,11:39:36,30.74,41.3,26.3,0.923,8.31,-78.7,-4.8,-6.5,-1485,77.1,4.98,12.9,
25.91262498,-80.13769809,59:21.9,9/18/20,9,0.099,76.07,-7.021242485,0.98,162.1,152.16,0.97,-3.22,36.5,0,4.04,4.04,91,23,492.9,16.1,-1.4,D,1414.4,1,13.704,2,0.13,128,156.26,-80.13764294,25.91251217,0,0,1,N,0.2620135,65,65,11,140,140,155.4842,0,9999.99,4.05,4.177,2,9,32.2,0,32.20000076,26.3,1540.91476,9/18/20,11:39:37,30.74,41.3,26.3,0.923,8.31,-78.7,-5.2,-1.7,-2757,77.1,4.98,13.1,
25.91262438,-80.13769808,59:22.9,9/18/20,9,0.091,76.07,-7.021242485,0.98,162.1,152.16,1.23,-2.28,36.5,0,4.04,4.04,91,23,492.9,16.1,-1.4,D,1414.4,1,13.642,2,0.09,128,156.16,-80.13764294,25.91251217,0,0,1,N,0.2877479,64,64,11,140,140,155.3001,0,9999.99,4.05,4.177,2,9,32.2,0,32.20000076,26.29,1540.90448,9/18/20,11:39:38,30.74,41.29,26.29,0.935,8.31,-78.5,-4.3,-2.5,-2352,77.1,4.98,13.1,
25.91262337,-80.13769807,59:23.9,9/18/20,9,0.191,76.07,-7.021242485,0.98,161.6,151.68,1.22,-3.07,36.5,0,4.03,4.03,91,23,492.9,16.1,-1.4,D,1414.4,1,13.539,2,0.09,128,155.97,-80.13764294,25.91251217,0,0,1,N,0.3302242,64,64,11,140,140,154.9964,0,9999.99,4.04,4.167,2,9,32.2,0,32.20000076,26.3,1540.91472,9/18/20,11:39:39,30.74,41.3,26.3,0.928,8.31,-78.5,-5.5,-3.1,-2889,77.1,4.98,13,
25.91262275,-80.13769745,59:24.9,9/18/20,8,0.144,76.07,-7.021242485,1.08,161.7,151.77,1.28,-3.23,36.5,0,4.04,4.04,91,22,493,16.1,-1.3,D,1498.6,1,13.451,2,0.09,128,156.09,-80.13764294,25.91251217,0,0,1,N,0.2989427,66,66,11,142,142,155.2201,0,9999.99,4.05,4.177,2,9,32.2,0,32.20000076,26.3,1540.91486,9/18/20,11:39:40,30.74,41.3,26.3,0.94,8.28,-76.9,-4.8,-1,-2286,77.1,4.98,12.9,
25.91262192,-80.13769762,59:25.9,9/18/20,9,0.132,76.07,-7.021242485,0.98,161.2,151.29,1.09,-2.58,36.5,0,4.04,4.04,91,22,493,16.1,-1.3,D,1498.6,1,13.373,2,0.09,128,155.86,-80.13764294,25.91251217,0,0,1,N,0.3500809,90,90,11,123,123,154.8544,0,9999.99,4.05,4.177,2,9,32.2,0,32.20000076,26.3,1540.91498,9/18/20,11:39:41,30.74,41.29,26.3,0.915,8.31,-78.7,-4.5,-3.4,-3268,77.1,4.98,12.9,
25.91262193,-80.13769762,59:26.9,9/18/20,9,0.019,76.07,-7.021242485,0.98,160.8,150.9,1.09,-3.17,36.5,0,4.04,4.04,91,22,493,16.1,-1.3,D,1498.6,1,13.374,2,0.08,128,155.86,-80.13764294,25.91251217,0,0,1,N,0.350136,64,64,11,143,143,154.854,0,9999.99,4.05,4.177,2,9,32.2,0,32.20000076,26.3,1540.91495,9/18/20,11:39:42,30.74,41.3,26.3,0.947,8.31,-78.7,-4.8,-4.1,-2406,77.1,4.98,13.1,
25.9126214,-80.13769794,59:27.9,9/18/20,9,0.108,76.07,-7.021242485,0.98,160.3,150.42,1.56,-2.82,36.5,0,4.04,4.04,91,22,493,16.1,-1.3,D,1498.6,1,13.334,2,0.07,128,155.63,-80.13764294,25.91251217,0,0,1,N,0.4020194,66,66,11,143,143,154.4832,0,9999.99,4.05,4.177,2,9,32.2,0,32.20000076,26.3,1540.91475,9/18/20,11:39:43,30.74,41.3,26.3,0.941,8.31,-78.7,-4.8,-4.6,-2494,77.1,4.98,13.1,
25.91262108,-80.13769829,59:28.9,9/18/20,9,0.062,76.07,-7.021242485,0.98,159.4,149.55,0.88,-2.46,36.5,0,4.04,4.04,91,22,493.1,16.1,-1.3,D,1503,1,13.316,2,0.06,128,155.44,-80.13764294,25.91251217,0,0,1,N,0.4474749,62,62,11,145,145,154.1586,0,9999.99,4.05,4.177,2,9,32.2,0,32.20000076,26.3,1540.91477,9/18/20,11:39:44,30.74,41.3,26.3,0.93,8.31,-78.6,-4,-6.6,-2752,77.1,4.98,12.9,
25.91262092,-80.13769846,59:29.9,9/18/20,9,0.077,76.07,-7.021242485,0.98,158.8,148.97,1.53,-2.87,36.4,0,4.04,4.04,91,22,493.1,16.1,-1.3,D,1503,1,13.306,2,0.05,208,155.34,-80.13764294,25.91251217,0,0,1,N,0.4700743,66,66,11,147,147,153.9973,0,9999.99,4.05,4.177,2,9,32.2,0,32.20000076,26.3,1540.91475,9/18/20,11:39:45,30.74,41.3,26.3,0.942,8.31,-78.7,-3.5,-5.1,-3586,77.1,4.98,13.1,
25.91262026,-80.1376983,59:30.9,9/18/20,9,0.102,76.07,-7.021242485,0.98,159.3,149.45,1.25,-4.3,36.5,0,4.03,4.03,91,22,493.1,16.1,-1.3,D,1503,1,13.233,2,0.05,208,155.27,-80.13764294,25.91251217,0,0,1,N,0.4835827,65,65,11,144,144,153.9009,0,9999.99,4.05,4.177,2,9,32.2,0,32.20000076,26.3,1540.91497,9/18/20,11:39:46,30.74,41.3,26.3,0.922,8.31,-78.8,-4.5,-2.7,-2317,77.1,4.98,13,
25.91261939,-80.13769842,59:31.9,9/18/20,9,0.199,76.07,-7.021242485,0.98,158.5,148.68,0.9,-2.13,36.5,0,4.04,4.04,91,25,493.2,16.1,-1.5,D,1327.7,1,13.15,2,0.08,208,155.04,-80.13764294,25.91251217,0,0,1,N,0.5331514,62,62,11,146,146,153.5474,0,9999.99,4.05,4.177,2,9,32.2,0,32.20000076,26.3,1540.9148,9/18/20,11:39:47,30.74,41.3,26.3,0.917,8.31,-78.6,-5.4,-4.5,-3026,77.1,4.99,13.1,
25.91261845,-80.13769802,59:33.0,9/18/20,9,0.159,76.07,-7.021242485,0.98,157.8,148.01,1.03,-3.88,36.4,0,4.05,4.05,91,25,493.2,16.1,-1.5,D,1327.7,1,13.039,2,0.12,208,155.01,-80.13764294,25.91251217,0,0,1,N,0.5360853,63,63,11,149,149,153.5264,0,9999.99,4.06,4.187,2,9,32.1,0,32.20000076,26.3,1540.91475,9/18/20,11:39:48,30.74,41.3,26.3,0.916,8.31,-78.6,-5.1,-7.2,-3217,77.1,4.98,12.9,
25.9126175,-80.13769771,59:34.0,9/18/20,9,0.267,76.07,-7.021242485,0.98,158,148.2,1.48,-3.68,36.5,0,4.04,4.04,91,25,493.2,16.1,-1.5,D,1327.7,1,12.93,2,0.14,208,154.93,-80.13764294,25.91251217,0,0,1,N,0.550153,90,90,11,123,123,153.4261,0,9999.99,4.05,4.177,2,9,32.2,0,32.20000076,26.3,1540.91476,9/18/20,11:39:49,30.74,41.3,26.3,0.922,8.31,-78.5,-3.5,-0.8,-2017,77.1,4.98,13.1,
25.9126162,-80.13769761,59:35.0,9/18/20,9,0.192,76.07,-7.021242485,0.98,159,149.16,0.66,0.11,36.4,0,4.04,4.05,91,25,493.2,16.1,-1.5,D,1327.7,1,12.795,2,0.17,208,154.7,-80.13764294,25.91251217,0,0,1,N,0.5959658,61,61,11,143,143,153.0998,0,9999.99,4.06,4.187,2,9,32.2,0,32.20000076,26.29,1540.90462,9/18/20,11:39:50,30.74,41.29,26.29,0.926,8.31,-78.5,-5.6,-5.7,-975,77.1,4.99,13,
25.91261494,-80.13769704,59:36.0,9/18/20,9,0.288,76.07,-7.021242485,0.98,157.5,147.72,0.53,-3.45,36.5,0,4.05,4.05,91,26,493.3,16.1,-1.6,D,1269.6,1,12.644,2,0.23,208,154.66,-80.13764294,25.91251217,0,0,1,N,0.5976824,60,60,11,148,148,153.0875,0,9999.99,4.06,4.187,2,9,32.2,0,32.20000076,26.3,1540.91488,9/18/20,11:39:51,30.74,41.3,26.3,0.932,8.31,-78.5,-4.3,-2,-2542,77.1,4.99,13.1,
25.9126133,-80.13769623,59:37.0,9/18/20,9,0.413,76.07,-7.021242485,0.98,158.2,148.39,1.42,-2.16,36.5,0,4.05,4.05,91,26,493.3,16.1,-1.6,D,1269.6,1,12.445,2,0.27,128,154.64,-80.13764294,25.91251217,0,0,1,N,0.5934547,66,66,11,146,146,153.1176,0,9999.99,4.06,4.187,2,9,32.2,0,32.20000076,26.29,1540.90452,9/18/20,11:39:52,30.74,41.29,26.29,0.951,8.31,-78.8,-5.4,-3.3,-1117,77.2,4.99,13,
25.91261159,-80.13769535,59:38.0,9/18/20,9,0.383,76.07,-7.021242485,0.98,157.9,148.1,0.99,-1.43,36.5,0,4.06,4.06,91,26,493.3,16.1,-1.6,D,1269.6,1,12.235,2,0.31,128,154.63,-80.13764294,25.91251217,0,0,1,N,0.5866101,90,90,11,123,123,153.1663,0,9999.99,4.07,4.197,2,9,32.2,0,32.20000076,26.29,1540.90457,9/18/20,11:39:53,30.74,41.29,26.29,0.927,8.31,-78.8,-3.5,-1.1,-1322,77.1,4.99,13,
25.91260958,-80.13769455,59:39.0,9/18/20,9,0.504,76.07,-7.021242485,0.98,158.3,148.49,1.18,-3.42,36.5,0,4.05,4.05,91,24,493.4,16.1,-1.5,D,1365.4,1,11.999,2,0.35,128,154.52,-80.13764294,25.91251217,0,0,1,N,0.5987754,64,64,11,145,145,153.0797,0,9999.99,4.06,4.187,2,9,32.2,0,32.20000076,26.3,1540.91479,9/18/20,11:39:54,30.74,41.3,26.3,0.937,8.31,-78.6,-5,-2,-2012,77.1,4.99,13.1,
25.91260772,-80.13769403,59:40.0,9/18/20,9,0.357,76.07,-7.021242485,0.98,158.3,148.49,1.01,-1.65,36.4,0,4.05,4.05,91,24,493.4,16.1,-1.5,D,1365.4,1,11.789,2,0.37,128,154.32,-80.13764294,25.91251217,0,0,1,N,0.6302329,90,90,11,123,123,152.8557,0,9999.99,4.06,4.187,2,9,32.2,0,32.20000076,26.3,1540.91479,9/18/20,11:39:55,30.74,41.3,26.3,0.928,8.27,-76,-5.4,-1.9,-939,77.2,4.99,13.1,
25.91260602,-80.13769318,59:41.1,9/18/20,9,0.401,76.07,-7.021242485,0.98,157.8,148.01,1,-3.22,36.4,0,4.05,4.05,91,24,493.4,16.1,-1.5,D,1365.4,1,11.583,2,0.38,128,154.29,-80.13764294,25.91251217,0,0,1,N,0.6250251,63,63,11,147,147,152.8929,0,9999.99,4.06,4.187,2,9,32.2,0,32.20000076,26.3,1540.91476,9/18/20,11:39:57,30.74,41.3,26.3,0.944,8.31,-78.8,-5,-2.2,-887,77.2,4.99,13,
25.91260413,-80.13769236,59:42.1,9/18/20,9,0.461,76.07,-7.021242485,0.98,158.2,148.39,1.39,-3.76,36.4,0,4.05,4.05,91,24,493.4,16.1,-1.5,D,1365.4,1,11.358,2,0.39,128,154.2,-80.13764294,25.91251217,0,0,1,N,0.6305971,66,66,11,144,144,152.853,0,9999.99,4.06,4.187,2,9,32.2,0,32.20000076,26.3,1540.9148,9/18/20,11:39:58,30.74,41.3,26.3,0.916,8.31,-78.7,-5.9,-3,-2030,77.2,4.99,13,
