Latitude,Longitude,Time,Date,Number of Sats,GPS Speed (Kn),GPS True Heading,GPS Magnetic Variation,HDOP,C Magnetic Heading,C True Heading,Pitch Angle,Roll Angle,C Inside Temp (c),DFS Depth (m),DTB Height (m),Total Water Column (m),Batt Percent,Power Watts,Watt-Hours,Batt Volts,Batt Ampers,Batt State,Time to Empty,Current Step,Dist To Next (m),Next Speed (kn),Vehicle Speed (kn),Motor Speed CMD,Next Heading,Next Long,Next Lat,Next Depth (m),Depth Goal (m),Vehicle State,Error State,Distance to Track (m),Fin Pitch R,Fin Pitch L,Pitch Goal,Fin Yaw T,Fin Yaw B,Yaw Goal,Fin Roll,DVL-Depth (m),DVL -Altitude (m),DVL -Water Column (m),DVL-FixType,DVL-FixQuality,DVL-Temperature,Conductivity (mmhos/cm),Temperature (c),Salinity (ppt),Sound Speed (m/s),Date m/d/y   ,Time hh:mm:ss,Temp C,SpCond mS/cm,Sal ppt,Depth feet,pH,pH mV,Turbid+ NTU,Chl ug/L,BGA-PC cells/mL,ODOsat %,ODO mg/L,Battery volts,ROSEM Command Type
25.9127595,-80.137886,03:07.2,6/9/21,10,0.567,253.56,-7.091555872,1.18,202.7,192.89,1.05,-3.57,29.8,0,2.21,2.21,90,21,493.2,16.1,-1.3,D,1546.3,0,6.043,2,0.02,128,113.6,-80.13783063,25.91273774,0,0,1,N,2.993194,63,63,11,5,5,120.6867,0,9999.99,2.22,2.347,2,9,29.2,0,29.20000076,43.86,1553.10097,6/9/21,10:40:44,29.07,64.94,43.86,1.185,8.38,-82.2,-4.2,-3.6,-1452,78.7,4.74,12.4,
25.91276067,-80.13788683,03:08.3,6/9/21,10,0.507,253.56,-7.091555872,1.18,201,191.13,1.16,-3.06,29.8,0,2.21,2.21,90,21,493.2,16.1,-1.3,D,1546.3,0,6.172,2,0.02,128,114.4,-80.13783063,25.91273774,0,0,1,N,2.982572,64,64,11,5,5,120.689,0,9999.99,2.22,2.347,2,9,29.2,0,29.20000076,43.86,1553.10097,6/9/21,10:40:45,29.08,64.94,43.86,1.185,8.4,-83.9,-3.6,-0.6,-4130,78.7,4.74,12.7,
25.912761,-80.137888,03:09.3,6/9/21,10,0.283,253.56,-7.091555872,1.18,201.5,191.65,2.69,2.08,29.8,0.01,2.22,2.23,90,21,493.2,16.1,-1.3,D,1546.3,1,15.883,2,0.01,174,140.17,-80.13778584,25.91265197,0,0,1,N,4.02264,73,73,11,5,5,135.5947,0,9999.99,2.23,2.357,2,9,29.2,0,29.20000076,43.86,1553.10164,6/9/21,10:40:47,29.08,64.94,43.86,1.183,8.37,-82.1,-4.4,-2.3,-4363,78.7,4.74,12.7,
25.912758,-80.137891,03:10.3,6/9/21,10,0.315,253.56,-7.091555872,1.18,200.9,191.03,1.29,-2.83,29.8,0.01,2.22,2.23,90,21,493.2,16.1,-1.3,D,1546.3,1,15.839,2,0.12,174,139.77,-80.13778584,25.91265197,0,0,1,N,4.113333,66,66,11,5,5,135.1067,0,9999.99,2.23,2.357,2,9,29.2,0,29.20000076,43.86,1553.10193,6/9/21,10:40:48,29.08,64.93,43.86,1.192,8.38,-82.2,-3.4,-3.8,-2036,78.7,4.74,12.5,
25.91275347,-80.13789372,03:11.3,6/9/21,11,0.869,253.56,-7.091555872,1.18,200.4,190.51,1.29,-1.54,29.8,0.01,2.23,2.24,90,36,493.1,16,-2.2,D,907.3,1,15.614,2,0.39,174,136.29,-80.13778584,25.91265197,0,0,1,N,4.59725,65,65,11,5,5,130.7748,0,9999.99,2.24,2.367,2,9,29.2,0,29.20000076,43.85,1553.09099,6/9/21,10:40:49,29.08,64.92,43.85,1.23,8.38,-82.2,-3,-0.7,-649,78.7,4.74,12.7,
25.91274883,-80.13789633,03:12.3,6/9/21,10,1.463,212.12,-7.091555872,0.91,195.7,185.67,1.19,-0.93,29.8,0.01,2.37,2.38,90,36,493.1,16,-2.2,D,907.3,1,15.443,2,0.72,174,135.41,-80.13778584,25.91265197,0,0,1,N,5.111666,62,62,11,5,5,129.6673,0,9999.99,2.38,2.507,2,9,29.2,0,29.20000076,43.83,1553.06999,6/9/21,10:40:50,29.07,64.9,43.83,1.205,8.37,-81.9,-3,-1.9,-1719,78.7,4.75,12.6,
25.91274283,-80.13789867,03:13.3,6/9/21,10,1.567,204.36,-7.091555872,0.91,190.9,180.75,1.24,2.05,29.8,0,2.51,2.51,90,36,493.1,16,-2.2,D,907.3,1,15.131,2,1,174,132.95,-80.13778584,25.91265197,0,0,1,N,5.611735,65,65,11,5,5,126.6261,0,9999.99,2.52,2.647,2,9,29.2,0,29.20000076,43.91,1553.1537,6/9/21,10:40:51,29.07,65,43.91,1.219,8.36,-81.5,-3.3,0.3,-1743,78.7,4.75,12.6,
25.91273338,-80.1379009,03:14.4,6/9/21,10,1.724,193.75,-7.091555872,0.91,182.1,171.84,1.82,3.07,29.8,0,2.47,2.47,90,40,493.1,16,-2.5,D,804.5,1,14.642,2,1.23,174,128.19,-80.13778584,25.91265197,0,0,1,N,6.1167,68,68,11,5,5,121.1067,0,9999.99,2.48,2.607,2,9,29.2,0,29.20000076,43.88,1553.12216,6/9/21,10:40:52,29.07,64.96,43.88,1.233,8.36,-81.1,-4,-3.1,-1396,78.8,4.75,12.4,
25.91272717,-80.1379035,03:15.4,6/9/21,10,1.561,183.56,-7.091555872,0.91,173.2,162.96,2.47,2.38,29.8,0.01,2.19,2.2,90,40,493.1,16,-2.5,D,804.5,1,14.118,2,1.43,174,126.46,-80.13778584,25.91265197,0,0,1,N,6.699126,72,72,11,5,5,118.8423,0,9999.99,2.21,2.337,2,9,29.2,0,29.20000076,43.93,1553.17474,6/9/21,10:40:53,29.06,65.02,43.93,1.198,8.38,-82.5,-3.4,-3.8,-3367,78.8,4.75,12.6,
25.91272,-80.1379025,03:16.4,6/9/21,10,1.59,178.1,-7.091555872,0.91,163.5,153.45,2.79,1.11,29.8,0.01,1.86,1.87,90,40,493.1,16,-2.5,D,804.5,1,13.796,2,1.51,174,123.71,-80.13778584,25.91265197,0,0,1,N,7.133749,74,74,11,5,5,115.8314,0,9999.99,1.88,2.007,2,9,29.2,0,29.20000076,43.97,1553.21737,6/9/21,10:40:54,29.06,65.07,43.97,1.189,8.38,-82.6,-3.6,-8.2,-1688,78.8,4.75,12.6,
25.912712,-80.1379015,03:17.4,6/9/21,10,1.709,170.41,-7.091555872,0.96,154.5,144.77,3.06,3.11,29.8,0.01,1.55,1.56,90,40,493.1,16,-2.5,D,804.5,1,13.181,2,1.59,174,121.48,-80.13778584,25.91265197,0,0,1,N,7.267509,75,75,11,5,5,113.6481,0,9999.99,1.58,1.707,2,9,29.2,0,29.20000076,43.98,1553.22802,6/9/21,10:40:55,29.07,65.09,43.98,1.18,8.38,-82.7,-4.6,-2.5,58,78.8,4.75,12.5,
25.91270383,-80.13789867,03:18.4,6/9/21,10,1.684,162.79,-7.091555872,0.96,144.9,135.66,3.09,0.76,29.8,0.01,1.35,1.36,90,38,493.1,16,-2.4,D,850.8,1,12.587,2,1.63,174,118.77,-80.13778584,25.91265197,0,0,1,N,7.443336,76,76,11,32,32,111.8826,0,9999.99,1.38,1.507,2,9,29.2,0,29.20000076,43.99,1553.23855,6/9/21,10:40:56,29.08,65.1,43.99,1.194,8.39,-83,-3.9,-4.5,-3310,78.8,4.75,12.6,
25.91269663,-80.13789331,03:19.4,6/9/21,10,1.647,151.33,-7.091555872,0.96,135.6,126.94,3.03,4.81,29.8,0,1.3,1.31,90,38,493.1,16,-2.4,D,850.8,1,11.84,2,1.63,174,114.8,-80.13778584,25.91265197,0,0,1,N,7.430919,75,75,11,66,66,112.4433,0,9999.99,1.33,1.457,2,9,29.2,0,29.20000076,44,1553.24856,6/9/21,10:40:57,29.09,65.12,44,1.192,8.38,-82.4,-5.8,-0.9,-3520,78.8,4.74,12.6,
25.91269004,-80.1378869,03:20.4,6/9/21,10,1.751,139.8,-7.091555872,0.96,129,120.81,2.76,5.38,29.8,0.01,1.44,1.45,90,38,493.1,16,-2.4,D,850.8,1,10.958,2,1.66,174,112.73,-80.13778584,25.91265197,0,0,1,N,7.216134,74,74,11,95,95,112.69,0,9999.99,1.47,1.597,2,9,29.2,0,29.20000076,43.94,1553.18549,6/9/21,10:40:58,29.09,65.04,43.94,1.207,8.38,-82.4,-5.2,-2.8,-985,78.7,4.74,12.6,
25.9126845,-80.13787967,03:21.4,6/9/21,10,1.707,132.42,-7.091555872,0.96,126.6,118.58,1.33,5.67,29.8,0,1.66,1.67,90,38,493.1,16,-2.3,D,855.4,1,10.142,2,1.68,175,112.34,-80.13778584,25.91265197,0,0,1,N,6.911031,65,65,11,109,109,114.0174,0,9999.99,1.68,1.807,2,9,29.2,0,29.20000076,43.93,1553.17486,6/9/21,10:40:59,29.07,65.03,43.93,1.181,8.41,-84,-4.5,0.7,-3911,78.8,4.75,12.6,
25.91267946,-80.13787095,03:22.4,6/9/21,10,1.813,126.17,-7.091555872,0.96,124.6,116.73,0.81,3,29.7,0,1.87,1.87,90,38,493.1,16,-2.3,D,855.4,1,9.044,2,1.74,175,109.75,-80.13778584,25.91265197,0,0,1,N,6.409721,62,62,11,124,124,115.9374,0,9999.99,1.88,2.007,2,9,29.2,0,29.20000076,43.98,1553.22713,6/9/21,10:41:00,29.05,65.09,43.98,1.216,8.38,-82.4,-4.4,-1.5,295,78.7,4.75,12.6,
25.9126747,-80.13786263,03:23.4,6/9/21,10,1.871,124.39,-7.091555872,0.96,125.2,117.28,0.84,2.9,29.8,0,1.97,1.97,90,38,493.1,16,-2.3,D,855.4,1,8.085,2,1.81,175,108.22,-80.13778584,25.91265197,0,0,1,N,5.900789,62,62,11,131,131,118.215,0,9999.99,1.98,2.107,2,9,29.2,0,29.20000076,44.01,1553.25862,6/9/21,10:41:01,29.05,65.13,44.01,1.243,8.38,-82.2,-3.7,-2.8,-1784,78.8,4.75,12.6,
25.91266985,-80.13785411,03:24.4,6/9/21,9,1.982,121.7,-7.091555872,0.96,125.6,117.66,0.75,3.81,29.8,0,2.25,2.26,90,38,493.1,16,-2.3,D,855.4,1,7.111,2,1.84,176,106.24,-80.13778584,25.91265197,0,0,1,N,5.369668,61,61,11,139,139,120.7729,0,9999.99,2.26,2.387,2,9,29.2,0,29.20000076,44.05,1553.30087,6/9/21,10:41:02,29.05,65.18,44.05,1.243,8.37,-82.1,-4.1,-1.4,-5806,78.7,4.74,12.5,
25.91266472,-80.13784541,03:25.4,6/9/21,10,1.99,121.62,-7.091555872,0.96,126.4,118.4,1.28,4.01,29.9,0,2.49,2.49,90,39,493.1,16,-2.4,D,825.7,1,6.124,2,1.86,176,103.39,-80.13778584,25.91265197,0,0,1,N,4.83145,65,65,11,148,148,123.5893,0,9999.99,2.5,2.627,2,9,29.2,0,29.20000076,44.12,1553.37423,6/9/21,10:41:03,29.07,65.27,44.12,1.236,8.37,-81.6,-4.5,-3.9,-2991,78.7,4.74,12.6,
25.91266133,-80.13783433,03:26.4,6/9/21,10,2.483,113.91,-7.091555872,0.96,127.9,119.79,1.06,2.82,29.8,0,2.57,2.57,90,39,493.1,16,-2.4,D,825.7,2,16.18,2,1.91,176,114.92,-80.137691,25.91259955,0,0,1,N,1.87679,63,63,11,98,98,112.5993,0,9999.99,2.58,2.707,2,9,29.2,0,29.20000076,44.15,1553.40574,6/9/21,10:41:04,29.13,65.32,44.15,1.202,8.38,-82.7,-3.3,-3.7,-2356,78.6,4.73,12.5,
25.91265617,-80.13782467,03:27.4,6/9/21,9,2.036,118.74,-7.091555872,0.96,128.2,120.06,0.77,1.33,29.8,0,2.68,2.68,90,39,493.1,16,-2.4,D,825.7,2,14.909,2,1.94,176,115.31,-80.137691,25.91259955,0,0,1,N,1.629311,62,62,11,98,98,113.009,0,9999.99,2.69,2.817,2,9,29.2,0,29.20000076,44.09,1553.34276,6/9/21,10:41:05,29.19,65.24,44.09,1.247,8.39,-83.2,-5.1,-6.4,-2566,78.6,4.72,12.7,
25.91264983,-80.1378162,03:28.4,6/9/21,10,1.827,125.22,-7.091555872,0.91,127.9,119.79,0.74,2.86,29.8,0,2.68,2.68,90,40,493,16,-2.5,D,815.2,2,13.714,2,2,176,114.06,-80.137691,25.91259955,0,0,1,N,1.612988,61,61,11,93,93,111.2122,0,9999.99,2.69,2.817,2,9,29.2,0,29.20000076,44.07,1553.32187,6/9/21,10:41:06,29.23,65.21,44.07,1.244,8.4,-83.6,-4,-2.3,-4354,78.6,4.72,12.6,
25.91264377,-80.13780818,03:29.4,6/9/21,10,1.992,126.24,-7.091555872,0.91,127.6,119.51,0.77,2.69,29.8,0,2.85,2.86,90,40,493,16,-2.5,D,815.2,2,12.71,2,2.06,176,112.76,-80.137691,25.91259955,0,0,1,N,1.792365,62,62,11,91,91,110.3894,0,9999.99,2.86,2.987,2,9,29.2,0,29.20000076,44.01,1553.2589,6/9/21,10:41:07,29.25,65.14,44.01,1.249,8.41,-84.2,-4.2,-2.2,-1904,78.6,4.72,12.7,
25.91263805,-80.13779889,03:30.4,6/9/21,10,2.098,123.99,-7.091555872,0.91,126.2,118.21,0.86,3.78,29.8,0,2.85,2.86,90,40,493,16,-2.5,D,815.2,2,11.609,2,2.02,176,111.64,-80.137691,25.91259955,0,0,1,N,1.956384,62,62,11,88,88,108.4553,0,9999.99,2.86,2.987,2,9,29.2,0,29.20000076,43.99,1553.23772,6/9/21,10:41:08,29.25,65.12,43.99,1.234,8.39,-83.3,-3.2,-3.7,-598,78.6,4.72,12.5,
25.91263333,-80.13779033,03:31.4,6/9/21,10,2.098,122.67,-7.091555872,0.91,125.1,117.19,0.22,3.16,29.8,0,2.36,2.36,90,40,493,16,-2.5,D,815.2,2,10.582,2,2.03,176,110.75,-80.137691,25.91259955,0,0,1,N,1.990325,58,58,11,89,89,107.6015,0,9999.99,2.36,2.487,2,9,29.3,0,29.29999924,44.02,1553.47366,6/9/21,10:41:09,29.24,65.16,44.02,1.234,8.42,-84.8,-3.4,-6.6,-2801,78.6,4.72,12.6,
25.91262751,-80.13778015,03:32.4,6/9/21,10,2.052,122.24,-7.091555872,0.91,123.9,116.08,0.82,3.65,29.8,0,3.05,3.05,90,40,493,16,-2.5,D,807.4,2,9.442,2,2.04,176,109.22,-80.137691,25.91259955,0,0,1,N,1.952243,62,62,11,92,92,107.4163,0,9999.99,3.05,3.177,2,9,29.2,0,29.20000076,44,1553.24838,6/9/21,10:41:10,29.23,65.13,44,1.272,8.4,-83.4,-4.5,-1.1,-3353,78.6,4.72,12.7,
25.9126225,-80.13777069,03:33.4,6/9/21,10,2.062,120.6,-7.091555872,0.91,122.5,114.79,0.51,2.4,29.7,0.01,3.05,3.05,90,40,493,16,-2.5,D,807.4,2,8.369,2,1.98,176,107.75,-80.137691,25.91259955,0,0,1,N,1.946652,60,60,11,98,98,107.4839,0,9999.99,3.05,3.177,2,9,29.3,0,29.29999924,44.03,1553.48454,6/9/21,10:41:11,29.22,65.16,44.03,1.223,8.39,-83.1,-4.3,-3.6,-1960,78.6,4.72,12.6,
25.91261767,-80.1377608,03:34.4,6/9/21,9,2.074,120.09,-7.091555872,1.06,121.9,114.23,0.27,3.55,29.8,0.01,3.16,3.17,90,40,493,16,-2.5,D,807.4,2,7.266,2,2.05,176,106.1,-80.137691,25.91259955,0,0,1,N,1.895026,58,58,11,100,100,107.8538,0,9999.99,3.17,3.297,2,9,29.3,0,29.29999924,43.96,1553.41111,6/9/21,10:41:12,29.21,65.07,43.96,1.282,8.38,-82.7,-5.3,-2.6,-2679,78.7,4.73,12.4,
25.91261308,-80.13775109,03:35.4,6/9/21,9,2.088,117.82,-7.091555872,1.06,120.3,112.75,0.83,3.31,29.9,0,3.19,3.19,90,40,493,16,-2.5,D,810.9,2,6.196,2,2.07,176,104.06,-80.137691,25.91259955,0,0,1,N,1.818008,62,62,11,109,109,108.3398,0,9999.99,3.19,3.317,2,9,29.3,0,29.29999924,43.95,1553.40014,6/9/21,10:41:13,29.18,65.06,43.95,1.259,8.39,-83.3,-5.4,-0.7,-2084,78.7,4.73,12.7,
25.91260841,-80.13774144,03:36.4,6/9/21,10,2.074,118.11,-7.091555872,1.06,119.3,111.83,0.17,3.2,29.8,0,3.26,3.27,90,40,493,16,-2.5,D,810.9,2,5.14,2,2.07,176,101.06,-80.137691,25.91259955,0,0,1,N,1.738449,58,58,11,115,115,108.7695,0,9999.99,3.27,3.397,2,9,29.3,0,29.29999924,43.95,1553.40036,6/9/21,10:41:14,29.14,65.06,43.95,1.247,8.39,-83.3,-4.6,-4.5,-4272,78.6,4.73,12.7,
25.9126045,-80.1377325,03:37.4,6/9/21,10,2.102,116.59,-7.091555872,1.06,118.2,110.81,0.33,1.81,29.8,0,3.31,3.31,90,40,493,16,-2.5,D,810.9,3,14.138,2,2.07,176,64.75,-80.13760406,25.91265912,0,0,1,N,3.064715,59,59,11,5,5,69.62267,0,9999.99,3.31,3.437,2,9,29.3,0,29.29999924,43.88,1553.32688,6/9/21,10:41:15,29.09,64.97,43.88,1.252,8.4,-83.4,-5.2,-5.8,470,78.6,4.74,12.7,
25.91259983,-80.13772267,03:38.4,6/9/21,10,2.079,117.04,-7.091555872,1.06,111.3,104.43,0.86,2.53,29.8,0,3.35,3.35,90,40,493,16,-2.5,D,810.9,3,13.465,2,2.08,176,61.54,-80.13760406,25.91265912,0,0,1,N,2.174467,60,60,11,5,5,65.37505,0,9999.99,3.35,3.477,2,9,29.3,0,29.29999924,43.95,1553.40026,6/9/21,10:41:16,29.01,65.04,43.95,1.269,8.38,-82.6,-4.2,-2.7,-2502,78.7,4.74,12.5,
25.91259649,-80.13771169,03:39.4,6/9/21,10,1.893,112.23,-7.091555872,0.91,104.4,98.03,1.88,2.32,29.9,0,3.36,3.36,90,42,493,16,-2.6,D,772.6,3,12.821,2,2.08,176,57.1,-80.13760406,25.91265912,0,0,1,N,1.194983,68,68,11,5,5,58.7111,0,9999.99,3.37,3.497,2,9,29.3,0,29.29999924,44.04,1553.49481,6/9/21,10:41:17,28.98,65.16,44.04,1.235,8.38,-82.4,-4.2,-1.8,-868,78.6,4.74,12.6,
25.91259468,-80.13769987,03:40.4,6/9/21,10,1.855,108.02,-7.091555872,1.06,95.3,89.54,2.56,1,29.8,0,3.39,3.4,90,42,493,16,-2.6,D,772.6,3,11.966,2,2.02,176,53.21,-80.13760406,25.91265912,0,0,1,N,0.3575349,72,72,11,5,5,53.8386,0,9999.99,3.41,3.537,2,9,29.3,0,29.29999924,44.09,1553.54738,6/9/21,10:41:18,29,65.23,44.09,1.217,8.38,-82.6,-4.7,-4.6,-3202,78.6,4.74,12.6,
25.91259469,-80.13768827,03:41.4,6/9/21,10,1.809,101.73,-7.091555872,1.06,86,80.78,2.96,6.06,29.8,0.02,3.43,3.44,90,42,493,16,-2.6,D,772.6,3,11.057,2,1.94,176,49.62,-80.13760406,25.91265912,0,0,1,N,0.3679224,75,75,11,5,5,49.03135,0,9999.99,3.45,3.577,2,9,29.3,0,29.29999924,44.1,1553.55794,6/9/21,10:41:19,29.05,65.25,44.1,1.211,8.38,-82.5,-3.5,0.1,1235,78.6,4.73,12.7,
25.91259649,-80.13767669,03:42.4,6/9/21,10,1.674,90.48,-7.091555872,1.06,73.7,69.02,3.19,2.57,29.8,0.01,3.45,3.47,90,42,493,16,-2.6,D,772.6,3,10.063,2,1.86,176,46.2,-80.13760406,25.91265912,0,0,1,N,0.9185994,76,76,11,24,24,44.91882,0,9999.99,3.48,3.607,2,9,29.3,0,29.29999924,44.06,1553.51695,6/9/21,10:41:20,29.1,65.19,44.06,1.204,8.37,-82.1,-4.4,-2.3,-3406,78.6,4.73,12.5,
25.91259877,-80.13766729,03:43.4,6/9/21,10,1.654,80.69,-7.091555872,1.06,64.6,60.18,2.43,4.74,29.8,0.01,3.47,3.48,90,40,492.9,16,-2.5,D,814.3,3,9.221,2,1.79,176,43.3,-80.13760406,25.91265912,0,0,1,N,1.306554,73,73,11,47,47,42.21772,0,9999.99,3.5,3.627,2,9,29.3,0,29.29999924,44.03,1553.4848,6/9/21,10:41:21,29.14,65.16,44.03,1.192,8.39,-83,-4.4,-4,-7114,78.5,4.72,12.6,
25.91260241,-80.13765911,03:44.4,6/9/21,10,1.74,68.91,-7.091555872,1.06,57.9,53.6,2.79,5.94,29.8,0,3.49,3.49,90,40,492.9,16,-2.5,D,814.3,3,8.371,2,1.71,176,41.13,-80.13760406,25.91265912,0,0,1,N,1.566573,74,74,11,76,76,40.89627,0,9999.99,3.51,3.637,2,9,29.2,0,29.29999924,44,1553.45301,6/9/21,10:41:22,29.15,65.11,44,1.225,8.39,-83.2,-4.4,-7.2,-591,78.5,4.72,12.6,
25.9126072,-80.13765085,03:45.4,6/9/21,10,1.87,59.36,-7.091555872,0.91,52.4,48.14,1.89,6.53,29.8,0,3.49,3.49,90,40,492.9,16,-2.5,D,814.3,3,7.432,2,1.75,176,39.02,-80.13760406,25.91265912,0,0,1,N,1.636206,68,68,11,95,95,40.25407,0,9999.99,3.51,3.637,2,9,29.2,0,29.20000076,43.96,1553.20638,6/9/21,10:41:23,29.14,65.08,43.96,1.187,8.4,-83.5,-4.7,-3.4,-3196,78.5,4.73,12.7,
25.91261296,-80.13764343,03:46.4,6/9/21,10,1.903,51.23,-7.091555872,0.91,49.3,45.05,0.75,3.99,29.8,0,3.48,3.48,90,40,492.9,16,-2.5,D,815.2,3,6.469,2,1.81,176,37.49,-80.13760406,25.91265912,0,0,1,N,1.677995,61,61,11,102,102,40.65294,0,9999.99,3.49,3.617,2,9,29.2,0,29.20000076,44,1553.24818,6/9/21,10:41:24,29.13,65.12,44,1.194,8.37,-81.6,-4.4,-2.4,-1024,78.5,4.73,12.5,
25.91261867,-80.13763683,03:47.4,6/9/21,10,1.936,47.88,-7.091555872,0.91,49.1,44.85,1.1,1.68,29.8,0,3.46,3.46,90,40,492.9,16,-2.5,D,815.2,4,15.748,2,1.85,176,16.92,-80.13759088,25.91275442,0,0,1,N,1.592122,64,64,11,66,66,30.47653,0,9999.99,3.47,3.597,2,9,29.3,0,29.20000076,43.97,1553.21659,6/9/21,10:41:25,29.12,65.08,43.97,1.241,8.37,-82.1,-3.1,-4.4,-2211,78.5,4.73,12.8,
25.91262533,-80.1376295,03:48.4,6/9/21,10,1.91,44.87,-7.091555872,0.91,47.7,43.45,1.3,-4.78,29.8,0,3.45,3.45,90,40,492.9,16,-2.5,D,814.5,4,14.935,2,1.88,176,15.2,-80.13759088,25.91275442,0,0,1,N,2.179585,65,65,11,26,26,18.26642,0,9999.99,3.46,3.587,2,9,29.3,0,29.29999924,44,1553.45262,6/9/21,10:41:26,29.11,65.12,44,1.218,8.39,-82.9,-4.3,-4.1,-280,78.5,4.72,12.6,
25.912633,-80.13762183,03:49.4,6/9/21,10,2.05,42.54,-7.091555872,0.91,41.7,37.43,1.88,6.55,29.8,0,3.44,3.44,90,40,492.9,16,-2.5,D,814.5,4,13.994,2,1.92,176,13.26,-80.13759088,25.91275442,0,0,1,N,1.561129,67,67,11,34,34,15.70607,0,9999.99,3.45,3.577,2,9,29.3,0,29.29999924,43.97,1553.42121,6/9/21,10:41:27,29.09,65.08,43.97,1.237,8.39,-83,-5,-2.1,-3024,78.5,4.73,12.7,
25.912641,-80.13761517,03:50.4,6/9/21,10,1.879,37.89,-7.091555872,0.91,34,29.64,2.83,3.86,29.8,0.01,3.42,3.43,90,40,492.9,16,-2.5,D,814.5,4,12.943,2,1.94,176,11.34,-80.13759088,25.91275442,0,0,1,N,1.002903,71,71,11,57,57,13.1038,0,9999.99,3.44,3.567,2,9,29.3,0,29.29999924,43.99,1553.4425,6/9/21,10:41:28,29.09,65.1,43.99,1.196,8.4,-83.5,-3.9,-1.1,-2288,78.5,4.73,12.5,
25.91265069,-80.13761002,03:51.4,6/9/21,10,1.955,30.2,-7.091555872,0.91,26.9,22.42,2.69,4.67,29.8,0.01,3.37,3.38,90,39,492.9,16,-2.4,D,828.3,4,11.692,2,1.92,176,9.42,-80.13759088,25.91275442,0,0,1,N,0.5358536,73,73,11,78,78,10.23938,0,9999.99,3.4,3.527,2,9,29.3,0,29.29999924,43.97,1553.42163,6/9/21,10:41:29,29.07,65.08,43.97,1.207,8.38,-82.6,-4.7,-2.8,-252,78.5,4.73,12.7,
25.91266005,-80.13760671,03:52.4,6/9/21,11,1.922,21.02,-7.091555872,0.91,23.6,19.05,2.66,6.02,29.9,0,3.36,3.36,90,39,492.9,16,-2.4,D,828.3,4,10.612,2,1.94,176,8.58,-80.13759088,25.91275442,0,0,1,N,0.2534537,73,73,11,88,88,9.249993,0,9999.99,3.38,3.507,2,9,29.3,0,29.29999924,44,1553.4528,6/9/21,10:41:30,29.06,65.12,44,1.2,8.38,-82.4,-4.4,-2.7,-4475,78.5,4.73,12.5,
25.9126685,-80.13760483,03:53.4,6/9/21,11,1.855,16.36,-7.091555872,0.91,17.9,13.23,1.93,5.53,29.8,0,3.35,3.36,90,39,492.9,16,-2.4,D,828.3,4,9.684,2,1.94,176,7.76,-80.13759088,25.91275442,0,0,1,N,0.1268813,69,69,11,105,105,7.999506,0,9999.99,3.37,3.497,2,9,29.3,0,29.29999924,43.97,1553.42142,6/9/21,10:41:31,29.06,65.08,43.97,1.187,8.38,-82.7,-4.3,-7.6,-4978,78.5,4.73,12.6,
25.91267891,-80.13760288,03:54.4,6/9/21,11,1.959,12.67,-7.091555872,0.91,16.8,12.1,1.36,5.46,29.8,0,3.31,3.32,90,39,492.9,16,-2.4,D,828.3,4,8.482,2,1.91,176,8.14,-80.13759088,25.91275442,0,0,1,N,9.02E-02,65,65,11,112,112,8.295025,0,9999.99,3.33,3.457,2,9,29.3,0,29.29999924,44.05,1553.50547,6/9/21,10:41:32,29.07,65.18,44.05,1.204,8.38,-82.4,-2.8,-2.9,-2914,78.5,4.73,12.5,
25.91268776,-80.13760073,03:55.4,6/9/21,11,1.883,10.57,-7.091555872,0.91,16.2,11.49,1.38,2.81,29.8,0,3.27,3.27,90,39,492.8,16,-2.4,D,824.5,4,7.477,2,1.93,176,7.57,-80.13759088,25.91275442,0,0,1,N,7.08E-02,65,65,11,112,112,7.623815,0,9999.99,3.28,3.407,2,9,29.3,0,29.29999924,44.04,1553.49464,6/9/21,10:41:33,29.08,65.17,44.04,1.222,8.37,-82,-3.1,-2.8,-3672,78.6,4.73,12.7,
25.91269714,-80.13759958,03:56.4,6/9/21,11,2.179,6.69,-7.091555872,0.91,16.5,11.8,0.52,4.74,29.8,0,3.23,3.23,90,39,492.8,16,-2.4,D,824.5,4,6.429,2,1.97,176,7.78,-80.13759088,25.91275442,0,0,1,N,1.07E-02,60,60,11,111,111,7.728387,0,9999.99,3.24,3.367,2,9,29.2,0,29.20000076,44.09,1553.34271,6/9/21,10:41:34,29.12,65.24,44.09,1.228,8.39,-82.9,-4.2,-2.8,-579,78.7,4.73,12.6,
25.9127065,-80.13759909,03:57.4,6/9/21,12,1.907,6.58,-7.091555872,0.91,15.7,10.98,1.43,3.31,29.8,0,3.16,3.16,90,39,492.8,16,-2.4,D,824.5,4,5.392,2,2.01,176,8.76,-80.13759088,25.91275442,0,0,1,N,2.19E-02,66,66,11,116,116,8.29038,0,9999.99,3.17,3.297,2,9,29.2,0,29.20000076,44.06,1553.31125,6/9/21,10:41:35,29.16,65.2,44.06,1.266,8.39,-83.2,-3,-5.2,150,78.7,4.73,12.6,
25.91271693,-80.13759761,03:58.4,6/9/21,12,2.015,6.39,-7.091555872,0.91,16.5,11.8,0.86,4.27,29.8,0,3.08,3.08,90,39,492.8,16,-2.4,D,824.5,5,12.708,2,1.99,176,323.86,-80.13767255,25.91280922,0,0,1,N,3.861693,62,62,11,5,5,327.455,0,9999.99,3.09,3.217,2,9,29.2,0,29.20000076,44.05,1553.30079,6/9/21,10:41:36,29.19,65.18,44.05,1.223,8.4,-83.7,-3.8,-5.7,-2505,78.7,4.73,12.4,
25.91272482,-80.13759632,03:59.4,6/9/21,12,1.936,9.96,-7.091555872,1.02,12.5,7.7,0.98,-0.48,29.8,0,2.98,2.99,90,40,492.8,16,-2.5,D,819.2,5,12.091,2,2.01,176,320.91,-80.13767255,25.91280922,0,0,1,N,2.932211,63,63,11,5,5,324.0454,0,9999.99,2.99,3.117,2,9,29.3,0,29.29999924,44.03,1553.48443,6/9/21,10:41:37,29.22,65.17,44.03,1.23,8.39,-83.2,-4.7,1.4,-3401,78.7,4.73,12.7,
25.91273367,-80.13759699,04:00.4,6/9/21,12,1.897,3.13,-7.091555872,1.02,3.7,358.7,2.46,3.66,29.8,0,2.81,2.81,90,40,492.8,16,-2.5,D,819.2,5,11.3,2,1.98,176,318.03,-80.13767255,25.91280922,0,0,1,N,2.248879,70,70,11,5,5,320.9089,0,9999.99,2.82,2.947,2,9,29.3,0,29.29999924,44.02,1553.47388,6/9/21,10:41:38,29.24,65.15,44.02,1.236,8.39,-83.1,-4.4,-2.2,-1188,78.7,4.73,12.6,
25.9127428,-80.1375972,04:01.4,6/9/21,12,1.89,0.35,-7.091555872,0.85,354.1,348.88,3.11,1.16,29.8,0.01,2.62,2.62,90,40,492.8,16,-2.5,D,819.2,5,10.551,2,1.94,176,314.42,-80.13767255,25.91280922,0,0,1,N,1.555154,76,76,11,5,5,317.6833,0,9999.99,2.64,2.767,2,9,29.3,0,29.29999924,44.02,1553.47387,6/9/21,10:41:39,29.25,65.15,44.02,1.195,8.4,-83.5,-4.1,-4.8,-2150,78.7,4.73,12.7,
25.91275214,-80.13759988,04:02.5,6/9/21,11,1.731,353.24,-7.091555872,1.05,341.9,336.45,3.21,1.65,29.8,0.01,2.38,2.39,90,39,492.8,16,-2.4,D,824.8,5,9.649,2,1.97,176,311.13,-80.13767255,25.91280922,0,0,1,N,0.8090714,76,76,11,31,31,312.4991,0,9999.99,2.41,2.537,2,9,29.3,0,29.29999924,44.02,1553.47444,6/9/21,10:41:40,29.26,65.16,44.02,1.188,8.39,-83.4,-3.6,-3.4,-2201,78.7,4.72,12.4,
25.91275935,-80.13760375,04:03.5,6/9/21,12,1.714,344.88,-7.091555872,1.05,331.4,325.79,3.68,5.25,29.8,0.01,2.26,2.27,90,39,492.8,16,-2.4,D,824.8,5,8.838,2,1.87,176,308.87,-80.13767255,25.91280922,0,0,1,N,0.368973,79,79,11,61,61,309.3632,0,9999.99,2.29,2.417,2,9,29.3,0,29.29999924,44.05,1553.50586,6/9/21,10:41:41,29.28,65.19,44.05,1.191,8.39,-83.3,-3.8,-6.4,-4225,78.7,4.73,12.6,
25.91276592,-80.13760977,04:04.5,6/9/21,12,1.695,333.89,-7.091555872,1.1,323.6,317.89,2.99,6.17,29.8,0.01,2.29,2.29,90,39,492.8,16,-2.4,D,824.8,5,7.913,2,1.79,177,307.48,-80.13767255,25.91280922,0,0,1,N,0.1291796,75,75,11,86,86,307.6478,0,9999.99,2.32,2.447,2,9,29.3,0,29.29999924,44.04,1553.49528,6/9/21,10:41:42,29.31,65.18,44.04,1.178,8.39,-82.9,-3.4,-0.5,-2780,78.7,4.72,12.6,
25.91277138,-80.13761717,04:05.5,6/9/21,11,1.835,322.56,-7.091555872,1.1,317.9,312.13,1.54,6.67,29.8,0,2.35,2.35,90,39,492.8,16,-2.4,D,824.8,5,6.956,2,1.78,177,307.22,-80.13767255,25.91280922,0,0,1,N,0.0153425,67,67,11,106,106,307.2541,0,9999.99,2.37,2.497,2,9,29.3,0,29.29999924,44.01,1553.46333,6/9/21,10:41:43,29.33,65.14,44.01,1.184,8.39,-82.8,-3.3,-1.6,-1165,78.8,4.73,12.6,
25.91277721,-80.13762488,04:06.5,6/9/21,12,1.896,317.3,-7.091555872,1.05,317,311.22,0.64,2.16,29.8,0,2.54,2.54,90,41,492.7,16,-2.5,D,802.1,5,5.95,2,1.84,177,306.74,-80.13767255,25.91280922,0,0,1,N,1.69E-02,60,60,11,109,109,306.8143,0,9999.99,2.55,2.677,2,9,29.3,0,29.29999924,44,1553.4526,6/9/21,10:41:44,29.33,65.13,44,1.227,8.4,-83.9,-3.7,-5.1,-1938,78.9,4.73,12.6,
25.91278427,-80.13763359,04:07.5,6/9/21,12,1.9,313.3,-7.091555872,1.05,316.2,310.41,1.16,3.26,29.8,0,2.61,2.61,90,41,492.7,16,-2.5,D,802.1,6,21.505,2,1.89,177,261.84,-80.13784643,25.9127568,0,0,1,N,3.960851,64,64,11,5,5,271.0363,0,9999.99,2.62,2.747,2,9,29.3,0,29.29999924,43.97,1553.42105,6/9/21,10:41:45,29.34,65.09,43.97,1.236,8.4,-83.9,-4,-3.9,-967,78.9,4.73,12.6,
25.91279049,-80.13764087,04:08.5,6/9/21,12,1.912,312.65,-7.091555872,1.05,311,305.15,0.66,1.71,29.8,0,2.8,2.8,90,41,492.7,16,-2.5,D,802.1,6,20.898,2,1.89,177,259.67,-80.13784643,25.9127568,0,0,1,N,3.069383,61,61,11,5,5,267.551,0,9999.99,2.81,2.937,2,9,29.3,0,29.29999924,43.94,1553.38956,6/9/21,10:41:46,29.34,65.06,43.94,1.236,8.41,-84.3,-2.7,-2.3,-2037,78.9,4.74,12.6,
25.91279531,-80.13764844,04:09.5,6/9/21,12,1.902,306.03,-7.091555872,0.85,298.9,292.91,2.45,2.52,29.8,0,2.89,2.89,90,43,492.7,16,-2.7,D,756.5,6,20.26,2,1.91,177,257.8,-80.13784643,25.9127568,0,0,1,N,2.333364,72,72,11,5,5,264.4306,0,9999.99,2.9,3.027,2,9,29.3,0,29.29999924,43.95,1553.40009,6/9/21,10:41:47,29.33,65.06,43.95,1.254,8.39,-83.3,-3.6,-6,-2164,79,4.74,12.6,
25.9127994,-80.13765719,04:10.5,6/9/21,11,1.766,302.77,-7.091555872,0.94,288.5,282.34,3.33,3.93,29.9,0.01,2.97,2.97,90,43,492.7,16,-2.7,D,756.5,6,19.511,2,1.89,177,255.95,-80.13784643,25.9127568,0,0,1,N,1.718419,77,77,11,42,42,261.1903,0,9999.99,2.99,3.117,2,9,29.3,0,29.29999924,43.89,1553.3374,6/9/21,10:41:48,29.32,64.99,43.89,1.192,8.39,-83.1,-3.1,-3.1,-1728,78.9,4.73,12.5,
25.91280073,-80.13766724,04:11.5,6/9/21,11,1.628,292.91,-7.091555872,1.06,277.8,271.39,3.24,6.81,29.8,0.01,3.01,3.02,90,43,492.7,16,-2.7,D,756.5,6,18.575,2,1.85,177,254.75,-80.13784643,25.9127568,0,0,1,N,1.099465,76,76,11,77,77,258.9832,0,9999.99,3.04,3.167,2,9,29.3,0,29.29999924,43.93,1553.37952,6/9/21,10:41:49,29.3,65.04,43.93,1.209,8.39,-83.3,-4,-3.7,-1741,78.9,4.74,12.6,
25.91280093,-80.13767736,04:12.5,6/9/21,12,1.709,279.85,-7.091555872,0.94,270.5,263.87,2.77,10.2,29.9,0.01,3.08,3.09,90,43,492.7,16,-2.7,D,756.5,6,17.607,2,1.85,177,253.82,-80.13784643,25.9127568,0,0,1,N,0.7453589,75,75,11,96,96,256.7935,0,9999.99,3.11,3.237,2,9,29.3,0,29.29999924,43.93,1553.37971,6/9/21,10:41:50,29.3,65.03,43.93,1.193,8.39,-83.1,-3.8,-2.4,-3252,78.9,4.74,12.5,
25.91280042,-80.13768651,04:13.5,6/9/21,11,1.775,270.01,-7.091555872,0.85,266.3,259.53,1.56,7.63,29.9,0,3.18,3.18,90,40,492.7,16,-2.5,D,806.1,6,16.714,2,1.86,178,253.13,-80.13784643,25.9127568,0,0,1,N,0.4992218,66,66,11,109,109,255.0411,0,9999.99,3.2,3.327,2,9,29.3,0,29.29999924,43.91,1553.35842,6/9/21,10:41:51,29.29,65.01,43.91,1.19,8.38,-82.5,-4.2,-3.2,-4365,79.1,4.75,12.7,
25.91279892,-80.13769537,04:14.5,6/9/21,12,1.903,264.19,-7.091555872,0.85,264.7,257.87,0.9,3.33,29.9,0,3.2,3.2,90,40,492.7,16,-2.5,D,806.1,6,15.818,2,1.86,178,252.78,-80.13784643,25.9127568,0,0,1,N,0.3707449,62,62,11,112,112,254.1238,0,9999.99,3.21,3.337,2,9,29.3,0,29.29999924,43.9,1553.34796,6/9/21,10:41:52,29.28,64.99,43.9,1.22,8.37,-81.9,-2.7,-1.4,-4287,79,4.75,12.6,
25.9127964,-80.13770539,04:15.5,6/9/21,11,1.969,258,-7.091555872,1.05,264.1,257.25,0.9,4.61,29.9,0,3.2,3.2,90,40,492.7,16,-2.5,D,806.1,6,14.777,2,1.88,178,252.66,-80.13784643,25.9127568,0,0,1,N,0.3178882,62,62,11,113,113,253.7459,0,9999.99,3.21,3.337,2,9,29.3,0,29.29999924,43.93,1553.37923,6/9/21,10:41:53,29.27,65.04,43.93,1.236,8.39,-83,-5.1,-4.6,480,79,4.75,12.6,
25.91279454,-80.13771486,04:16.5,6/9/21,11,1.972,256.64,-7.091555872,1.05,263.2,256.31,1.13,3.98,29.8,0,3.22,3.22,90,42,492.7,16,-2.6,D,782.4,6,13.812,2,1.92,178,252.31,-80.13784643,25.9127568,0,0,1,N,0.2501038,62,62,11,114,114,252.9736,0,9999.99,3.23,3.357,2,9,29.3,0,29.29999924,43.92,1553.36869,6/9/21,10:41:54,29.26,65.02,43.92,1.24,8.39,-83.3,-3.3,1.9,-4084,78.9,4.74,12.7,
25.91279287,-80.13772507,04:17.5,6/9/21,11,1.938,255.51,-7.091555872,1.05,263.5,256.62,0.67,3.29,29.8,0,3.24,3.24,90,42,492.7,16,-2.6,D,782.4,6,12.784,2,1.99,178,251.71,-80.13784643,25.9127568,0,0,1,N,0.148354,61,61,11,108,108,251.9181,0,9999.99,3.25,3.377,2,9,29.3,0,29.29999924,43.91,1553.35814,6/9/21,10:41:55,29.27,65.02,43.91,1.242,8.38,-82.6,-3.6,-2.3,-2667,78.8,4.73,12.5,
25.91279108,-80.13773528,04:18.5,6/9/21,11,2.128,256.19,-7.091555872,1.05,263.8,256.94,0.5,4.08,29.8,0,3.28,3.29,90,41,492.6,16,-2.6,D,786.2,6,11.752,2,2.05,178,251.08,-80.13784643,25.9127568,0,0,1,N,2.39E-03,60,60,11,103,103,250.9502,0,9999.99,3.29,3.417,2,9,29.3,0,29.29999924,43.92,1553.36857,6/9/21,10:41:56,29.27,65.02,43.92,1.246,8.38,-82.4,-3.2,-4.5,-668,78.8,4.73,12.4,
25.91278758,-80.13774676,04:19.5,6/9/21,11,2.043,256.5,-7.091555872,1.05,264,257.14,0.82,2.76,29.9,0,3.33,3.33,90,41,492.6,16,-2.6,D,786.2,6,10.54,2,2.08,178,251.05,-80.13784643,25.9127568,0,0,1,N,6.69E-02,62,62,11,102,102,250.9915,0,9999.99,3.33,3.457,2,9,29.3,0,29.29999924,43.89,1553.33732,6/9/21,10:41:57,29.26,64.98,43.89,1.265,8.38,-82.5,-3.7,1.7,-2489,78.7,4.73,12.6,
25.91278589,-80.1377576,04:20.5,6/9/21,11,1.886,257.46,-7.091555872,0.85,263.2,256.31,0.65,6.87,29.9,0,3.38,3.38,90,41,492.6,16,-2.6,D,786.2,6,9.456,2,2.09,178,250,-80.13784643,25.9127568,0,0,1,N,0.234348,61,61,11,102,102,249.7926,0,9999.99,3.39,3.517,2,9,29.3,0,29.29999924,43.92,1553.36855,6/9/21,10:41:58,29.24,65.03,43.92,1.239,8.38,-82.5,-3.7,-1.2,-3818,78.6,4.72,12.6,
25.91278282,-80.13776728,04:21.5,6/9/21,11,1.974,255.36,-7.091555872,0.85,263.4,256.52,1.29,3.93,29.8,0,3.43,3.43,90,41,492.6,16,-2.6,D,786.2,6,8.428,2,2.1,178,249.92,-80.13784643,25.9127568,0,0,1,N,0.2185036,65,65,11,103,103,249.906,0,9999.99,3.43,3.557,2,9,29.3,0,29.29999924,43.93,1553.37913,6/9/21,10:41:59,29.25,65.04,43.93,1.269,8.37,-81.9,-4.1,-2.8,-2332,78.4,4.71,12.7,
25.91278037,-80.1377763,04:22.5,6/9/21,11,2.128,255.82,-7.091555872,0.85,260.9,253.92,0.86,4.41,29.8,0,3.46,3.47,90,42,492.6,16,-2.6,D,778.4,6,7.489,2,2.08,178,249.51,-80.13784643,25.9127568,0,0,1,N,0.2879256,62,62,11,110,110,249.6719,0,9999.99,3.47,3.597,2,9,29.3,0,29.29999924,43.92,1553.36879,6/9/21,10:42:00,29.27,65.03,43.92,1.237,8.36,-81.3,-3.8,0.8,-1866,78.4,4.71,12.5,
25.91277739,-80.13778822,04:23.5,6/9/21,11,2.173,256.28,-7.091555872,0.85,259.1,252.05,0.86,4.97,29.9,0,3.47,3.48,90,42,492.6,16,-2.6,D,778.4,6,6.256,2,2.1,178,248.54,-80.13784643,25.9127568,0,0,1,N,0.3210687,62,62,11,115,115,249.1723,0,9999.99,3.48,3.607,2,9,29.3,0,29.29999924,43.96,1553.41087,6/9/21,10:42:01,29.28,65.07,43.96,1.266,8.38,-82.6,-2.8,-0.5,-902,78.2,4.7,12.6,
25.91277396,-80.13779871,04:24.5,6/9/21,11,2.102,255.01,-7.091555872,0.85,258,250.9,1.01,5.75,29.8,0.01,3.38,3.39,90,42,492.6,16,-2.6,D,778.4,6,5.141,2,2.12,178,248.2,-80.13784643,25.9127568,0,0,1,N,0.2978843,63,63,11,121,121,249.3381,0,9999.99,3.39,3.517,2,9,29.3,0,29.29999924,43.93,1553.37947,6/9/21,10:42:02,29.29,65.03,43.93,1.247,8.39,-83.1,-4.4,1.3,47,78.1,4.69,12.6,
25.91277158,-80.13780762,04:25.5,6/9/21,10,1.974,253.88,-7.091555872,0.91,256.9,249.75,-0.54,-0.26,29.8,0,3.29,3.29,90,41,492.6,16,-2.5,D,795,7,4.216,2,2.14,128,247.05,-80.13784643,25.9127568,0,0,6,N,0.2978843,54,54,11,121,121,248.0499,0,9999.99,3.3,3.427,2,9,29.3,0,29.29999924,43.94,1553.38984,6/9/21,10:42:03,29.3,65.06,43.94,1.244,8.38,-82.7,-3.2,-3.8,-1893,78,4.68,12.6,
25.91276943,-80.13781676,04:26.5,6/9/21,10,1.675,255.88,-7.091555872,0.91,256.8,249.65,1.3,0.52,29.8,0,3.28,3.29,90,41,492.6,16,-2.5,D,795,7,3.283,2,2.09,128,244.67,-80.13784643,25.9127568,0,0,6,N,0.2978843,65,65,11,116,116,246.8056,0,9999.99,3.28,3.407,2,9,29.3,0,29.29999924,43.98,1553.43174,6/9/21,10:42:04,29.31,65.1,43.98,1.237,8.38,-82.4,-3,-1.7,-1734,77.9,4.67,12.5,
25.91276813,-80.13782532,04:27.5,6/9/21,11,1.298,258.34,-7.091555872,0.91,257.6,250.48,2.4,-3.16,29.8,0.01,3.05,3.06,90,41,492.6,16,-2.5,D,795,7,2.459,2,1.91,128,239.16,-80.13784643,25.9127568,0,0,6,N,0.2978843,70,70,11,83,83,239.5574,0,9999.99,3.06,3.187,2,9,29.3,0,29.29999924,43.97,1553.42179,6/9/21,10:42:05,29.33,65.09,43.97,1.195,8.38,-82.7,-3.4,-0.8,-2413,77.8,4.67,12.6,
25.91276739,-80.13783092,04:28.5,6/9/21,10,1.131,260.13,-7.091555872,1.06,256.7,249.55,1.7,-1.51,29.8,0.01,2.93,2.94,90,41,492.6,16,-2.5,D,795,7,1.948,2,1.68,128,232.78,-80.13784643,25.9127568,0,0,6,N,0.2978843,67,67,11,63,63,233.5192,0,9999.99,2.95,3.077,2,9,29.3,0,29.29999924,43.94,1553.39069,6/9/21,10:42:06,29.34,65.06,43.94,1.203,8.38,-82.7,-4.4,-5.1,-1439,77.6,4.66,12.6,
25.91276627,-80.13783686,04:29.5,6/9/21,11,0.997,258.29,-7.091555872,1.06,255,247.77,1.3,-2.63,29.8,0.01,2.78,2.79,90,22,492.5,16,-1.3,D,1466.4,7,1.427,2,1.47,128,222.27,-80.13784643,25.9127568,0,0,6,N,0.2978843,65,65,11,30,30,223.6344,0,9999.99,2.8,2.927,2,9,29.3,0,29.29999924,43.96,1553.41173,6/9/21,10:42:07,29.34,65.08,43.96,1.215,8.38,-82.3,-2.5,-3.5,-1011,77.5,4.65,12.8,
25.91276508,-80.1378423,04:30.5,6/9/21,12,0.993,255.17,-7.091555872,0.91,251.7,244.32,1.48,-3.75,29.8,0,2.67,2.68,90,22,492.5,16,-1.3,D,1466.4,7,1.009,2,1.29,128,204.17,-80.13784643,25.9127568,0,0,6,N,0.2978843,66,66,11,5,5,206.6407,0,9999.99,2.68,2.807,2,9,29.3,0,29.29999924,43.94,1553.39001,6/9/21,10:42:08,29.34,65.05,43.94,1.162,8.36,-81.4,-3.3,-2,-2832,77.5,4.65,12.5,
25.91276391,-80.13784727,04:31.5,6/9/21,11,0.911,255.72,-7.091555872,0.91,247.8,240.23,1.48,-3.05,29.8,0,2.64,2.64,90,22,492.5,16,-1.3,D,1466.4,7,0.794,2,1.14,128,173.94,-80.13784643,25.9127568,0,0,6,N,0.2978843,66,66,11,5,5,178.017,0,9999.99,2.65,2.777,2,9,29.3,0,29.29999924,43.95,1553.40021,6/9/21,10:42:10,29.33,65.06,43.95,1.185,8.4,-83.4,-2.2,-3.9,-1224,77.4,4.64,12.6,
25.91276241,-80.13785143,04:32.5,6/9/21,12,0.745,252.21,-7.091555872,0.91,242.9,235.09,1.48,-2.8,29.9,0.01,2.6,2.6,90,21,492.5,16,-1.3,D,1515.2,7,0.8,2,1.01,128,141.27,-80.13784643,25.9127568,0,0,6,N,0.2978843,66,66,11,5,5,145.3393,0,9999.99,2.61,2.737,2,9,29.3,0,29.29999924,43.95,1553.40021,6/9/21,10:42:10,29.33,65.06,43.95,1.185,8.4,-83.4,-2.2,-3.9,-1224,77.4,4.64,12.6,
25.91276078,-80.13785518,04:33.6,6/9/21,12,0.653,249.88,-7.091555872,0.92,237,228.88,1.69,-0.57,29.9,0.01,2.54,2.54,90,21,492.5,16,-1.3,D,1515.2,7,0.982,2,0.91,128,116.84,-80.13784643,25.9127568,0,0,6,N,0.2978843,67,67,11,5,5,119.684,0,9999.99,2.55,2.677,2,9,29.3,0,29.29999924,43.95,1553.40078,6/9/21,10:42:11,29.32,65.07,43.95,1.193,8.4,-83.8,-3.5,-0.9,-943,77.3,4.64,12.6,
25.91275914,-80.13785873,04:34.6,6/9/21,11,0.74,250.14,-7.091555872,0.92,234.2,225.93,1.01,-2.09,29.8,0.01,2.37,2.37,90,21,492.5,16,-1.3,D,1515.2,7,1.256,2,0.81,128,101.96,-80.13784643,25.9127568,0,0,6,N,0.2978843,63,63,11,5,5,103.9158,0,9999.99,2.38,2.507,2,9,29.4,0,29.39999962,43.96,1553.61504,6/9/21,10:42:13,29.29,65.07,43.96,1.236,8.39,-83.2,-3.4,-5.2,925,77.3,4.64,12.6,
25.91275853,-80.13786136,04:35.6,6/9/21,10,0.545,250.14,-7.091555872,0.92,229.8,221.29,0.92,-2.61,29.8,0,2.32,2.32,90,21,492.5,16,-1.3,D,1515.2,7,1.507,2,0.73,128,97.34,-80.13784643,25.9127568,0,0,6,N,0.2978843,63,63,11,5,5,98.63198,0,9999.99,2.33,2.457,2,9,29.4,0,29.39999962,43.96,1553.61504,6/9/21,10:42:13,29.29,65.07,43.96,1.236,8.39,-83.2,-3.4,-5.2,925,77.3,4.64,12.6,
25.91275773,-80.13786353,04:36.6,6/9/21,10,0.541,250.14,-7.091555872,0.92,226.4,217.71,1.59,-3.44,29.9,0.01,2.32,2.33,90,22,492.5,16,-1.3,D,1495.2,7,1.714,2,0.65,128,93.46,-80.13784643,25.9127568,0,0,6,N,0.2978843,67,67,11,5,5,94.46913,0,9999.99,2.33,2.457,2,9,29.4,0,29.39999962,43.96,1553.61485,6/9/21,10:42:14,29.28,65.07,43.96,1.175,8.39,-83.3,-3.6,-5.7,-1941,77.2,4.64,12.5,
25.91275662,-80.13786525,04:37.6,6/9/21,10,0.377,250.14,-7.091555872,0.92,221.9,212.97,1.22,-2.49,29.9,0,2.47,2.47,90,22,492.5,16,-1.3,D,1495.2,7,1.884,2,0.58,128,89.39,-80.13784643,25.9127568,0,0,6,N,0.2978843,65,65,11,5,5,90.19643,0,9999.99,2.48,2.607,2,9,29.4,0,29.39999962,43.95,1553.60412,6/9/21,10:42:16,29.25,65.07,43.95,1.187,8.39,-83,-4.3,-4.6,501,77.2,4.64,12.6,
25.91275547,-80.13786747,04:38.6,6/9/21,11,0.56,250.14,-7.091555872,0.92,219,209.92,1.36,-2.02,29.9,0.01,2.53,2.54,90,22,492.5,16,-1.3,D,1495.2,7,2.11,2,0.54,128,85.97,-80.13784643,25.9127568,0,0,6,N,0.2978843,65,65,11,5,5,86.64198,0,9999.99,2.54,2.667,2,9,29.4,0,29.39999962,43.95,1553.60412,6/9/21,10:42:16,29.25,65.07,43.95,1.187,8.39,-83,-4.3,-4.6,501,77.2,4.64,12.6,
25.91275384,-80.13786893,04:39.6,6/9/21,11,0.499,250.14,-7.091555872,0.92,216.8,207.61,1.28,-4.69,29.8,0,2.58,2.58,90,21,492.5,16,-1.3,D,1499.6,7,2.275,2,0.48,128,81.67,-80.13784643,25.9127568,0,0,6,N,0.2978843,65,65,11,5,5,82.28638,0,9999.99,2.59,2.717,2,9,29.4,0,29.39999962,43.95,1553.60439,6/9/21,10:42:17,29.24,65.06,43.95,1.188,8.38,-82.6,-3.3,-5.2,-2644,77.3,4.64,12.5,
25.91275257,-80.13787018,04:40.6,6/9/21,11,0.307,250.14,-7.091555872,0.92,212.1,202.68,1.02,-3.45,29.9,0,2.62,2.62,90,21,492.5,16,-1.3,D,1499.6,7,2.422,2,0.44,128,78.8,-80.13784643,25.9127568,0,0,6,N,0.2978843,63,63,11,5,5,79.27188,0,9999.99,2.63,2.757,2,9,29.4,0,29.39999962,43.94,1553.59369,6/9/21,10:42:19,29.22,65.05,43.94,1.178,8.37,-82.1,-3.2,-4.5,-4353,77.3,4.65,12.8,
25.91275175,-80.13787194,04:41.6,6/9/21,11,0.401,250.14,-7.091555872,0.92,209.4,199.86,1.13,-3.2,29.9,0,2.64,2.65,90,21,492.5,16,-1.3,D,1499.6,7,2.614,2,0.41,128,77.6,-80.13784643,25.9127568,0,0,6,N,0.2978843,64,64,11,5,5,78.02148,0,9999.99,2.65,2.777,2,9,29.4,0,29.39999962,43.94,1553.59369,6/9/21,10:42:19,29.22,65.05,43.94,1.178,8.37,-82.1,-3.2,-4.5,-4353,77.3,4.65,12.8,
25.91275061,-80.13787372,04:42.6,6/9/21,11,0.363,250.14,-7.091555872,0.92,206.6,196.94,1.13,-3.7,29.8,0,2.64,2.64,90,21,492.5,16,-1.3,D,1499.6,7,2.815,2,0.39,128,75.84,-80.13784643,25.9127568,0,0,6,N,0.2978843,64,64,11,5,5,76.21664,0,9999.99,2.65,2.777,2,9,29.4,0,29.39999962,43.94,1553.59387,6/9/21,10:42:20,29.21,65.05,43.94,1.169,8.39,-83.3,-2.3,-5.2,-3966,77.4,4.65,12.5,
25.91274964,-80.13787499,04:43.6,6/9/21,11,0.33,250.14,-7.091555872,0.92,203.5,193.72,1.25,-2.9,29.8,0,2.62,2.62,90,22,492.4,16,-1.3,D,1497.3,7,2.966,2,0.36,128,74.42,-80.13784643,25.9127568,0,0,6,N,0.2978843,65,65,11,5,5,74.76226,0,9999.99,2.63,2.757,2,9,29.4,0,29.39999962,43.95,1553.60433,6/9/21,10:42:22,29.2,65.06,43.95,1.179,8.38,-82.6,-3.2,-2.5,-2757,77.4,4.65,12.5,
25.91274864,-80.13787563,04:44.6,6/9/21,11,0.203,250.14,-7.091555872,0.92,201.1,191.23,1.18,-2.29,29.8,0,2.6,2.6,90,22,492.4,16,-1.3,D,1497.3,7,3.059,2,0.34,128,72.75,-80.13784643,25.9127568,0,0,6,N,0.2978843,64,64,11,5,5,73.06071,0,9999.99,2.61,2.737,2,9,29.3,0,29.39999962,43.95,1553.60433,6/9/21,10:42:22,29.2,65.06,43.95,1.179,8.38,-82.6,-3.2,-2.5,-2757,77.4,4.65,12.5,
25.9127477,-80.13787626,04:45.6,6/9/21,11,0.267,250.14,-7.091555872,0.92,198.9,188.96,1.32,-2.8,29.9,0.01,2.59,2.6,90,22,492.4,16,-1.3,D,1497.3,7,3.152,2,0.31,128,71.26,-80.13784643,25.9127568,0,0,6,N,0.2978843,65,65,11,5,5,71.54404,0,9999.99,2.6,2.727,2,9,29.3,0,29.29999924,43.96,1553.41104,6/9/21,10:42:23,29.2,65.07,43.96,1.178,8.38,-82.5,-3.5,-3.6,-2806,77.3,4.65,12.6,
25.91274655,-80.13787723,04:46.6,6/9/21,11,0.234,250.14,-7.091555872,0.92,196.9,186.9,1.25,-1.98,29.9,0,2.54,2.54,90,21,492.4,16,-1.3,D,1510.5,7,3.286,2,0.3,128,69.7,-80.13784643,25.9127568,0,0,6,N,0.2978843,65,65,11,5,5,69.96224,0,9999.99,2.55,2.677,2,9,29.4,0,29.39999962,43.95,1553.60427,6/9/21,10:42:25,29.2,65.06,43.95,1.19,8.39,-83.2,-3.1,1.4,-4858,77.3,4.65,12.7,
25.91274558,-80.13787806,04:47.6,6/9/21,11,0.158,250.14,-7.091555872,0.92,195.4,185.36,1.05,-3.04,29.9,0,2.53,2.53,90,21,492.4,16,-1.3,D,1510.5,7,3.402,2,0.28,128,68.48,-80.13784643,25.9127568,0,0,6,N,0.2978843,64,64,11,5,5,68.71105,0,9999.99,2.54,2.667,2,9,29.3,0,29.39999962,43.95,1553.60427,6/9/21,10:42:25,29.2,65.06,43.95,1.19,8.39,-83.2,-3.1,1.4,-4858,77.3,4.65,12.7,
25.9127446,-80.13787874,04:48.6,6/9/21,11,0.24,250.14,-7.091555872,0.92,194.2,184.13,0.93,-4.73,29.9,0,2.51,2.52,90,21,492.4,16,-1.3,D,1510.5,7,3.505,2,0.27,128,67.23,-80.13784643,25.9127568,0,0,6,N,0.2978843,63,63,11,5,5,67.43362,0,9999.99,2.52,2.647,2,9,29.3,0,29.29999924,43.95,1553.40047,6/9/21,10:42:26,29.2,65.05,43.95,1.192,8.39,-83.2,-3.7,0.7,-2356,77.3,4.65,12.7,
25.91274327,-80.13787972,04:49.6,6/9/21,11,0.311,250.14,-7.091555872,0.92,192.5,182.39,1.34,-3.44,29.9,0.01,2.46,2.46,90,21,492.4,16,-1.3,D,1510.5,7,3.655,2,0.25,128,65.68,-80.13784643,25.9127568,0,0,6,N,0.2978843,65,65,11,5,5,65.87178,0,9999.99,2.47,2.597,2,9,29.3,0,29.29999924,43.95,1553.4005,6/9/21,10:42:28,29.19,65.05,43.95,1.162,8.39,-83.3,-3.5,-2.6,-2036,77.3,4.65,12.4,
25.91274214,-80.13788087,04:50.6,6/9/21,11,0.233,250.14,-7.091555872,0.92,190.1,179.94,0.95,-3.09,29.8,0,2.41,2.41,90,21,492.4,16,-1.3,D,1525,7,3.812,2,0.24,128,64.67,-80.13784643,25.9127568,0,0,6,N,0.2978843,63,63,11,5,5,64.84599,0,9999.99,2.42,2.547,2,9,29.3,0,29.29999924,43.95,1553.4005,6/9/21,10:42:28,29.19,65.05,43.95,1.162,8.39,-83.3,-3.5,-2.6,-2036,77.3,4.65,12.4,
25.91274116,-80.13788135,04:51.6,6/9/21,12,0.109,250.14,-7.091555872,0.92,189.7,179.53,1.04,-3.95,29.8,0,2.38,2.39,90,21,492.4,16,-1.3,D,1525,7,3.903,2,0.22,128,63.52,-80.13784643,25.9127568,0,0,6,N,0.2978843,64,64,11,5,5,63.6865,0,9999.99,2.39,2.517,2,9,29.3,0,29.29999924,43.94,1553.38975,6/9/21,10:42:29,29.18,65.05,43.94,1.192,8.39,-83.1,-3.9,1.7,-1458,77.3,4.65,12.6,
25.91274,-80.13788186,04:52.6,6/9/21,12,0.153,250.14,-7.091555872,0.92,187.5,177.29,1.27,-2.8,29.8,0,2.34,2.35,90,21,492.4,16,-1.3,D,1525,7,4.005,2,0.22,128,62.21,-80.13784643,25.9127568,0,0,6,N,0.2978843,65,65,11,5,5,62.35535,0,9999.99,2.35,2.477,2,9,29.3,0,29.29999924,43.94,1553.38994,6/9/21,10:42:31,29.18,65.04,43.94,1.175,8.41,-84,-3.5,-6.6,-3776,77.4,4.66,12.6,
25.91273886,-80.137882,04:53.6,6/9/21,12,0.235,250.14,-7.091555872,0.92,186.6,176.38,0.98,-3.7,29.9,0,2.34,2.34,90,21,492.4,16,-1.3,D,1525,7,4.08,2,0.2,128,60.71,-80.13784643,25.9127568,0,0,6,N,0.2978843,63,63,11,5,5,60.85444,0,9999.99,2.35,2.477,2,9,29.3,0,29.29999924,43.94,1553.38994,6/9/21,10:42:31,29.18,65.04,43.94,1.175,8.41,-84,-3.5,-6.6,-3776,77.4,4.66,12.6,
25.91273802,-80.1378825,04:54.6,6/9/21,12,0.124,250.14,-7.091555872,0.85,185.5,175.27,1.31,-3.06,29.8,0.01,2.31,2.32,90,21,492.3,16,-1.3,D,1527.2,7,4.17,2,0.2,128,59.93,-80.13784643,25.9127568,0,0,6,N,0.2978843,65,65,11,5,5,60.06446,0,9999.99,2.32,2.447,2,9,29.3,0,29.29999924,43.93,1553.37943,6/9/21,10:42:32,29.17,65.04,43.93,1.193,8.39,-83.3,-5,-3.8,346,77.4,4.66,12.5,
25.91273722,-80.137883,04:55.6,6/9/21,12,0.129,250.14,-7.091555872,0.85,184.6,174.36,1.22,-3.2,29.8,0.01,2.28,2.29,90,21,492.3,16,-1.3,D,1527.2,7,4.258,2,0.19,128,59.23,-80.13784643,25.9127568,0,0,6,N,0.2978843,64,64,11,5,5,59.35243,0,9999.99,2.29,2.417,2,9,29.3,0,29.29999924,43.94,1553.39022,6/9/21,10:42:34,29.17,65.05,43.94,1.213,8.41,-84.5,-3.4,-2.7,-2711,77.4,4.66,12.8,
25.91273607,-80.13788368,04:56.6,6/9/21,12,0.164,250.14,-7.091555872,0.85,183,172.74,0.97,-3.76,29.8,0,2.21,2.21,90,21,492.3,16,-1.3,D,1527.2,7,4.381,2,0.17,128,58.26,-80.13784643,25.9127568,0,0,6,N,0.2978843,63,63,11,5,5,58.36282,0,9999.99,2.22,2.347,2,9,29.3,0,29.29999924,43.94,1553.39022,6/9/21,10:42:34,29.17,65.05,43.94,1.213,8.41,-84.5,-3.4,-2.7,-2711,77.4,4.66,12.8,
25.91273483,-80.13788383,04:57.6,6/9/21,12,0.237,250.14,-7.091555872,0.85,182.7,172.44,1.24,-3.29,29.8,0,2.18,2.18,90,22,492.3,16,-1.3,D,1497.1,7,4.468,2,0.16,128,56.86,-80.13784643,25.9127568,0,0,6,N,0.2978843,64,64,11,5,5,56.95887,0,9999.99,2.19,2.317,2,9,29.3,0,29.29999924,43.94,1553.38972,6/9/21,10:42:35,29.17,65.05,43.94,1.184,8.39,-83.2,-3.4,-3.5,-1026,77.4,4.66,12.6,
25.91273384,-80.13788383,04:58.6,6/9/21,12,0.11,250.14,-7.091555872,0.85,180.3,170.03,1.36,-3.2,29.9,0,2.15,2.15,90,22,492.3,16,-1.3,D,1497.1,7,4.529,2,0.16,128,55.69,-80.13784643,25.9127568,0,0,6,N,0.2978843,65,65,11,5,5,55.78169,0,9999.99,2.16,2.287,2,9,29.3,0,29.29999924,43.94,1553.38965,6/9/21,10:42:37,29.16,65.04,43.94,1.205,8.42,-84.6,-3.7,-1.7,-2317,77.4,4.66,12.6,
25.91273217,-80.13788399,04:59.6,6/9/21,11,0.126,250.14,-7.091555872,0.92,179,168.73,1.14,-3.05,29.9,0.01,2.13,2.14,90,22,492.3,16,-1.3,D,1497.1,7,4.65,2,0.15,128,53.91,-80.13784643,25.9127568,0,0,6,N,0.2978843,64,64,11,5,5,53.99741,0,9999.99,2.14,2.267,2,9,29.3,0,29.29999924,43.94,1553.38965,6/9/21,10:42:37,29.16,65.04,43.94,1.205,8.42,-84.6,-3.7,-1.7,-2317,77.4,4.66,12.6,
25.91273089,-80.13788399,05:00.6,6/9/21,11,0.134,250.14,-7.091555872,0.92,178.7,168.43,0.91,-3.54,29.9,0.01,2.12,2.13,90,22,492.3,16,-1.3,D,1497.1,7,4.734,2,0.14,128,52.52,-80.13784643,25.9127568,0,0,6,N,0.2978843,62,62,11,5,5,52.5899,0,9999.99,2.13,2.257,2,9,29.3,0,29.29999924,43.94,1553.39053,6/9/21,10:42:38,29.16,65.05,43.94,1.181,8.4,-83.8,-2.9,-2.6,-3846,77.4,4.66,12.7,
25.91272963,-80.13788416,05:01.6,6/9/21,11,0.143,250.14,-7.091555872,0.92,177.4,167.13,1.44,-3.65,29.9,0,2.1,2.1,90,22,492.3,16,-1.3,D,1497,7,4.834,2,0.13,128,51.33,-80.13784643,25.9127568,0,0,6,N,0.2978843,66,66,11,5,5,51.39445,0,9999.99,2.11,2.237,2,9,29.3,0,29.29999924,43.94,1553.38975,6/9/21,10:42:40,29.16,65.04,43.94,1.193,8.39,-83.1,-4.3,-0.8,-1687,77.5,4.66,12.5,
25.91272882,-80.13788433,05:02.6,6/9/21,11,0.145,250.14,-7.091555872,0.92,175.8,165.54,1.14,-3.33,29.9,0,2.09,2.09,90,22,492.3,16,-1.3,D,1497,7,4.905,2,0.12,128,50.62,-80.13784643,25.9127568,0,0,6,N,0.2978843,64,64,11,5,5,50.68124,0,9999.99,2.1,2.227,2,9,29.3,0,29.29999924,43.94,1553.38975,6/9/21,10:42:40,29.16,65.04,43.94,1.193,8.39,-83.1,-4.3,-0.8,-1687,77.5,4.66,12.5,
25.91272816,-80.13788482,05:03.6,6/9/21,10,0.118,250.14,-7.091555872,0.92,174.7,164.45,1.15,-2.99,29.9,0,2.06,2.06,90,22,492.3,16,-1.3,D,1497,7,4.989,2,0.12,128,50.32,-80.13784643,25.9127568,0,0,6,N,0.2978843,64,64,11,5,5,50.38547,0,9999.99,2.07,2.197,2,9,29.3,0,29.29999924,43.94,1553.38982,6/9/21,10:42:41,29.16,65.04,43.94,1.172,8.4,-83.8,-2.9,9.2,-42,77.5,4.67,12.5,
25.91272716,-80.13788499,05:04.6,6/9/21,10,0.227,250.14,-7.091555872,0.92,174,163.75,1.16,-3.6,29.9,0,2.06,2.06,90,21,492.3,16,-1.3,D,1511.3,7,5.074,2,0.11,128,49.49,-80.13784643,25.9127568,0,0,6,N,0.2978843,64,64,11,5,5,49.5403,0,9999.99,2.07,2.197,2,9,29.3,0,29.29999924,43.95,1553.40031,6/9/21,10:42:43,29.15,65.06,43.95,1.193,8.39,-82.9,-3.8,-2.7,-3900,77.5,4.66,12.7,
25.91272601,-80.13788482,05:05.6,6/9/21,10,0.14,250.14,-7.091555872,0.92,172.8,162.57,1.11,-3.84,29.9,0,2.04,2.04,90,21,492.3,16,-1.3,D,1511.3,7,5.145,2,0.11,128,48.28,-80.13784643,25.9127568,0,0,6,N,0.2978843,64,64,11,5,5,48.32833,0,9999.99,2.05,2.177,2,9,29.3,0,29.29999924,43.95,1553.40031,6/9/21,10:42:43,29.15,65.06,43.95,1.193,8.39,-82.9,-3.8,-2.7,-3900,77.5,4.66,12.7,
25.91272551,-80.13788531,05:06.6,6/9/21,11,0.176,250.14,-7.091555872,0.92,171.7,161.48,1.2,-3.38,29.9,0,2.03,2.03,90,21,492.3,16,-1.3,D,1511.3,7,5.219,2,0.1,128,48.18,-80.13784643,25.9127568,0,0,6,N,0.2978843,65,65,11,5,5,48.23654,0,9999.99,2.04,2.167,2,9,29.3,0,29.29999924,43.94,1553.38967,6/9/21,10:42:44,29.15,65.05,43.94,1.195,8.41,-84.1,-4.1,-4.9,-4460,77.4,4.66,12.6,
25.91272486,-80.13788531,05:07.6,6/9/21,11,0.113,250.14,-7.091555872,0.92,170.5,160.3,0.76,-3.83,29.9,0,2.01,2.01,90,21,492.3,16,-1.3,D,1511.3,7,5.267,2,0.1,128,47.59,-80.13784643,25.9127568,0,0,6,N,0.2978843,62,62,11,5,5,47.63765,0,9999.99,2.02,2.147,2,9,29.3,0,29.29999924,43.95,1553.40041,6/9/21,10:42:46,29.16,65.06,43.95,1.2,8.39,-82.8,-5.5,-1.6,-4306,77.4,4.66,12.6,
25.91272403,-80.13788497,05:08.6,6/9/21,11,0.184,250.14,-7.091555872,0.92,169.8,159.61,1.29,-3.68,30,0.01,1.99,2,90,21,492.2,16,-1.3,D,1502.4,7,5.305,2,0.09,128,46.61,-80.13784643,25.9127568,0,0,6,N,0.2978843,65,65,11,5,5,46.6601,0,9999.99,2,2.127,2,9,29.3,0,29.29999924,43.95,1553.40041,6/9/21,10:42:46,29.16,65.06,43.95,1.2,8.39,-82.8,-5.5,-1.6,-4306,77.4,4.66,12.6,
25.91272336,-80.13788498,05:09.6,6/9/21,11,0.135,250.14,-7.091555872,0.92,169,158.82,1.42,-3.71,30,0,1.97,1.97,90,21,492.2,16,-1.3,D,1502.4,7,5.356,2,0.09,128,46.04,-80.13784643,25.9127568,0,0,6,N,0.2978843,66,66,11,5,5,46.08177,0,9999.99,1.98,2.107,2,9,29.3,0,29.29999924,43.95,1553.40036,6/9/21,10:42:47,29.16,65.05,43.95,1.173,8.41,-84,-2.9,-1,-2298,77.4,4.66,12.6,
25.91272288,-80.13788515,05:10.6,6/9/21,11,0.066,250.14,-7.091555872,0.85,167.5,157.35,0.57,-3.87,29.9,0,1.97,1.97,90,21,492.2,16,-1.3,D,1502.4,7,5.406,2,0.08,128,45.76,-80.13784643,25.9127568,0,0,6,N,0.2978843,60,60,11,5,5,45.79322,0,9999.99,1.98,2.107,2,9,29.3,0,29.29999924,43.95,1553.40032,6/9/21,10:42:49,29.16,65.05,43.95,1.226,8.39,-82.9,-4.2,-4.8,-1580,77.5,4.66,12.5,
25.91272238,-80.13788581,05:11.6,6/9/21,11,0.121,250.14,-7.091555872,0.85,167,156.86,1.54,-2.9,29.9,0.01,1.95,1.96,90,21,492.2,16,-1.3,D,1514.5,7,5.492,2,0.08,128,45.82,-80.13784643,25.9127568,0,0,6,N,0.2978843,66,66,11,5,5,45.86094,0,9999.99,1.96,2.087,2,9,29.3,0,29.29999924,43.95,1553.40032,6/9/21,10:42:49,29.16,65.05,43.95,1.226,8.39,-82.9,-4.2,-4.8,-1580,77.5,4.66,12.5,
25.91272172,-80.13788583,05:12.6,6/9/21,11,0.098,250.14,-7.091555872,0.85,166.4,156.28,1.24,-4.2,29.9,0.01,1.92,1.93,90,21,492.2,16,-1.3,D,1514.5,7,5.545,2,0.07,128,45.29,-80.13784643,25.9127568,0,0,6,N,0.2978843,65,65,11,5,5,45.32147,0,9999.99,1.93,2.057,2,9,29.3,0,29.29999924,43.95,1553.40094,6/9/21,10:42:50,29.16,65.05,43.95,1.184,8.4,-83.8,-3.3,-0.4,-1639,77.4,4.66,12.6,
25.91272072,-80.13788616,05:13.6,6/9/21,11,0.173,250.14,-7.091555872,0.92,165.8,155.69,0.64,-3.17,30,0,1.87,1.87,90,21,492.2,16,-1.3,D,1514.5,7,5.646,2,0.07,128,44.73,-80.13784643,25.9127568,0,0,6,N,0.2978843,61,61,11,5,5,44.75912,0,9999.99,1.88,2.007,2,9,29.3,0,29.29999924,43.96,1553.41092,6/9/21,10:42:52,29.16,65.07,43.96,1.221,8.39,-82.9,-3.1,-5.3,-3970,77.6,4.67,12.5,
25.9127199,-80.13788665,05:14.6,6/9/21,11,0.163,250.14,-7.091555872,0.92,165.1,155.01,1.42,-3.22,29.9,0.01,1.88,1.89,90,21,492.2,16,-1.3,D,1514.5,7,5.747,2,0.07,128,44.43,-80.13784643,25.9127568,0,0,6,N,0.2978843,66,66,11,5,5,44.46165,0,9999.99,1.89,2.017,2,9,29.3,0,29.29999924,43.95,1553.40064,6/9/21,10:42:53,29.16,65.06,43.95,1.221,8.4,-83.9,-3.9,-2.9,-3189,77.6,4.67,12.6,
25.91271957,-80.13788683,05:15.6,6/9/21,11,0.06,250.14,-7.091555872,0.92,165.1,155.01,1.42,-3.51,29.9,0,1.9,1.9,90,22,492.2,16,-1.3,D,1497.8,7,5.785,2,0.06,128,44.31,-80.13784643,25.9127568,0,0,6,N,0.2978843,66,66,11,5,5,44.33356,0,9999.99,1.91,2.037,2,9,29.3,0,29.29999924,43.95,1553.40064,6/9/21,10:42:53,29.16,65.06,43.95,1.221,8.4,-83.9,-3.9,-2.9,-3189,77.6,4.67,12.6,
25.91271924,-80.13788684,05:16.6,6/9/21,11,0.059,250.14,-7.091555872,0.92,164.6,154.52,0.58,-2.93,30,0,1.86,1.86,90,22,492.2,16,-1.3,D,1497.8,7,5.812,2,0.06,128,44.06,-80.13784643,25.9127568,0,0,6,N,0.2978843,60,60,11,5,5,44.08386,0,9999.99,1.87,1.997,2,9,29.3,0,29.29999924,43.96,1553.41079,6/9/21,10:42:54,29.16,65.07,43.96,1.172,8.39,-82.9,-5.1,-5.8,-2573,77.7,4.67,12.6,
25.91271874,-80.13788717,05:17.6,6/9/21,11,0.044,250.14,-7.091555872,0.85,164.2,154.13,1.79,-3.81,30,0,1.85,1.86,90,22,492.2,16,-1.3,D,1497.8,7,5.875,2,0.06,128,43.92,-80.13784643,25.9127568,0,0,6,N,0.2978843,68,68,11,5,5,43.9398,0,9999.99,1.86,1.987,2,9,29.3,0,29.29999924,43.95,1553.40039,6/9/21,10:42:56,29.17,65.05,43.95,1.183,8.4,-83.8,-3.5,-2.3,-1246,77.7,4.68,12.4,
25.91271859,-80.13788734,05:18.6,6/9/21,11,0.079,250.14,-7.091555872,0.85,163.6,153.55,0.79,-3.52,29.9,0,1.83,1.84,90,22,492.2,16,-1.3,D,1497.8,7,5.899,2,0.05,128,43.92,-80.13784643,25.9127568,0,0,6,N,0.2978843,64,64,11,5,5,43.93687,0,9999.99,1.85,1.977,2,9,29.3,0,29.29999924,43.95,1553.40039,6/9/21,10:42:56,29.17,65.05,43.95,1.183,8.4,-83.8,-3.5,-2.3,-1246,77.7,4.68,12.4,
25.91271842,-80.13788783,05:19.6,6/9/21,10,0.112,250.14,-7.091555872,0.9,162.8,152.77,0.8,-3.48,29.9,0.01,1.83,1.84,90,21,492.2,16,-1.3,D,1517.8,7,5.945,2,0.05,128,44.14,-80.13784643,25.9127568,0,0,6,N,0.2978843,62,62,11,5,5,44.15564,0,9999.99,1.84,1.967,2,9,29.3,0,29.29999924,43.96,1553.41108,6/9/21,10:42:57,29.16,65.07,43.96,1.23,8.39,-82.9,-4.7,-3.8,-3841,77.7,4.67,12.7,
25.9127176,-80.13788851,05:20.6,6/9/21,10,0.04,250.14,-7.091555872,0.9,162.3,152.29,1.75,-3.18,29.9,0.01,1.82,1.83,90,21,492.2,16,-1.3,D,1517.8,7,6.06,2,0.04,128,44,-80.13784643,25.9127568,0,0,6,N,0.2978843,67,67,11,5,5,44.01169,0,9999.99,1.83,1.957,2,9,29.3,0,29.29999924,43.96,1553.411,6/9/21,10:42:59,29.16,65.07,43.96,1.204,8.4,-83.7,-2.8,-0.4,-2051,77.7,4.67,12.8,
25.91271694,-80.13788901,05:21.6,6/9/21,10,0.198,250.14,-7.091555872,0.9,161.5,151.51,0.79,-3.55,29.8,0,1.79,1.8,90,21,492.2,16,-1.3,D,1517.8,7,6.147,2,0.04,128,43.86,-80.13784643,25.9127568,0,0,6,N,0.2978843,62,62,11,5,5,43.86988,0,9999.99,1.81,1.937,2,9,29.3,0,29.29999924,43.96,1553.411,6/9/21,10:42:59,29.16,65.07,43.96,1.204,8.4,-83.7,-2.8,-0.4,-2051,77.7,4.67,12.8,
25.91271695,-80.13788935,05:22.6,6/9/21,11,0.07,250.14,-7.091555872,0.93,160.8,150.83,1.26,-3.48,29.8,0,1.81,1.81,90,21,492.1,16,-1.3,D,1498.9,7,6.169,2,0.04,128,44.09,-80.13784643,25.9127568,0,0,6,N,0.2978843,65,65,11,5,5,44.09692,0,9999.99,1.82,1.947,2,9,29.3,0,29.29999924,43.95,1553.40033,6/9/21,10:43:00,29.17,65.05,43.95,1.184,8.38,-82.5,-4.9,-6.2,-1761,77.6,4.67,12.5,
25.9127173,-80.13788969,05:23.6,6/9/21,11,0.106,250.14,-7.091555872,0.9,160.6,150.64,1.43,-3.02,29.9,0,1.81,1.81,90,21,492.1,16,-1.3,D,1498.9,7,6.166,2,0.03,128,44.57,-80.13784643,25.9127568,0,0,6,N,0.2978843,66,66,11,5,5,44.5696,0,9999.99,1.82,1.947,2,9,29.3,0,29.29999924,43.95,1553.40014,6/9/21,10:43:02,29.16,65.05,43.95,1.222,8.41,-84.1,-4.7,0,-1966,77.6,4.67,12.6,
25.91271797,-80.13788986,05:24.6,6/9/21,9,0.108,250.14,-7.091555872,0.97,159.4,149.48,1.29,-3.56,29.9,0.01,1.79,1.79,90,21,492.1,16,-1.3,D,1498.9,7,6.125,2,0.03,128,45.18,-80.13784643,25.9127568,0,0,6,N,0.2978843,65,65,11,5,5,45.17565,0,9999.99,1.8,1.927,2,9,29.3,0,29.29999924,43.95,1553.40014,6/9/21,10:43:02,29.16,65.05,43.95,1.222,8.41,-84.1,-4.7,0,-1966,77.6,4.67,12.6,
25.91271814,-80.13789003,05:25.6,6/9/21,10,0.04,250.14,-7.091555872,0.97,159.3,149.38,1.21,-3.18,29.9,0,1.8,1.8,90,21,492.1,16,-1.3,D,1498.9,7,6.124,2,0.03,128,45.41,-80.13784643,25.9127568,0,0,6,N,0.2978843,64,64,11,5,5,45.41137,0,9999.99,1.81,1.937,2,9,29.3,0,29.29999924,43.94,1553.39004,6/9/21,10:43:03,29.16,65.04,43.94,1.196,8.38,-82.4,-4.3,-6,-2405,77.6,4.67,12.6,
25.91271765,-80.13789038,05:26.6,6/9/21,10,0.212,250.14,-7.091555872,0.92,158.2,148.32,1.11,-3.24,29.9,0,1.8,1.8,90,21,492.1,16,-1.3,D,1510.9,7,6.188,2,0.03,128,45.27,-80.13784643,25.9127568,0,0,6,N,0.2978843,64,64,11,5,5,45.26864,0,9999.99,1.81,1.937,2,9,29.3,0,29.29999924,43.95,1553.40036,6/9/21,10:43:05,29.16,65.06,43.95,1.183,8.4,-83.7,-5,-3,-3768,77.7,4.67,12.5,
25.9127176,-80.13789072,05:27.6,6/9/21,11,0.137,250.14,-7.091555872,0.92,157.3,147.46,0.93,-3.42,29.9,0.01,1.79,1.8,90,21,492.1,16,-1.3,D,1510.9,7,6.214,2,0.05,128,45.46,-80.13784643,25.9127568,0,0,6,N,0.2978843,63,63,11,5,5,45.46569,0,9999.99,1.8,1.927,2,9,29.3,0,29.29999924,43.95,1553.40036,6/9/21,10:43:05,29.16,65.06,43.95,1.183,8.4,-83.7,-5,-3,-3768,77.7,4.67,12.5,
25.91271746,-80.13789055,05:28.6,6/9/21,11,0.087,250.14,-7.091555872,0.92,156.9,147.07,1.29,-3.2,29.9,0.01,1.77,1.78,90,21,492.1,16,-1.3,D,1510.9,7,6.214,2,0.04,128,45.25,-80.13784643,25.9127568,0,0,6,N,0.2978843,65,65,11,5,5,45.24707,0,9999.99,1.78,1.907,2,9,29.3,0,29.29999924,43.95,1553.40069,6/9/21,10:43:06,29.16,65.06,43.95,1.173,8.4,-83.5,-4.8,2.2,870,77.6,4.67,12.6,
25.91271697,-80.13789055,05:29.6,6/9/21,10,0.131,250.14,-7.091555872,0.92,155.7,145.92,0.95,-3.57,29.9,0.01,1.79,1.79,90,21,492.1,16,-1.3,D,1504.2,7,6.251,2,0.03,128,44.9,-80.13784643,25.9127568,0,0,6,N,0.2978843,63,63,11,5,5,44.89151,0,9999.99,1.8,1.927,2,9,29.3,0,29.29999924,43.97,1553.42169,6/9/21,10:43:08,29.16,65.08,43.97,1.223,8.38,-82.7,-4.5,3.2,-2558,77.7,4.67,12.5,
25.91271665,-80.13789088,05:30.6,6/9/21,11,0.257,250.14,-7.091555872,0.92,155.3,145.54,1.33,-3.23,29.9,0,1.79,1.8,90,21,492.1,16,-1.3,D,1504.2,7,6.302,2,0.03,128,44.88,-80.13784643,25.9127568,0,0,6,N,0.2978843,65,65,11,5,5,44.87188,0,9999.99,1.8,1.927,2,9,29.3,0,29.29999924,43.97,1553.42169,6/9/21,10:43:08,29.16,65.08,43.97,1.223,8.38,-82.7,-4.5,3.2,-2558,77.7,4.67,12.5,
25.91271649,-80.13789189,05:31.6,6/9/21,11,0.143,250.14,-7.091555872,0.92,154.7,144.97,1.55,-2.78,30,0,1.78,1.78,90,21,492.1,16,-1.3,D,1504.2,7,6.385,2,0.03,128,45.4,-80.13784643,25.9127568,0,0,6,N,0.2978843,66,66,11,5,5,45.39631,0,9999.99,1.79,1.917,2,9,29.3,0,29.29999924,43.96,1553.41089,6/9/21,10:43:09,29.16,65.07,43.96,1.164,8.38,-82.8,-4.5,-1.3,-4628,77.8,4.68,12.7,
25.91271666,-80.13789223,05:32.6,6/9/21,11,0.025,250.14,-7.091555872,0.97,154.5,144.77,0.65,-3.85,29.9,0.01,1.78,1.79,90,21,492.1,16,-1.3,D,1504.2,7,6.395,2,0.04,128,45.74,-80.13784643,25.9127568,0,0,6,N,0.2978843,61,61,11,5,5,45.73073,0,9999.99,1.79,1.917,2,9,29.3,0,29.29999924,43.94,1553.39029,6/9/21,10:43:11,29.15,65.04,43.94,1.179,8.39,-82.9,-4.3,-2.3,-4536,77.7,4.67,12.6,
25.91271683,-80.13789256,05:33.6,6/9/21,10,0.163,250.14,-7.091555872,0.9,154.1,144.39,1.31,-3.76,29.9,0.01,1.78,1.79,90,21,492.1,16,-1.3,D,1506.4,7,6.407,2,0.03,128,46.07,-80.13784643,25.9127568,0,0,6,N,0.2978843,65,65,11,5,5,46.05651,0,9999.99,1.79,1.917,2,9,29.3,0,29.29999924,43.94,1553.39029,6/9/21,10:43:11,29.15,65.04,43.94,1.179,8.39,-82.9,-4.3,-2.3,-4536,77.7,4.67,12.6,
25.91271717,-80.13789273,05:34.6,6/9/21,10,0.036,250.14,-7.091555872,0.9,153.7,144.01,1.05,-3.69,29.9,0,1.78,1.78,90,21,492.1,16,-1.3,D,1506.4,7,6.393,2,0.04,128,46.42,-80.13784643,25.9127568,0,0,6,N,0.2978843,62,62,11,5,5,46.40496,0,9999.99,1.79,1.917,2,9,29.3,0,29.29999924,43.96,1553.41089,6/9/21,10:43:12,29.15,65.07,43.96,1.176,8.38,-82.8,-4.9,-5.8,-4838,77.7,4.67,12.5,
25.912717,-80.13789273,05:35.6,6/9/21,10,0.058,250.14,-7.091555872,1.05,153,143.34,1.05,-3.48,29.9,0,1.78,1.78,90,21,492.1,16,-1.3,D,1506.4,7,6.406,2,0.04,128,46.3,-80.13784643,25.9127568,0,0,6,N,0.2978843,63,63,11,5,5,46.28735,0,9999.99,1.79,1.917,2,9,29.3,0,29.29999924,43.96,1553.41067,6/9/21,10:43:14,29.15,65.07,43.96,1.195,8.39,-83,-4.6,-3.3,-2102,77.8,4.68,12.6,
25.91271685,-80.13789278,05:36.6,6/9/21,9,0.054,250.14,-7.091555872,0.97,152.4,142.77,1.65,-3.41,29.9,0.01,1.79,1.8,90,21,492.1,16,-1.3,D,1506.3,7,6.421,2,0.07,128,46.22,-80.13784643,25.9127568,0,0,6,N,0.2978843,67,67,11,5,5,46.19296,0,9999.99,1.8,1.927,0,0,29.3,0,29.29999924,43.96,1553.41067,6/9/21,10:43:14,29.15,65.07,43.96,1.195,8.39,-83,-4.6,-3.3,-2102,77.8,4.68,12.6,
25.91271701,-80.13789259,05:37.6,6/9/21,9,0.092,250.14,-7.091555872,0.97,151.4,141.82,1.12,-3.66,29.9,0.01,1.79,1.79,90,21,492.1,16,-1.3,D,1506.3,7,6.395,2,0.05,128,46.22,-80.13784643,25.9127568,0,0,6,N,0.2978843,64,64,11,5,5,46.2012,0,9999.99,1.8,1.927,2,9,29.3,0,29.29999924,43.95,1553.40086,6/9/21,10:43:15,29.15,65.06,43.95,1.202,8.39,-82.8,-5,-1.7,-4577,77.7,4.68,12.5,
25.91271702,-80.1378931,05:38.6,6/9/21,10,0.106,250.14,-7.091555872,0.97,151.4,141.82,1.08,-3.61,29.9,0,1.78,1.79,90,21,492.1,16,-1.3,D,1506.3,7,6.432,2,0.05,128,46.54,-80.13784643,25.9127568,0,0,6,N,0.2978843,63,63,11,5,5,46.52201,0,9999.99,1.79,1.917,2,9,29.3,0,29.29999924,43.95,1553.40048,6/9/21,10:43:17,29.15,65.06,43.95,1.168,8.4,-83.4,-5.6,-3.6,-2030,77.6,4.67,12.7,
25.91271652,-80.13789324,05:39.6,6/9/21,10,0.111,250.14,-7.091555872,0.97,151,141.44,1.23,-3.5,29.9,0,1.8,1.8,90,21,492.1,16,-1.3,D,1506.3,7,6.479,2,0.05,128,46.27,-80.13784643,25.9127568,0,0,6,N,0.2978843,64,64,11,5,5,46.24685,0,9999.99,1.81,1.937,2,9,29.3,0,29.29999924,43.95,1553.40048,6/9/21,10:43:17,29.15,65.06,43.95,1.168,8.4,-83.4,-5.6,-3.6,-2030,77.6,4.67,12.7,
25.91271618,-80.1378931,05:40.6,6/9/21,10,0.043,250.14,-7.091555872,0.97,150.3,140.77,0.88,-4.06,29.9,0,1.8,1.8,90,21,492,16,-1.3,D,1506.3,7,6.496,2,0.05,128,45.94,-80.13784643,25.9127568,0,0,6,N,0.2978843,62,62,11,5,5,45.92277,0,9999.99,1.81,1.937,2,9,29.3,0,29.29999924,43.93,1553.37931,6/9/21,10:43:18,29.15,65.03,43.93,1.164,8.38,-82.3,-5.5,-0.1,-3322,77.7,4.67,12.6,
25.91271601,-80.13789308,05:41.6,6/9/21,10,0.12,250.14,-7.091555872,0.97,150.2,140.68,1.28,-4.24,29.9,0,1.8,1.8,90,21,492,16,-1.3,D,1506.3,7,6.507,2,0.04,128,45.81,-80.13784643,25.9127568,0,0,6,N,0.2978843,65,65,11,5,5,45.7883,0,9999.99,1.81,1.937,2,9,29.3,0,29.29999924,43.95,1553.40017,6/9/21,10:43:20,29.15,65.05,43.95,1.201,8.39,-83,-5.1,-5.3,-1610,77.7,4.67,12.4,
25.91271601,-80.13789291,05:42.6,6/9/21,10,0.05,250.14,-7.091555872,0.97,149.3,139.82,1.38,-3.54,29.9,0,1.83,1.83,90,21,492,16,-1.3,D,1506.3,7,6.495,2,0.05,128,45.71,-80.13784643,25.9127568,0,0,6,N,0.2978843,65,65,11,5,5,45.68892,0,9999.99,1.84,1.967,2,9,29.3,0,29.29999924,43.95,1553.40017,6/9/21,10:43:20,29.15,65.05,43.95,1.201,8.39,-83,-5.1,-5.3,-1610,77.7,4.67,12.4,
25.91271602,-80.13789307,05:43.6,6/9/21,10,0.076,250.14,-7.091555872,0.9,149.1,139.63,1.02,-4.5,29.9,0,1.82,1.82,90,21,492,16,-1.3,D,1506.3,7,6.506,2,0.04,128,45.81,-80.13784643,25.9127568,0,0,6,N,0.2978843,63,63,11,5,5,45.79066,0,9999.99,1.83,1.957,2,9,29.3,0,29.29999924,43.96,1553.41068,6/9/21,10:43:21,29.16,65.06,43.96,1.181,8.38,-82.7,-5,-4.6,-1942,77.7,4.67,12.7,
