Latitude,Longitude,Time,Date,Number of Sats,GPS Speed (Kn),GPS True Heading,GPS Magnetic Variation,HDOP,C Magnetic Heading,C True Heading,Pitch Angle,Roll Angle,C Inside Temp (c),DFS Depth (m),DTB Height (m),Total Water Column (m),Batt Percent,Power Watts,Watt-Hours,Batt Volts,Batt Ampers,Batt State,Time to Empty,Current Step,Dist To Next (m),Next Speed (kn),Vehicle Speed (kn),Motor Speed CMD,Next Heading,Next Long,Next Lat,Next Depth (m),Depth Goal (m),Vehicle State,Error State,Distance to Track (m),Fin Pitch R,Fin Pitch L,Pitch Goal,Fin Yaw T,Fin Yaw B,Yaw Goal,Fin Roll,DVL-Depth (m),DVL -Altitude (m),DVL -Water Column (m),DVL-FixType,DVL-FixQuality,DVL-Temperature,Conductivity (mmhos/cm),Temperature (c),Salinity (ppt),Sound Speed (m/s),Date m/d/y   ,Time hh:mm:ss,Temp C,SpCond mS/cm,Sal ppt,Depth feet,pH,pH mV,Turbid+ NTU,Chl ug/L,BGA-PC cells/mL,ODOsat %,ODO mg/L,Battery volts,ROSEM Command Type
25.91275333,-80.13790333,13:40.6,1/30/21,7,0.36,308.84,-7.056775287,1.6,137.4,128.66,1.31,-4.18,22.8,0,2.44,2.44,84,20,452.3,15.8,-1.2,D,1466.6,0,7.275,2,0.16,128,91.38,-80.13783061,25.91275176,0,0,1,N,5.156208,65,65,11,5,5,326.9082,0,9999.99,2.45,2.577,0,0,22.2,0,22.20000076,36.17,1528.65055,1/30/21,12:52:36,21.86,54.57,36.17,1.107,8.46,-85.2,-3.6,-4.3,-2091,89.6,6.37,13.2,
25.91275312,-80.13790351,13:41.6,1/30/21,7,0.136,308.84,-7.056775287,1.6,137.5,128.75,0.59,-3.58,22.8,0,2.43,2.44,84,20,452.3,15.8,-1.2,D,1466.6,1,41.394,2,0.03,174,126.62,-80.13757133,25.91253107,0,0,1,N,4.401013,61,61,11,73,73,115.2831,0,9999.99,2.44,2.567,2,9,22.2,0,22.20000076,36.17,1528.65023,1/30/21,12:52:38,21.86,54.56,36.17,1.181,8.46,-85.1,-1.7,-0.3,-3470,89.5,6.36,13.3,
25.91275132,-80.13790366,13:42.6,1/30/21,7,0.303,308.84,-7.056775287,1.6,134.6,126.04,2.96,1.22,22.8,0.01,2.43,2.44,84,21,452.3,15.8,-1.3,D,1376.5,1,41.287,2,0.02,174,126.38,-80.13757133,25.91253107,0,0,1,N,5.058059,73,73,11,83,83,115.3687,0,9999.99,2.45,2.577,0,0,22.2,0,22.20000076,36.17,1528.65023,1/30/21,12:52:38,21.86,54.56,36.17,1.181,8.46,-85.1,-1.7,-0.3,-3470,89.5,6.36,13.3,
25.91275326,-80.13790106,13:43.6,1/30/21,8,0.712,308.84,-7.056775287,1.28,136,127.35,1.93,-0.66,22.7,0.01,2.46,2.48,84,21,452.3,15.8,-1.3,D,1376.5,1,41.206,2,0.21,174,126.84,-80.13757133,25.91253107,0,0,1,N,5.050025,69,69,11,83,83,116.2818,0,9999.99,2.48,2.607,2,9,22.2,0,22.20000076,36.19,1528.6734,1/30/21,12:52:39,21.86,54.59,36.19,1.099,8.45,-84.8,-4.4,-8.4,-2130,89.5,6.36,13.2,
25.91274647,-80.13789707,13:44.6,1/30/21,9,1.032,179.8,-7.056775287,1.28,137.1,128.38,1.07,0.69,22.8,0.02,2.59,2.61,84,21,452.3,15.8,-1.3,D,1376.5,1,40.436,2,0.53,174,126.32,-80.13757133,25.91253107,0,0,1,N,4.716296,63,63,11,72,72,114.5082,0,9999.99,2.6,2.727,2,9,22.2,0,22.20000076,36.16,1528.64058,1/30/21,12:52:41,21.86,54.55,36.16,1.184,8.47,-85.7,-2.9,-4.5,-3235,89.5,6.36,13.1,
25.91274256,-80.13789296,13:45.6,1/30/21,9,1.159,179.8,-7.056775287,1.28,137.1,128.38,1.64,-1.16,22.7,0.01,2.77,2.78,84,21,452.3,15.8,-1.3,D,1376.5,1,39.847,2,0.86,174,126.17,-80.13757133,25.91253107,0,0,1,N,4.979093,69,69,11,65,65,113.2076,0,9999.99,2.79,2.917,2,9,22.2,0,22.20000076,36.16,1528.64058,1/30/21,12:52:41,21.86,54.55,36.16,1.184,8.47,-85.7,-2.9,-4.5,-3235,89.5,6.36,13.1,
25.91273811,-80.13788599,13:46.6,1/30/21,9,1.54,159.22,-7.056775287,1.08,135.5,126.88,1.08,-1.63,22.7,0.01,2.85,2.85,84,38,452.3,15.8,-2.4,D,765.7,1,38.993,2,1.14,174,126.19,-80.13757133,25.91253107,0,0,1,N,4.91577,63,63,11,67,67,111.919,0,9999.99,2.85,2.977,2,9,22.2,0,22.20000076,36.18,1528.66161,1/30/21,12:52:42,21.85,54.58,36.18,1.188,8.51,-87.9,-3.8,-9.1,-3397,89.5,6.36,13.3,
25.91272966,-80.13787735,13:47.7,1/30/21,8,2.036,148.45,-7.056775287,1.08,131.8,123.44,0.89,3.11,22.7,0.01,2.7,2.71,84,38,452.3,15.8,-2.4,D,765.7,1,37.741,2,1.37,174,125.81,-80.13757133,25.91253107,0,0,1,N,5.011355,61,61,11,63,63,108.3076,0,9999.99,2.71,2.837,2,9,22.2,0,22.20000076,36.19,1528.67259,1/30/21,12:52:44,21.86,54.59,36.19,1.212,8.51,-87.9,-4.1,-4.8,-1882,89.5,6.36,13.3,
25.91272377,-80.13787094,13:48.7,1/30/21,9,1.975,133.2,-7.056775287,1.08,128.9,120.75,0.59,1.35,22.7,0.01,2.53,2.54,84,38,452.3,15.8,-2.4,D,765.7,1,36.839,2,1.55,174,125.57,-80.13757133,25.91253107,0,0,1,N,5.056978,61,61,11,64,64,105.0156,0,9999.99,2.54,2.667,2,9,22.2,0,22.20000076,36.19,1528.67243,1/30/21,12:52:45,21.87,54.59,36.19,1.121,8.46,-85.2,-2.5,-1.2,-3131,89.7,6.37,13.1,
25.91272057,-80.13786424,13:49.7,1/30/21,9,1.89,128.35,-7.056775287,1.08,126.3,118.34,1.86,3.98,22.7,0.01,2.53,2.54,84,38,452.2,15.8,-2.4,D,766.3,1,36.086,2,1.66,174,125.73,-80.13757133,25.91253107,0,0,1,N,4.855687,68,68,11,65,65,102.8445,0,9999.99,2.55,2.677,2,9,22.2,0,22.20000076,36.19,1528.67243,1/30/21,12:52:45,21.87,54.59,36.19,1.121,8.46,-85.2,-2.5,-1.2,-3131,89.7,6.37,13.1,
25.91271569,-80.13785616,13:50.7,1/30/21,9,1.908,124.81,-7.056775287,1.08,124.4,116.58,1.16,3.27,22.7,0.01,2.64,2.64,84,38,452.2,15.8,-2.4,D,766.3,1,35.114,2,1.74,174,125.78,-80.13757133,25.91253107,0,0,1,N,4.703038,64,64,11,73,73,102.9545,0,9999.99,2.65,2.777,2,9,22.2,0,22.20000076,36.19,1528.67277,1/30/21,12:52:46,21.87,54.59,36.19,1.162,8.46,-85.2,-3.9,-6.1,-1667,89.8,6.37,13.3,
25.91271145,-80.13784646,13:51.7,1/30/21,9,1.878,123.36,-7.056775287,1.08,120.1,112.6,1.29,3.65,22.7,0.01,2.86,2.87,84,38,452.2,15.8,-2.4,D,766.3,1,34.052,2,1.75,174,126.09,-80.13757133,25.91253107,0,0,1,N,4.533624,65,65,11,91,91,103.8716,0,9999.99,2.87,2.997,2,9,22.2,0,22.20000076,36.17,1528.65069,1/30/21,12:52:48,21.87,54.56,36.17,1.189,8.47,-85.6,-3.8,-8,-2921,89.8,6.38,13.3,
25.91270815,-80.13784213,13:52.8,1/30/21,9,1.646,123.36,-7.056775287,0.95,117.6,110.29,1.57,1.23,22.7,0.01,2.89,2.9,84,38,452.2,15.8,-2.4,D,766.3,1,33.486,2,1.78,174,126.02,-80.13757133,25.91253107,0,0,1,N,4.375972,66,66,11,105,105,104.7382,0,9999.99,2.9,3.027,2,9,22.2,0,22.20000076,36.17,1528.65069,1/30/21,12:52:48,21.87,54.56,36.17,1.189,8.47,-85.6,-3.8,-8,-2921,89.8,6.38,13.3,
25.91270366,-80.13783274,13:53.8,1/30/21,9,1.91,121.07,-7.056775287,0.95,116.1,108.9,1.4,3.49,22.7,0.01,3.14,3.15,84,37,452.2,15.8,-2.3,D,790.7,1,32.433,2,1.79,174,126.28,-80.13757133,25.91253107,0,0,1,N,4.091417,65,65,11,117,117,106.3322,0,9999.99,3.15,3.277,2,9,22.2,0,22.20000076,36.18,1528.6617,1/30/21,12:52:49,21.86,54.58,36.18,1.191,8.51,-88.2,-3.5,-4.4,-3108,89.7,6.37,13.1,
25.91269886,-80.13782369,13:54.8,1/30/21,9,1.905,114.47,-7.056775287,0.95,115.5,108.34,1.41,2.94,22.8,0.01,3.2,3.2,84,37,452.2,15.8,-2.3,D,790.7,1,31.388,2,1.8,175,126.47,-80.13757133,25.91253107,0,0,1,N,3.849747,65,65,11,125,125,107.7213,0,9999.99,3.21,3.337,2,9,22.2,0,22.20000076,36.18,1528.66191,1/30/21,12:52:50,21.86,54.57,36.18,1.219,8.46,-85.1,-2.7,-3.4,-1306,89.8,6.38,13.2,
25.91269417,-80.13781348,13:55.8,1/30/21,9,1.886,112.49,-7.056775287,0.95,115,107.88,1.91,2.03,22.8,0,3.32,3.33,84,37,452.2,15.8,-2.3,D,790.7,1,30.257,2,1.83,175,126.83,-80.13757133,25.91253107,0,0,1,N,3.523695,68,68,11,134,134,109.648,0,9999.99,3.34,3.467,2,9,22.2,0,22.20000076,36.17,1528.65038,1/30/21,12:52:51,21.86,54.56,36.17,1.171,8.52,-88.6,-2.6,-7.9,-2326,89.7,6.37,13.3,
25.91268949,-80.13780293,13:56.8,1/30/21,9,1.935,112.2,-7.056775287,0.95,115.7,108.53,1.32,2.66,22.8,0.01,3.37,3.38,84,38,452.2,15.8,-2.4,D,774.3,1,29.101,2,1.86,175,127.25,-80.13757133,25.91253107,0,0,1,N,3.171165,65,65,11,140,140,111.7959,0,9999.99,3.38,3.507,2,9,22.2,0,22.20000076,36.16,1528.63951,1/30/21,12:52:52,21.86,54.56,36.16,1.171,8.46,-85,-2.8,-6.1,-3383,89.7,6.38,13.3,
25.91268542,-80.13779323,13:57.8,1/30/21,9,1.98,112.5,-7.056775287,0.95,116.8,109.55,1.72,1.57,22.8,0.01,3.44,3.44,84,38,452.2,15.8,-2.4,D,774.3,1,28.056,2,1.94,175,127.72,-80.13757133,25.91253107,0,0,1,N,2.834059,67,67,11,144,144,113.9119,0,9999.99,3.45,3.577,2,9,22.2,0,22.20000076,36.18,1528.66162,1/30/21,12:52:54,21.86,54.57,36.18,1.147,8.5,-87.6,-2.3,-4.1,-1452,89.7,6.37,13.2,
25.91268242,-80.13778387,13:58.8,1/30/21,9,1.994,108.83,-7.056775287,0.95,117.7,110.38,1.34,1.8,22.8,0.01,3.5,3.51,84,38,452.2,15.8,-2.4,D,774.3,1,27.113,2,1.9,175,128.37,-80.13757133,25.91253107,0,0,1,N,2.435754,65,65,11,151,151,116.4856,0,9999.99,3.52,3.647,2,9,22.2,0,22.20000076,36.18,1528.66161,1/30/21,12:52:55,21.86,54.58,36.18,1.164,8.47,-85.4,-3.9,-2.1,-746,89.7,6.37,13.3,
25.91267795,-80.13777241,13:59.8,1/30/21,9,2.032,108.86,-7.056775287,0.95,119.7,112.23,1.43,2.28,22.8,0.01,3.53,3.54,84,38,452.2,15.8,-2.4,D,774.3,1,25.908,2,1.91,175,129.08,-80.13757133,25.91253107,0,0,1,N,2.005506,63,63,11,154,154,119.3462,0,9999.99,3.54,3.667,2,9,22.2,0,22.20000076,36.18,1528.66172,1/30/21,12:52:56,21.86,54.57,36.18,1.152,8.46,-85.4,-3,-4.7,-3254,89.8,6.38,13.2,
25.91267451,-80.13776237,14:00.8,1/30/21,9,1.984,107.85,-7.056775287,0.95,121.7,114.08,0.83,1.43,22.8,0,3.57,3.57,84,38,452.2,15.8,-2.4,D,766.7,1,24.889,2,1.92,175,129.85,-80.13757133,25.91253107,0,0,1,N,1.584089,63,63,11,160,160,122.2193,0,9999.99,3.58,3.707,2,9,22.2,0,22.20000076,36.18,1528.6616,1/30/21,12:52:57,21.86,54.58,36.18,1.163,8.45,-84.5,-3.5,-3.8,-4612,89.8,6.38,13.1,
25.91266941,-80.1377531,14:01.8,1/30/21,9,1.921,112.14,-7.056775287,0.95,124.2,116.39,1,1.09,22.8,0.01,3.59,3.6,84,38,452.2,15.8,-2.4,D,766.7,1,23.814,2,1.91,175,130.24,-80.13757133,25.91253107,0,0,1,N,1.354918,63,63,11,157,157,123.8069,0,9999.99,3.6,3.727,2,9,22.2,0,22.20000076,36.18,1528.6616,1/30/21,12:52:57,21.86,54.58,36.18,1.163,8.45,-84.5,-3.5,-3.8,-4612,89.8,6.38,13.1,
25.91266484,-80.13774333,14:02.8,1/30/21,9,1.921,113.67,-7.056775287,0.95,126.5,118.52,1.79,2.38,22.8,0.01,3.62,3.62,84,38,452.2,15.8,-2.4,D,766.7,1,22.742,2,1.93,175,130.85,-80.13757133,25.91253107,0,0,1,N,1.055475,68,68,11,157,157,125.9037,0,9999.99,3.63,3.757,2,9,22.2,0,22.20000076,36.18,1528.66176,1/30/21,12:52:58,21.86,54.58,36.18,1.18,8.47,-85.7,-3.4,-0.2,-4514,89.8,6.38,13.2,
25.91266037,-80.13773443,14:03.8,1/30/21,9,1.976,114.99,-7.056775287,0.95,129,120.84,1.71,1.16,22.8,0,3.63,3.63,84,37,452.2,15.8,-2.3,D,792.2,1,21.744,2,1.92,175,131.39,-80.13757133,25.91253107,0,0,1,N,0.7988039,68,68,11,156,156,127.7175,0,9999.99,3.65,3.777,2,9,22.2,0,22.20000076,36.17,1528.65031,1/30/21,12:53:00,21.87,54.56,36.17,1.17,8.45,-84.5,-3.1,-8.7,-4204,89.9,6.38,13.3,
25.91265543,-80.13772592,14:04.8,1/30/21,9,1.89,116.52,-7.056775287,0.95,132,123.62,1.67,1.48,22.8,0,3.66,3.66,84,37,452.2,15.8,-2.3,D,792.2,1,20.743,2,1.88,175,131.81,-80.13757133,25.91253107,0,0,1,N,0.6018863,67,67,11,149,149,129.117,0,9999.99,3.67,3.797,2,9,22.2,0,22.20000076,36.17,1528.65031,1/30/21,12:53:00,21.87,54.56,36.17,1.17,8.45,-84.5,-3.1,-8.7,-4204,89.9,6.38,13.3,
25.91265174,-80.13772017,14:05.8,1/30/21,9,1.913,121.42,-7.056775287,0.95,134.3,125.77,1.81,1.97,22.8,0,3.68,3.68,84,37,452.2,15.8,-2.3,D,792.2,1,20.041,2,1.9,175,132.03,-80.13757133,25.91253107,0,0,1,N,0.5034614,68,68,11,145,145,129.8185,0,9999.99,3.69,3.817,2,9,22.2,0,22.20000076,36.18,1528.66134,1/30/21,12:53:01,21.87,54.57,36.18,1.164,8.47,-85.9,-2.5,-1.4,-3873,90,6.39,13.1,
25.91264585,-80.13771276,14:06.8,1/30/21,9,1.943,125.02,-7.056775287,0.95,136.1,127.44,1.75,1.31,22.8,0,3.68,3.69,84,37,452.2,15.8,-2.3,D,792.2,1,19.052,2,1.87,175,132.06,-80.13757133,25.91253107,0,0,1,N,0.4646647,67,67,11,138,138,130.0954,0,9999.99,3.7,3.827,2,9,22.2,0,22.20000076,36.19,1528.67266,1/30/21,12:53:03,21.87,54.59,36.19,1.181,8.45,-84.8,-3,-6.4,-1715,90.1,6.4,13.2,
25.91263927,-80.13770471,14:07.8,1/30/21,9,1.937,125.3,-7.056775287,0.95,138.5,129.69,1.21,1.55,22.7,0,3.7,3.7,84,37,452.1,15.8,-2.3,D,793.7,1,17.964,2,1.85,175,132.05,-80.13757133,25.91253107,0,0,1,N,0.4394157,64,64,11,129,129,130.2757,0,9999.99,3.71,3.837,2,9,22.2,0,22.20000076,36.19,1528.67266,1/30/21,12:53:03,21.87,54.59,36.19,1.181,8.45,-84.8,-3,-6.4,-1715,90.1,6.4,13.2,
25.91263155,-80.13769567,14:08.8,1/30/21,9,1.989,128.4,-7.056775287,0.95,139.4,130.53,1.74,1.21,22.7,0,3.65,3.66,84,37,452.1,15.8,-2.3,D,793.7,1,16.718,2,1.84,175,131.94,-80.13757133,25.91253107,0,0,1,N,0.4393763,67,67,11,126,126,130.2759,0,9999.99,3.67,3.797,2,9,22.2,0,22.20000076,36.19,1528.67254,1/30/21,12:53:05,21.88,54.59,36.19,1.146,8.52,-88.5,-3.5,-1,-2734,90.2,6.4,13.1,
25.91262645,-80.1376909,14:09.8,1/30/21,9,1.892,131.23,-7.056775287,0.95,140.1,131.18,1.71,2.34,22.8,0,3.72,3.73,84,37,452.1,15.8,-2.3,D,793.7,1,15.985,2,1.82,175,131.57,-80.13757133,25.91253107,0,0,1,N,0.5210605,66,66,11,122,122,129.693,0,9999.99,3.74,3.867,2,9,22.2,0,22.20000076,36.2,1528.68342,1/30/21,12:53:06,21.87,54.61,36.2,1.163,8.46,-85.1,-3.2,-5.1,-2678,90.2,6.41,13.2,
25.91261992,-80.13768372,14:10.8,1/30/21,9,1.992,133.34,-7.056775287,0.95,140.8,131.84,1.32,1.81,22.7,0.01,3.73,3.73,84,38,452.1,15.8,-2.4,D,775.7,1,14.965,2,1.85,175,131.31,-80.13757133,25.91253107,0,0,1,N,0.55449,66,66,11,119,119,129.4547,0,9999.99,3.74,3.867,2,9,22.2,0,22.20000076,36.2,1528.68342,1/30/21,12:53:06,21.87,54.61,36.2,1.163,8.46,-85.1,-3.2,-5.1,-2678,90.2,6.41,13.2,
25.91261276,-80.13767746,14:11.8,1/30/21,9,1.865,135.62,-7.056775287,0.95,141,132.03,1.27,2.67,22.7,0,3.74,3.74,84,38,452.1,15.8,-2.4,D,775.7,1,13.97,2,1.88,175,130.56,-80.13757133,25.91253107,0,0,1,N,0.700753,65,65,11,113,113,128.4136,0,9999.99,3.75,3.877,2,9,22.2,0,22.20000076,36.18,1528.66163,1/30/21,12:53:07,21.87,54.57,36.18,1.16,8.53,-89.1,-1.5,-3.3,-2452,90.2,6.41,13.2,
25.91260757,-80.13766926,14:12.8,1/30/21,9,1.924,130.69,-7.056775287,0.95,140.5,131.56,1.24,1.36,22.7,0,3.75,3.75,84,38,452.1,15.8,-2.4,D,775.7,1,12.973,2,1.91,175,130.97,-80.13757133,25.91253107,0,0,1,N,0.5570916,64,64,11,119,119,129.4362,0,9999.99,3.76,3.887,2,9,22.2,0,22.20000076,36.21,1528.69443,1/30/21,12:53:09,21.87,54.61,36.21,1.194,8.46,-85.2,-3.7,-5.3,-2161,90.3,6.41,13,
25.91260079,-80.13766142,14:13.8,1/30/21,9,1.993,133.54,-7.056775287,0.95,141.3,132.31,0.81,2.2,22.7,0.01,3.76,3.77,84,38,452.1,15.8,-2.4,D,775.7,1,11.887,2,1.91,175,130.71,-80.13757133,25.91253107,0,0,1,N,0.5650872,62,62,11,115,115,129.3791,0,9999.99,3.77,3.897,2,9,22.2,0,22.20000076,36.21,1528.69443,1/30/21,12:53:09,21.87,54.61,36.21,1.194,8.46,-85.2,-3.7,-5.3,-2161,90.3,6.41,13,
25.91259417,-80.13765417,14:14.8,1/30/21,9,2.008,134.26,-7.056775287,0.95,140.6,131.65,0.89,2.46,22.7,0,3.77,3.77,84,38,452.1,15.8,-2.4,D,777.9,1,10.857,2,1.92,175,130.26,-80.13757133,25.91253107,0,0,1,N,0.6065591,64,64,11,119,119,129.0838,0,9999.99,3.78,3.907,2,9,22.2,0,22.20000076,36.18,1528.66157,1/30/21,12:53:10,21.87,54.58,36.18,1.204,8.52,-88.8,-2.7,-6.3,-2328,90.3,6.41,13.3,
25.91258757,-80.13764718,14:15.8,1/30/21,10,2.104,134.34,-7.056775287,0.95,140.4,131.46,0.98,3.71,22.8,0,3.77,3.77,84,38,452.1,15.8,-2.4,D,777.9,1,9.85,2,1.94,175,129.63,-80.13757133,25.91253107,0,0,1,N,0.6561482,62,62,11,116,116,128.7307,0,9999.99,3.78,3.907,2,9,22.2,0,22.20000076,36.18,1528.66135,1/30/21,12:53:12,21.87,54.58,36.18,1.164,8.46,-85.3,-3.3,-9.2,-1980,90.4,6.42,13.3,
25.91258081,-80.13763949,14:16.8,1/30/21,10,2.065,132.57,-7.056775287,0.95,140.5,131.56,1.02,1.81,22.7,0.01,3.77,3.78,84,38,452.1,15.8,-2.4,D,777.9,1,8.779,2,1.94,175,129.05,-80.13757133,25.91253107,0,0,1,N,0.6752167,63,63,11,115,115,128.5953,0,9999.99,3.78,3.907,2,9,22.2,0,22.20000076,36.18,1528.66135,1/30/21,12:53:12,21.87,54.58,36.18,1.164,8.46,-85.3,-3.3,-9.2,-1980,90.4,6.42,13.3,
25.91257346,-80.13763282,14:17.8,1/30/21,9,2.033,133.67,-7.056775287,0.95,140.9,131.93,0.87,2.7,22.7,0.01,3.78,3.79,84,38,452.1,15.8,-2.4,D,777.9,1,7.749,2,1.95,175,127.46,-80.13757133,25.91253107,0,0,1,N,0.8093259,62,62,11,110,110,127.643,0,9999.99,3.79,3.917,2,9,22.2,0,22.20000076,36.2,1528.6839,1/30/21,12:53:13,21.87,54.6,36.2,1.168,8.51,-88.3,-2.6,-7.4,-2171,90.4,6.42,13.1,
25.91256585,-80.13762527,14:18.8,1/30/21,9,2.008,133.98,-7.056775287,0.95,140.5,131.56,0.82,2.1,22.8,0,3.79,3.79,84,38,452,15.8,-2.4,D,775.6,1,6.637,2,1.96,175,125.64,-80.13757133,25.91253107,0,0,1,N,0.9052629,62,62,11,109,109,126.9635,0,9999.99,3.8,3.927,2,9,22.2,0,22.20000076,36.19,1528.6727,1/30/21,12:53:14,21.87,54.59,36.19,1.161,8.46,-85.1,-2.7,-1.1,-1760,90.3,6.42,13.3,
25.91255861,-80.13761863,14:19.8,1/30/21,9,1.976,134.32,-7.056775287,0.95,140.6,131.65,0.93,2.7,22.8,0,3.78,3.79,84,38,452,15.8,-2.4,D,775.6,1,5.636,2,1.96,175,122.91,-80.13757133,25.91253107,0,0,1,N,1.033508,63,63,11,105,105,126.0584,0,9999.99,3.79,3.917,2,9,22.2,0,22.20000076,36.21,1528.69467,1/30/21,12:53:15,21.87,54.62,36.21,1.161,8.46,-85.4,-1.1,-2.7,-4220,90.4,6.42,13.4,
25.91255215,-80.13761212,14:20.8,1/30/21,9,2,134.89,-7.056775287,0.95,140.3,131.37,0.61,3.64,22.7,0,3.81,3.81,84,38,452,15.8,-2.4,D,775.6,2,21.121,2,1.95,175,148.79,-80.13750269,25.91238969,0,0,1,N,2.855971,61,61,11,174,174,143.101,0,9999.99,3.81,3.937,2,9,22.2,0,22.20000076,36.19,1528.67254,1/30/21,12:53:17,21.87,54.59,36.19,1.159,8.47,-85.5,-3.8,-5.1,-2625,90.5,6.43,13.1,
25.91254663,-80.1376049,14:21.8,1/30/21,9,1.8,133.84,-7.056775287,0.95,144.5,135.32,0.63,3.02,22.8,0,3.81,3.82,84,38,452,15.8,-2.4,D,764.5,2,20.224,2,1.92,175,149.64,-80.13750269,25.91238969,0,0,1,N,2.435312,61,61,11,162,162,144.134,0,9999.99,3.82,3.947,2,9,22.2,0,22.20000076,36.19,1528.67254,1/30/21,12:53:17,21.87,54.59,36.19,1.159,8.47,-85.5,-3.8,-5.1,-2625,90.5,6.43,13.1,
25.91254041,-80.13759782,14:22.8,1/30/21,9,1.841,136.95,-7.056775287,1.06,147.8,138.43,1.35,1.32,22.8,0,3.8,3.8,84,38,452,15.8,-2.4,D,764.5,2,19.272,2,1.91,175,150.42,-80.13750269,25.91238969,0,0,1,N,2.048419,65,65,11,154,154,145.0837,0,9999.99,3.81,3.937,2,9,22.2,0,22.20000076,36.18,1528.66156,1/30/21,12:53:18,21.87,54.58,36.18,1.139,8.47,-85.5,-2.1,-7.2,-2690,90.5,6.43,13.3,
25.91253377,-80.13759151,14:23.8,1/30/21,9,1.807,138.37,-7.056775287,0.99,150.3,140.8,1.07,1.7,22.9,0,3.74,3.74,84,38,452,15.8,-2.4,D,764.5,2,18.319,2,1.88,175,150.99,-80.13750269,25.91238969,0,0,1,N,1.764743,63,63,11,146,146,145.6305,0,9999.99,3.75,3.877,2,9,22.2,0,22.20000076,36.19,1528.67252,1/30/21,12:53:20,21.87,54.59,36.19,1.14,8.47,-85.6,-3.7,-4.9,-2133,90.6,6.43,13.2,
25.91252804,-80.1375854,14:24.8,1/30/21,9,1.861,140.88,-7.056775287,0.95,152.5,142.9,1.28,1.12,22.9,0.01,3.81,3.81,84,38,452,15.8,-2.4,D,764.5,2,17.467,2,1.84,176,151.73,-80.13750269,25.91238969,0,0,1,N,1.455745,65,65,11,142,142,146.5676,0,9999.99,3.82,3.947,2,9,22.2,0,22.20000076,36.19,1528.67252,1/30/21,12:53:20,21.87,54.59,36.19,1.14,8.47,-85.6,-3.7,-4.9,-2133,90.6,6.43,13.2,
25.91252083,-80.13757949,14:25.8,1/30/21,9,1.932,142.62,-7.056775287,0.95,155.4,145.67,1.45,3.09,22.8,0.01,3.82,3.82,84,37,452,15.8,-2.4,D,783.2,2,16.482,2,1.86,176,152.22,-80.13750269,25.91238969,0,0,1,N,1.225194,68,68,11,138,138,147.7004,0,9999.99,3.83,3.957,2,9,22.2,0,22.20000076,36.22,1528.7058,1/30/21,12:53:21,21.86,54.63,36.22,1.171,8.47,-85.6,-3.2,-3.4,-5110,90.6,6.43,13.2,
25.91251284,-80.13757393,14:26.9,1/30/21,9,1.854,145.21,-7.056775287,0.95,156.5,146.72,1.44,1.85,22.8,0,3.83,3.83,84,37,452,15.8,-2.4,D,783.2,2,15.437,2,1.88,176,152.51,-80.13750269,25.91238969,0,0,1,N,1.068551,66,66,11,135,135,148.8016,0,9999.99,3.84,3.967,2,9,22.2,0,22.20000076,36.19,1528.67243,1/30/21,12:53:23,21.87,54.59,36.19,1.159,8.47,-85.5,-3,-6.4,-1758,90.6,6.44,13.3,
25.91250544,-80.13756821,14:27.9,1/30/21,9,1.893,147.5,-7.056775287,0.95,158.1,148.26,1.22,4.02,22.8,0,3.84,3.84,84,37,452,15.8,-2.4,D,783.2,2,14.443,2,1.91,176,153.02,-80.13750269,25.91238969,0,0,1,N,0.872481,64,64,11,135,135,150.1855,0,9999.99,3.85,3.977,2,9,22.2,0,22.20000076,36.19,1528.67243,1/30/21,12:53:23,21.87,54.59,36.19,1.159,8.47,-85.5,-3,-6.4,-1758,90.6,6.44,13.3,
25.91250071,-80.13756621,14:28.9,1/30/21,9,1.919,148.34,-7.056775287,0.95,159.6,149.71,1,1.88,22.8,0,3.86,3.86,84,38,452,15.8,-2.4,D,763.4,2,13.884,2,1.91,176,152.77,-80.13750269,25.91238969,0,0,1,N,0.7499288,62,62,11,127,127,150.023,0,9999.99,3.87,3.997,2,9,22.2,0,22.20000076,36.2,1528.68342,1/30/21,12:53:24,21.86,54.61,36.2,1.178,8.47,-85.8,-2.9,-4.7,-661,90.6,6.44,13.3,
25.91249065,-80.13756137,14:29.9,1/30/21,9,1.845,148.62,-7.056775287,0.95,160.8,150.87,1.28,2.96,22.8,0.01,3.88,3.89,84,38,452,15.8,-2.4,D,763.4,2,12.668,2,1.9,176,152.4,-80.13750269,25.91238969,0,0,1,N,0.8962015,65,65,11,124,124,150.0177,0,9999.99,3.89,4.017,2,9,22.2,0,22.20000076,36.2,1528.68358,1/30/21,12:53:26,21.87,54.6,36.2,1.151,8.47,-85.8,-2.5,-6,-1553,90.7,6.44,13.3,
25.91248345,-80.13755697,14:30.9,1/30/21,9,1.888,151.43,-7.056775287,0.95,161.8,151.83,0.89,1.34,22.8,0.01,3.88,3.89,84,38,452,15.8,-2.4,D,763.4,2,11.754,2,1.89,176,152.5,-80.13750269,25.91238969,0,0,1,N,0.8108243,62,62,11,122,122,150.6224,0,9999.99,3.89,4.017,2,9,22.2,0,22.20000076,36.2,1528.68358,1/30/21,12:53:26,21.87,54.6,36.2,1.151,8.47,-85.8,-2.5,-6,-1553,90.7,6.44,13.3,
25.91247613,-80.13755438,14:31.9,1/30/21,9,1.903,154.42,-7.056775287,0.95,162.8,152.8,0.75,2.69,22.8,0,3.89,3.9,84,38,452,15.8,-2.4,D,763.4,2,10.914,2,1.89,176,151.73,-80.13750269,25.91238969,0,0,1,N,0.9025658,61,61,11,119,119,149.9726,0,9999.99,3.9,4.027,2,9,22.2,0,22.20000076,36.2,1528.68392,1/30/21,12:53:27,21.87,54.61,36.2,1.165,8.47,-85.9,-2,-2.8,-3478,90.7,6.44,13.3,
25.91246765,-80.13755128,14:32.9,1/30/21,9,1.905,155.41,-7.056775287,0.95,162.9,152.9,0.74,1.82,22.7,0.01,3.91,3.92,84,38,451.9,15.8,-2.4,D,762.5,2,9.938,2,1.91,176,150.73,-80.13750269,25.91238969,0,0,1,N,0.9969809,62,62,11,114,114,149.3055,0,9999.99,3.92,4.047,2,9,22.2,0,22.20000076,36.2,1528.68354,1/30/21,12:53:28,21.87,54.6,36.2,1.186,8.45,-84.7,-3.7,-5.5,-1464,90.8,6.45,13.2,
25.91245972,-80.13754705,14:34.0,1/30/21,9,1.892,155.75,-7.056775287,0.95,163.4,153.39,0.82,2.56,22.8,0.01,3.91,3.92,84,38,451.9,15.8,-2.4,D,762.5,2,8.962,2,1.94,176,150.32,-80.13750269,25.91238969,0,0,1,N,0.9588547,62,62,11,112,112,149.5754,0,9999.99,3.92,4.047,2,9,22.2,0,22.20000076,36.19,1528.67267,1/30/21,12:53:30,21.87,54.58,36.19,1.189,8.51,-88.3,-2.7,-2.7,-2042,90.7,6.44,13.2,
25.91245114,-80.13754326,14:35.0,1/30/21,9,1.841,157.29,-7.056775287,0.95,162.5,152.51,0.66,3.11,22.8,0.01,3.92,3.92,84,38,451.9,15.8,-2.4,D,762.5,2,7.946,2,1.99,176,149.3,-80.13750269,25.91238969,0,0,1,N,0.9926459,60,60,11,113,113,149.3363,0,9999.99,3.92,4.047,2,9,22.2,0,22.20000076,36.19,1528.67267,1/30/21,12:53:30,21.87,54.58,36.19,1.189,8.51,-88.3,-2.7,-2.7,-2042,90.7,6.44,13.2,
25.91244279,-80.13753931,14:36.0,1/30/21,9,1.922,157.66,-7.056775287,0.95,162.8,152.8,0.44,2.53,22.8,0,3.9,3.91,84,41,451.9,15.7,-2.6,D,708.9,2,6.949,2,1.97,176,148.19,-80.13750269,25.91238969,0,0,1,N,1.002599,60,60,11,112,112,149.2661,0,9999.99,3.91,4.037,2,9,22.2,0,22.20000076,36.19,1528.67287,1/30/21,12:53:31,21.86,54.59,36.19,1.163,8.45,-84.6,-3,-6.7,-3916,90.7,6.44,13.3,
25.91243431,-80.13753513,14:37.0,1/30/21,9,1.854,156.78,-7.056775287,0.95,162.4,152.42,0.74,2.68,22.8,0,3.93,3.93,84,41,451.9,15.7,-2.6,D,708.9,2,5.928,2,1.97,176,146.81,-80.13750269,25.91238969,0,0,1,N,0.9979416,61,61,11,115,115,149.2994,0,9999.99,3.94,4.067,2,9,22.2,0,22.20000076,36.21,1528.69464,1/30/21,12:53:33,21.85,54.61,36.21,1.213,8.52,-88.5,-3.2,-5.5,-1045,90.8,6.45,13.2,
25.91242611,-80.1375311,14:38.0,1/30/21,9,2.001,156.97,-7.056775287,0.95,162.7,152.71,0.42,2.36,22.7,0.01,3.94,3.95,84,41,451.9,15.7,-2.6,D,708.9,2,4.947,2,1.95,176,144.95,-80.13750269,25.91238969,0,0,1,N,0.9898951,58,58,11,112,112,149.3558,0,9999.99,3.94,4.067,2,9,22.2,0,22.20000076,36.21,1528.69464,1/30/21,12:53:33,21.85,54.61,36.21,1.213,8.52,-88.5,-3.2,-5.5,-1045,90.8,6.45,13.2,
25.91241782,-80.13752726,14:39.0,1/30/21,9,2.022,155.6,-7.056775287,0.95,162.7,152.71,0.83,-1.5,22.8,0.01,3.94,3.95,84,41,451.9,15.7,-2.6,D,708.9,3,18.297,2,1.94,176,137.45,-80.13740356,25.91229659,0,0,1,N,0.4244873,62,62,11,69,69,138.3016,0,9999.99,3.95,4.077,2,9,22.2,0,22.20000076,36.21,1528.69515,1/30/21,12:53:34,21.85,54.62,36.21,1.173,8.46,-85,-2.6,-5.1,-3098,90.8,6.45,13.3,
25.91240946,-80.13752386,14:40.0,1/30/21,9,1.917,157.85,-7.056775287,0.95,157.9,148.07,0.78,6.08,22.8,0.01,3.95,3.96,84,41,451.9,15.7,-2.6,D,712.9,3,17.387,2,1.9,176,136.21,-80.13740356,25.91229659,0,0,1,N,1.91E-02,62,62,11,80,80,136.3373,0,9999.99,3.96,4.087,2,9,22.2,0,22.20000076,36.19,1528.67293,1/30/21,12:53:36,21.85,54.59,36.19,1.212,8.52,-88.6,-3.1,-2.4,-4668,90.9,6.46,13.3,
25.91240098,-80.13751915,14:41.0,1/30/21,9,1.879,154.6,-7.056775287,0.95,156.3,146.53,0.67,2.45,22.8,0.01,3.99,3.99,84,41,451.9,15.7,-2.6,D,712.9,3,16.383,2,1.92,176,135.12,-80.13740356,25.91229659,0,0,1,N,0.3025238,64,64,11,77,77,134.4972,0,9999.99,4,4.127,2,9,22.2,0,22.20000076,36.19,1528.67293,1/30/21,12:53:36,21.85,54.59,36.19,1.212,8.52,-88.6,-3.1,-2.4,-4668,90.9,6.46,13.3,
25.91239225,-80.13751367,14:42.1,1/30/21,9,1.971,153.21,-7.056775287,0.95,153.1,143.47,1.29,2.71,22.8,0.01,4,4.01,84,41,451.9,15.7,-2.6,D,714,3,15.311,2,1.95,176,134.01,-80.13740356,25.91229659,0,0,1,N,0.5824645,65,65,11,83,83,132.5257,0,9999.99,4.01,4.137,2,9,22.2,0,22.20000076,36.19,1528.67295,1/30/21,12:53:37,21.85,54.59,36.19,1.175,8.46,-85,-1.9,-4.8,-3397,90.9,6.46,13.1,
25.91238436,-80.13750805,14:43.1,1/30/21,9,1.976,151.37,-7.056775287,0.95,149.8,140.33,0.54,3.85,22.8,0.01,3.98,3.99,84,41,451.9,15.7,-2.6,D,714,3,14.3,2,1.92,176,133.04,-80.13740356,25.91229659,0,0,1,N,0.789452,61,61,11,95,95,130.7776,0,9999.99,3.99,4.117,2,9,22.2,0,22.20000076,36.18,1528.66195,1/30/21,12:53:39,21.85,54.57,36.18,1.137,8.52,-88.5,-4,-2.4,-3144,90.9,6.46,13.2,
25.91237726,-80.13750172,14:44.1,1/30/21,9,1.845,147.67,-7.056775287,0.95,147.8,138.43,0.83,2.86,22.8,0.01,3.97,3.98,84,41,451.9,15.7,-2.6,D,714,3,13.298,2,1.91,176,132.42,-80.13740356,25.91229659,0,0,1,N,0.8836325,62,62,11,93,93,129.9334,0,9999.99,3.98,4.107,2,9,22.2,0,22.20000076,36.18,1528.66183,1/30/21,12:53:40,21.84,54.58,36.18,1.211,8.46,-85,-1.2,-5.2,-2528,90.9,6.46,13.2,
25.91237026,-80.13749584,14:45.1,1/30/21,9,1.901,143.28,-7.056775287,0.95,146,136.73,0.58,3.05,22.8,0,3.97,3.98,84,42,451.8,15.7,-2.6,D,696.7,3,12.341,2,1.92,176,131.59,-80.13740356,25.91229659,0,0,1,N,0.9997889,60,60,11,97,97,129.1136,0,9999.99,3.98,4.107,2,9,22.2,0,22.20000076,36.18,1528.66183,1/30/21,12:53:40,21.84,54.58,36.18,1.211,8.46,-85,-1.2,-5.2,-2528,90.9,6.46,13.2,
25.91236292,-80.13749,14:46.1,1/30/21,9,1.963,142.87,-7.056775287,0.95,145,135.79,0.74,2.26,22.7,0,3.99,4,84,42,451.8,15.7,-2.6,D,696.7,3,11.365,2,1.95,176,130.47,-80.13740356,25.91229659,0,0,1,N,1.143085,61,61,11,96,96,128.106,0,9999.99,4,4.127,2,9,22.2,0,22.20000076,36.19,1528.67262,1/30/21,12:53:41,21.84,54.59,36.19,1.217,8.51,-88,-3.2,-6.6,-2966,90.9,6.46,13.1,
25.91235552,-80.13748434,14:47.1,1/30/21,9,2.013,142.41,-7.056775287,0.95,143.9,134.75,0.9,2.43,22.8,0.01,4,4.01,84,42,451.8,15.7,-2.6,D,696.7,3,10.403,2,1.96,176,129.04,-80.13740356,25.91229659,0,0,1,N,1.306874,61,61,11,96,96,126.9595,0,9999.99,4.01,4.137,2,9,22.2,0,22.20000076,36.19,1528.6727,1/30/21,12:53:43,21.84,54.59,36.19,1.207,8.46,-85,-1.5,-2.5,-3938,90.9,6.46,13.4,
25.91234815,-80.13747751,14:48.1,1/30/21,9,1.994,141.44,-7.056775287,0.95,142.8,133.72,0.51,0.48,22.8,0.01,4.01,4.02,84,42,451.8,15.7,-2.6,D,696.7,3,9.358,2,1.98,176,127.78,-80.13740356,25.91229659,0,0,1,N,1.380295,60,60,11,97,97,126.4469,0,9999.99,4.02,4.147,2,9,22.2,0,22.20000076,36.19,1528.6727,1/30/21,12:53:43,21.84,54.59,36.19,1.207,8.46,-85,-1.5,-2.5,-3938,90.9,6.46,13.4,
25.91234156,-80.13747035,14:49.1,1/30/21,9,1.988,139.28,-7.056775287,0.95,141.8,132.78,0.51,3.64,22.8,0.01,4.02,4.03,84,41,451.8,15.7,-2.6,D,708.7,3,8.345,2,1.99,176,126.81,-80.13740356,25.91229659,0,0,1,N,1.375244,60,60,11,102,102,126.4835,0,9999.99,4.03,4.157,2,9,22.2,0,22.20000076,36.19,1528.67275,1/30/21,12:53:44,21.85,54.6,36.19,1.179,8.51,-88.3,-3.2,-4,-1182,90.9,6.46,13.2,
25.91233413,-80.13746294,14:50.1,1/30/21,9,2.073,136.9,-7.056775287,0.95,141,132.03,0.56,0.86,22.8,0,4.06,4.06,84,41,451.8,15.7,-2.6,D,708.7,3,7.259,2,1.95,176,125.1,-80.13740356,25.91229659,0,0,1,N,1.408895,60,60,11,104,104,126.249,0,9999.99,4.06,4.187,2,9,22.2,0,22.20000076,36.17,1528.6507,1/30/21,12:53:46,21.84,54.57,36.17,1.172,8.45,-84.8,-3,-4.3,-1449,90.9,6.46,13.3,
25.91232789,-80.13745567,14:51.1,1/30/21,9,2.062,133.96,-7.056775287,0.95,139.1,130.25,1.12,4.54,22.8,0.01,4.03,4.04,84,41,451.8,15.7,-2.6,D,708.7,3,6.268,2,2,176,123.74,-80.13740356,25.91229659,0,0,1,N,1.36643,64,64,11,113,113,126.5439,0,9999.99,4.04,4.167,2,9,22.2,0,22.20000076,36.17,1528.6507,1/30/21,12:53:46,21.84,54.57,36.17,1.172,8.45,-84.8,-3,-4.3,-1449,90.9,6.46,13.3,
25.91232169,-80.13744827,14:52.1,1/30/21,9,2.042,132.17,-7.056775287,0.95,139.2,130.34,0.38,1.52,22.7,0.01,4.03,4.04,84,42,451.8,15.7,-2.6,D,706.6,3,5.273,2,1.99,176,121.97,-80.13740356,25.91229659,0,0,1,N,1.309055,60,60,11,113,113,126.9454,0,9999.99,4.04,4.167,2,9,22.2,0,22.20000076,36.18,1528.66185,1/30/21,12:53:47,21.84,54.58,36.18,1.155,8.48,-86.1,-3.9,-2.5,-4114,90.9,6.46,13.2,
25.91231485,-80.13744001,14:53.1,1/30/21,9,2.033,133.3,-7.056775287,0.95,140.8,131.84,-0.26,8.2,22.7,0,4.03,4.03,84,42,451.8,15.7,-2.6,D,706.6,4,13.264,2,2,176,172.47,-80.13742262,25.91219659,0,0,1,N,4.044847,58,58,11,250,250,165.457,0,9999.99,4.03,4.157,2,9,22.2,0,22.20000076,36.19,1528.67279,1/30/21,12:53:49,21.83,54.59,36.19,1.204,8.45,-84.7,-4,-7.9,-3554,91,6.46,13.2,
25.91230871,-80.13743369,14:54.1,1/30/21,8,1.798,132.39,-7.056775287,1.18,149.6,140.14,1.27,-2.96,22.8,0,4.06,4.06,84,42,451.8,15.7,-2.6,D,706.6,4,12.516,2,1.96,176,174.92,-80.13742262,25.91219659,0,0,1,N,3.293346,65,65,11,245,245,169.7173,0,9999.99,4.06,4.187,2,9,22.2,0,22.20000076,36.19,1528.67279,1/30/21,12:53:49,21.83,54.59,36.19,1.204,8.45,-84.7,-4,-7.9,-3554,91,6.46,13.2,
25.91230293,-80.13743054,14:55.1,1/30/21,9,1.666,136.13,-7.056775287,1.18,159.4,149.51,3.38,0.67,22.8,0,4.06,4.06,84,42,451.8,15.7,-2.6,D,706.6,4,11.851,2,1.86,176,176.17,-80.13742262,25.91219659,0,0,1,N,2.848473,76,76,11,220,220,170.942,0,9999.99,4.08,4.207,2,9,22.2,0,22.20000076,36.18,1528.6614,1/30/21,12:53:51,21.84,54.58,36.18,1.142,8.52,-88.8,-2.3,-3.6,-1341,91,6.46,13.2,
25.91229622,-80.13742739,14:56.1,1/30/21,9,1.61,141.93,-7.056775287,0.95,166.3,156.21,3.35,1.45,22.8,0.01,4.03,4.04,84,41,451.7,15.7,-2.6,D,713.2,4,11.088,2,1.8,176,177.54,-80.13742262,25.91219659,0,0,1,N,2.407278,77,77,11,194,194,172.9899,0,9999.99,4.06,4.187,2,9,22.2,0,22.20000076,36.18,1528.6614,1/30/21,12:53:51,21.84,54.58,36.18,1.142,8.52,-88.8,-2.3,-3.6,-1341,91,6.46,13.2,
25.91228839,-80.13742453,14:57.1,1/30/21,9,1.793,150.38,-7.056775287,0.95,173.8,163.59,3.19,0.46,22.8,0.02,4.06,4.08,84,41,451.7,15.7,-2.6,D,713.2,4,10.21,2,1.74,176,178.93,-80.13742262,25.91219659,0,0,1,N,1.963275,76,76,11,176,176,175.9398,0,9999.99,4.09,4.217,2,9,22.2,0,22.20000076,36.19,1528.67316,1/30/21,12:53:52,21.84,54.59,36.19,1.122,8.45,-84.8,-2.7,-5.3,-3394,90.9,6.46,13.1,
25.91228091,-80.13742374,14:58.1,1/30/21,9,1.784,158.39,-7.056775287,0.95,180.2,169.97,2.3,0.35,22.8,0.01,4.11,4.12,84,41,451.7,15.7,-2.6,D,713.2,4,9.377,2,1.7,177,179.31,-80.13742262,25.91219659,0,0,1,N,1.728612,71,71,11,160,160,177.5352,0,9999.99,4.13,4.257,2,9,22.2,0,22.20000076,36.18,1528.66255,1/30/21,12:53:53,21.84,54.58,36.18,1.139,8.47,-86,-3.6,-2.2,-4581,90.9,6.46,13.2,
25.91227228,-80.1374239,14:59.1,1/30/21,9,1.855,165.04,-7.056775287,0.95,183.7,173.48,1.39,1.8,22.8,0.01,4.11,4.12,84,42,451.7,15.7,-2.6,D,706.4,4,8.417,2,1.73,177,179.13,-80.13742262,25.91219659,0,0,1,N,1.575217,65,65,11,147,147,178.5893,0,9999.99,4.12,4.247,2,9,22.2,0,22.20000076,36.19,1528.67345,1/30/21,12:53:55,21.84,54.59,36.19,1.149,8.45,-84.8,-3.4,-4.9,-5695,90.9,6.46,13.2,
25.91226409,-80.13742332,15:00.1,1/30/21,9,1.802,170.26,-7.056775287,0.95,187.3,177.12,0.29,1.94,22.8,0,4.07,4.07,84,42,451.7,15.7,-2.6,D,706.4,4,7.507,2,1.81,177,179.47,-80.13742262,25.91219659,0,0,1,N,1.363538,59,59,11,139,139,180.0556,0,9999.99,4.08,4.207,2,9,22.2,0,22.20000076,36.19,1528.67254,1/30/21,12:53:56,21.84,54.59,36.19,1.178,8.48,-86.4,-3.3,-5.8,-1460,90.9,6.46,13.3,
25.91225505,-80.13742447,15:01.1,1/30/21,9,1.851,174.88,-7.056775287,0.95,188.5,178.34,1.58,2.87,22.8,0,4.07,4.08,84,42,451.7,15.7,-2.6,D,706.4,4,6.504,2,1.82,177,178.37,-80.13742262,25.91219659,0,0,1,N,1.305454,65,65,11,137,137,180.4604,0,9999.99,4.08,4.207,2,9,22.2,0,22.20000076,36.19,1528.67247,1/30/21,12:53:57,21.84,54.59,36.19,1.175,8.51,-88.2,-3.5,-5,-3558,91,6.46,13.1,
25.91224586,-80.13742405,15:02.1,1/30/21,9,1.999,175.76,-7.056775287,0.95,190.8,180.68,1.37,3.39,22.8,0,4.09,4.09,84,42,451.7,15.7,-2.6,D,706.4,4,5.48,2,1.8,177,178.51,-80.13742262,25.91219659,0,0,1,N,1.083883,65,65,11,132,132,182.0119,0,9999.99,4.1,4.227,2,9,22.2,0,22.20000076,36.21,1528.69443,1/30/21,12:53:58,21.84,54.62,36.21,1.155,8.45,-84.4,-4.3,0.3,-5175,91,6.46,13.3,
25.91223743,-80.13742602,15:03.1,1/30/21,9,1.841,182.83,-7.056775287,0.95,191.4,181.3,0.94,3.98,22.8,0,4.08,4.08,84,42,451.7,15.7,-2.6,D,698.8,5,14.509,2,1.87,177,150.23,-80.13735399,25.91212417,0,0,1,N,2.768698,63,63,11,18,18,154.1429,0,9999.99,4.09,4.217,2,9,22.2,0,22.20000076,36.19,1528.6724,1/30/21,12:53:59,21.84,54.58,36.19,1.161,8.47,-85.9,-4.6,-3.8,-2838,90.9,6.46,13.1,
25.91222777,-80.1374271,15:04.1,1/30/21,9,2.037,184.05,-7.056775287,0.95,186,175.81,0.53,-5.41,22.7,0,4.02,4.02,84,42,451.7,15.7,-2.6,D,698.8,5,13.645,2,1.88,177,147.6,-80.13735399,25.91212417,0,0,1,N,1.981972,62,62,11,26,26,150.7225,0,9999.99,4.03,4.157,2,9,22.2,0,22.20000076,36.21,1528.69438,1/30/21,12:54:00,21.84,54.61,36.21,1.168,8.51,-88,-3.1,-5.9,-1496,90.9,6.46,13.2,
25.91221875,-80.13742901,15:05.2,1/30/21,9,1.959,189.23,-7.056775287,1,179.6,169.36,1.74,7.53,22.8,0.01,4.08,4.08,84,42,451.7,15.7,-2.6,D,698.8,5,12.919,2,1.89,177,144.49,-80.13735399,25.91212417,0,0,1,N,1.165608,67,67,11,36,36,146.5206,0,9999.99,4.08,4.207,2,9,22.2,0,22.20000076,36.2,1528.6835,1/30/21,12:54:01,21.84,54.6,36.2,1.175,8.45,-84.6,-3.7,-2.9,-5393,90.9,6.46,13.1,
25.9122107,-80.13742919,15:06.2,1/30/21,9,1.941,184.91,-7.056775287,0.95,171,160.82,2.2,3.95,22.8,0,4.06,4.07,84,44,451.6,15.7,-2.7,D,673.4,5,12.212,2,1.87,178,141.99,-80.13735399,25.91212417,0,0,1,N,0.55645,70,70,11,55,55,142.7666,0,9999.99,4.08,4.207,2,9,22.2,0,22.20000076,36.2,1528.68363,1/30/21,12:54:02,21.83,54.6,36.2,1.172,8.47,-85.6,-3.9,-1.6,-5138,90.9,6.46,13.2,
25.9122019,-80.13742904,15:07.2,1/30/21,9,1.848,180.61,-7.056775287,0.95,163.2,153.19,2.43,5.9,22.8,0.01,4.05,4.05,84,44,451.6,15.7,-2.7,D,673.4,5,11.447,2,1.87,178,139.03,-80.13735399,25.91212417,0,0,1,N,7.46E-02,72,72,11,65,65,139.0866,0,9999.99,4.07,4.197,2,9,22.2,0,22.20000076,36.22,1528.70586,1/30/21,12:54:03,21.83,54.62,36.22,1.172,8.5,-87.3,-3.5,-1.3,-1734,90.9,6.46,13.4,
25.91219357,-80.13742724,15:08.2,1/30/21,9,1.83,173.28,-7.056775287,0.95,157.7,147.88,2.24,6.57,22.8,0,4.06,4.07,84,44,451.6,15.7,-2.7,D,673.4,5,10.64,2,1.88,178,136.49,-80.13735399,25.91212417,0,0,1,N,0.5531607,70,70,11,78,78,135.6907,0,9999.99,4.08,4.207,2,9,22.2,0,22.20000076,36.22,1528.7058,1/30/21,12:54:04,21.83,54.63,36.22,1.131,8.45,-84.4,-3.5,-2.6,-539,90.9,6.46,13.3,
25.91218561,-80.13742322,15:09.2,1/30/21,9,1.856,162.96,-7.056775287,0.95,152.4,142.8,1.65,4.81,22.8,0.01,4.09,4.1,84,44,451.6,15.7,-2.7,D,673.4,5,9.728,2,1.89,178,134.61,-80.13735399,25.91212417,0,0,1,N,0.8327059,67,67,11,90,90,133.6134,0,9999.99,4.11,4.237,2,9,22.2,0,22.20000076,36.21,1528.69464,1/30/21,12:54:05,21.83,54.61,36.21,1.134,8.47,-85.6,-3.4,-3.9,-255,90.9,6.46,13.1,
25.91217702,-80.13741784,15:10.2,1/30/21,9,2.087,156.41,-7.056775287,0.95,149.4,139.95,1.48,4.38,22.8,0.01,4.06,4.07,84,43,451.6,15.7,-2.7,D,680.2,5,8.679,2,1.94,178,132.62,-80.13735399,25.91212417,0,0,1,N,1.048321,66,66,11,96,96,132.0903,0,9999.99,4.08,4.207,2,9,22.2,0,22.20000076,36.22,1528.70612,1/30/21,12:54:06,21.83,54.63,36.22,1.145,8.46,-85.3,-3.6,-4.8,-3980,90.9,6.46,13.3,
25.91216948,-80.13741259,15:11.2,1/30/21,9,1.956,150.26,-7.056775287,0.95,146.7,137.39,0.68,1.76,22.7,0.01,4.09,4.1,84,43,451.6,15.7,-2.7,D,680.2,5,7.729,2,1.95,178,130.69,-80.13735399,25.91212417,0,0,1,N,1.198125,61,61,11,102,102,131.038,0,9999.99,4.1,4.227,2,9,22.2,0,22.20000076,36.21,1528.69493,1/30/21,12:54:07,21.83,54.62,36.21,1.148,8.45,-84.5,-3.6,-4,-1772,90.9,6.46,13.2,
25.91216244,-80.13740707,15:12.2,1/30/21,9,1.919,146.74,-7.056775287,0.95,145,135.79,0.85,4.68,22.8,0,4.07,4.07,84,43,451.6,15.7,-2.7,D,680.2,5,6.804,2,1.95,178,128.72,-80.13735399,25.91212417,0,0,1,N,1.288017,62,62,11,105,105,130.4095,0,9999.99,4.07,4.197,2,9,22.2,0,22.20000076,36.22,1528.70572,1/30/21,12:54:08,21.83,54.63,36.22,1.185,8.47,-85.7,-3.6,-5,-4695,90.9,6.46,13.3,
25.91215467,-80.13739947,15:13.3,1/30/21,9,2.052,142.81,-7.056775287,0.95,145.6,136.35,0.31,1.99,22.8,0.01,4.1,4.1,84,43,451.6,15.7,-2.7,D,678.6,5,5.674,2,1.96,178,126.71,-80.13735399,25.91212417,0,0,1,N,1.271875,60,60,11,105,105,130.5233,0,9999.99,4.1,4.227,2,9,22.2,0,22.20000076,36.22,1528.70572,1/30/21,12:54:09,21.84,54.63,36.22,1.182,8.47,-85.6,-3.8,-5.3,-5153,90.9,6.46,13.1,
25.91214569,-80.13739427,15:14.3,1/30/21,9,2.117,141.04,-7.056775287,0.95,144.9,135.69,0.49,4.94,22.8,0,4.11,4.11,84,43,451.6,15.7,-2.7,D,678.6,6,24.948,2,1.96,178,140.55,-80.13723579,25.91197244,0,0,1,N,1.950334,60,60,11,131,131,136.5024,0,9999.99,4.11,4.237,2,9,22.2,0,22.20000076,36.21,1528.6948,1/30/21,12:54:10,21.84,54.62,36.21,1.168,8.44,-84.2,-4.8,-2.8,-1289,90.9,6.46,13.3,
25.91213976,-80.13738734,15:15.3,1/30/21,9,1.71,139.39,-7.056775287,0.95,144.7,135.51,1,4.97,22.8,0,4.13,4.14,84,51,451.6,15.7,-3.2,D,571.5,6,23.998,2,1.94,178,140.83,-80.13723579,25.91197244,0,0,1,N,1.758987,61,61,11,129,129,136.6662,0,9999.99,4.14,4.267,2,9,22.2,0,22.20000076,36.2,1528.68343,1/30/21,12:54:11,21.84,54.6,36.2,1.178,8.47,-85.7,-3.7,-3,-1415,90.8,6.45,13.4,
25.91213278,-80.13738033,15:16.2,1/30/21,9,1.957,138.48,-7.056775287,0.95,145.8,136.54,0.65,3.24,22.8,0,4.13,4.13,84,51,451.6,15.7,-3.2,D,571.5,6,22.954,2,1.92,178,140.96,-80.13723579,25.91197244,0,0,1,N,1.626351,61,61,11,127,127,136.4471,0,9999.99,4.14,4.267,2,9,22.2,0,22.20000076,36.2,1528.68345,1/30/21,12:54:12,21.84,54.61,36.2,1.21,8.51,-87.8,-5.8,-6.3,-4793,90.8,6.45,13.2,
25.91212507,-80.13737463,15:17.2,1/30/21,9,1.925,139.76,-7.056775287,0.95,146.8,137.49,0.75,4.59,22.8,0,4.15,4.16,84,51,451.6,15.7,-3.2,D,571.5,6,21.929,2,1.9,178,140.71,-80.13723579,25.91197244,0,0,1,N,1.650807,61,61,11,118,118,135.2861,0,9999.99,4.16,4.287,2,9,22.2,0,22.20000076,36.22,1528.70549,1/30/21,12:54:13,21.84,54.63,36.22,1.173,8.46,-85.3,-3.9,-4.7,-1376,90.9,6.46,13.2,
25.91211839,-80.13736886,15:18.3,1/30/21,9,1.896,138.81,-7.056775287,0.95,147.4,138.05,0.9,4.84,22.9,0,4.16,4.17,84,51,451.6,15.7,-3.2,D,571.5,6,20.988,2,1.88,178,140.64,-80.13723579,25.91197244,0,0,1,N,1.604424,62,62,11,112,112,134.3457,0,9999.99,4.17,4.297,2,9,22.2,0,22.20000076,36.2,1528.68353,1/30/21,12:54:14,21.84,54.6,36.2,1.135,8.46,-85.4,-4.8,-4.6,-2901,90.9,6.46,13.3,
25.91211184,-80.13736267,15:19.3,1/30/21,9,1.842,139.4,-7.056775287,0.95,147.4,138.05,0.89,3.53,22.8,0,4.18,4.18,84,51,451.5,15.7,-3.2,D,572.3,6,20.033,2,1.87,178,140.69,-80.13723579,25.91197244,0,0,1,N,1.51293,62,62,11,112,112,134.2726,0,9999.99,4.19,4.317,2,9,22.2,0,22.20000076,36.2,1528.68337,1/30/21,12:54:15,21.85,54.61,36.2,1.169,8.51,-88.3,-3.8,-5.5,229,90.8,6.45,13.3,
25.91210439,-80.13735621,15:20.3,1/30/21,9,2.008,142.32,-7.056775287,0.95,147.6,138.24,1.17,5.86,22.8,0,4.17,4.17,84,51,451.5,15.7,-3.2,D,572.3,6,18.982,2,1.91,178,140.62,-80.13723579,25.91197244,0,0,1,N,1.458511,62,62,11,111,111,134.6493,0,9999.99,4.18,4.307,2,9,22.2,0,22.20000076,36.22,1528.7055,1/30/21,12:54:16,21.85,54.63,36.22,1.178,8.46,-85,-3.9,-1.5,-3584,90.9,6.46,13.3,
25.91209678,-80.13734948,15:21.3,1/30/21,9,1.905,140.84,-7.056775287,0.95,148.4,139,0.66,3.41,22.8,0,4.21,4.21,84,51,451.5,15.7,-3.2,D,572.3,6,17.901,2,1.88,178,140.57,-80.13723579,25.91197244,0,0,1,N,1.387378,61,61,11,112,112,135.1429,0,9999.99,4.22,4.347,2,9,22.2,0,22.20000076,36.2,1528.68346,1/30/21,12:54:17,21.85,54.61,36.2,1.196,8.47,-85.5,-4.4,0.6,-2090,90.8,6.45,13.2,
25.91209016,-80.1373432,15:22.3,1/30/21,9,1.904,139.94,-7.056775287,0.95,148.1,138.72,0.63,3.83,22.8,0,4.16,4.16,84,48,451.5,15.7,-3,D,616.2,6,16.934,2,1.88,178,140.62,-80.13723579,25.91197244,0,0,1,N,1.296049,61,61,11,115,115,135.779,0,9999.99,4.17,4.297,2,9,22.2,0,22.20000076,36.21,1528.69454,1/30/21,12:54:18,21.85,54.61,36.21,1.166,8.51,-88.2,-5,-0.9,-3844,90.9,6.46,13.2,
25.91208306,-80.13733717,15:23.3,1/30/21,9,1.831,142.77,-7.056775287,0.95,147.5,138.15,1.04,3.29,22.8,0,4.19,4.19,84,48,451.5,15.7,-3,D,616.2,6,15.941,2,1.89,178,140.5,-80.13723579,25.91197244,0,0,1,N,1.256194,63,63,11,118,118,136.0578,0,9999.99,4.2,4.327,2,9,22.2,0,22.20000076,36.2,1528.68354,1/30/21,12:54:19,21.85,54.61,36.2,1.157,8.46,-85.2,-3.1,-6.1,-1872,90.8,6.45,13.3,
25.91207657,-80.13733088,15:24.3,1/30/21,9,1.915,143.47,-7.056775287,0.95,148,138.62,0.6,6.26,22.8,0,4.17,4.17,84,47,451.5,15.7,-3,D,620.2,6,14.984,2,1.88,178,140.6,-80.13723579,25.91197244,0,0,1,N,1.15728,61,61,11,120,120,136.7499,0,9999.99,4.18,4.307,2,9,22.2,0,22.20000076,36.23,1528.71636,1/30/21,12:54:20,21.85,54.65,36.23,1.177,8.46,-85.3,-4.5,-6.7,-2927,90.8,6.45,13.2,
25.91206912,-80.13732476,15:25.3,1/30/21,9,1.988,144.07,-7.056775287,0.95,148.3,138.91,1.08,3.74,22.8,0,4.19,4.19,84,47,451.5,15.7,-3,D,620.2,6,13.955,2,1.9,178,140.38,-80.13723579,25.91197244,0,0,1,N,1.130515,63,63,11,119,119,136.9378,0,9999.99,4.2,4.327,2,9,22.2,0,22.20000076,36.21,1528.69431,1/30/21,12:54:21,21.85,54.62,36.21,1.225,8.52,-88.6,-5.3,-8.3,-3808,90.9,6.45,13.1,
25.91206253,-80.1373174,15:26.3,1/30/21,9,2.03,141.01,-7.056775287,0.95,147.2,137.87,1.12,3.16,22.9,0,4.22,4.22,84,47,451.5,15.7,-3,D,620.2,6,12.922,2,1.92,178,140.83,-80.13723579,25.91197244,0,0,1,N,0.9494402,64,64,11,128,128,138.2129,0,9999.99,4.23,4.357,2,9,22.2,0,22.20000076,36.22,1528.70535,1/30/21,12:54:22,21.85,54.63,36.22,1.174,8.45,-84.5,-4,-1.4,-3793,90.9,6.46,13.2,
25.91205567,-80.13731023,15:27.3,1/30/21,9,2.043,137.06,-7.056775287,0.95,149.1,139.66,1.03,3.89,22.8,0,4.22,4.22,84,47,451.5,15.7,-3,D,620.2,6,11.878,2,1.93,178,141.18,-80.13723579,25.91197244,0,0,1,N,0.7976806,62,62,11,124,124,139.287,0,9999.99,4.23,4.357,2,9,22.2,0,22.20000076,36.22,1528.70544,1/30/21,12:54:23,21.85,54.63,36.22,1.166,8.46,-85.2,-3.3,-6,-2592,91,6.46,13.2,
25.91204828,-80.13730318,15:28.3,1/30/21,9,1.987,137.28,-7.056775287,0.95,148.5,139.1,1.03,3.69,22.9,0,4.27,4.28,84,47,451.4,15.7,-3,D,618.5,6,10.796,2,1.91,178,141.37,-80.13723579,25.91197244,0,0,1,N,0.6933897,63,63,11,131,131,140.0274,0,9999.99,4.28,4.407,2,9,22.2,0,22.20000076,36.21,1528.69466,1/30/21,12:54:24,21.85,54.62,36.21,1.199,8.52,-88.8,-3.7,-5.1,-1761,91,6.46,13.2,
25.91204167,-80.13729804,15:29.3,1/30/21,9,1.899,141.58,-7.056775287,0.95,149.6,140.14,0.81,4.69,22.8,0,4.23,4.23,84,47,451.4,15.7,-3,D,618.5,6,9.901,2,1.9,178,141.03,-80.13723579,25.91197244,0,0,1,N,0.692528,62,62,11,127,127,140.0335,0,9999.99,4.24,4.367,2,9,22.2,0,22.20000076,36.23,1528.7167,1/30/21,12:54:25,21.85,54.64,36.23,1.202,8.44,-84.1,-4,-7.1,-1105,91,6.46,13.2,
25.91203532,-80.13729253,15:30.3,1/30/21,9,1.846,139.81,-7.056775287,0.95,149.8,140.33,0.67,4.12,22.8,0,4.23,4.23,84,47,451.4,15.7,-3,D,618.5,6,9.005,2,1.91,178,140.93,-80.13723579,25.91197244,0,0,1,N,0.6449404,61,61,11,129,129,140.372,0,9999.99,4.24,4.367,2,9,22.2,0,22.20000076,36.22,1528.70545,1/30/21,12:54:26,21.85,54.63,36.22,1.168,8.46,-85.1,-3.8,-6,-4088,90.9,6.46,13.3,
25.9120278,-80.13728669,15:31.3,1/30/21,9,1.909,141.8,-7.056775287,0.95,149.7,140.23,0.84,5.22,22.9,0,4.28,4.29,84,47,451.4,15.7,-3,D,617.4,6,7.989,2,1.92,178,140.41,-80.13723579,25.91197244,0,0,1,N,0.6459943,63,63,11,129,129,140.3645,0,9999.99,4.29,4.417,2,9,22.2,0,22.20000076,36.21,1528.69441,1/30/21,12:54:27,21.85,54.62,36.21,1.167,8.53,-89,-3.5,-5.4,317,90.9,6.46,13.2,
25.91202038,-80.13728112,15:32.3,1/30/21,9,2.002,142.11,-7.056775287,0.95,150.7,141.18,0.61,3.6,22.9,0,4.27,4.27,84,47,451.4,15.7,-3,D,617.4,6,6.998,2,1.92,178,139.62,-80.13723579,25.91197244,0,0,1,N,0.6618103,60,60,11,121,121,140.2518,0,9999.99,4.28,4.407,2,9,22.2,0,22.20000076,36.22,1528.70543,1/30/21,12:54:28,21.85,54.63,36.22,1.162,8.51,-88.2,-4.4,-2.9,-3279,90.9,6.46,13.3,
25.91201256,-80.13727492,15:33.3,1/30/21,9,2.008,143.67,-7.056775287,0.95,151.6,142.04,0.97,4.29,22.8,0,4.26,4.27,84,47,451.4,15.7,-3,D,617.4,6,5.934,2,1.92,178,138.74,-80.13723579,25.91197244,0,0,1,N,0.6520338,63,63,11,120,120,140.3215,0,9999.99,4.27,4.397,2,9,22.2,0,22.20000076,36.23,1528.71641,1/30/21,12:54:29,21.85,54.64,36.23,1.186,8.45,-84.8,-4.6,-4.1,-3662,90.9,6.46,13.1,
25.91200445,-80.13726949,15:34.3,1/30/21,9,1.848,143.79,-7.056775287,0.95,151.8,142.23,1.02,4.98,22.8,0,4.29,4.29,84,47,451.4,15.7,-3,D,617.4,6,4.902,2,1.93,178,136.56,-80.13723579,25.91197244,0,0,1,N,0.7235746,63,63,11,117,117,139.8131,0,9999.99,4.3,4.427,2,9,22.2,0,22.20000076,36.22,1528.70559,1/30/21,12:54:30,21.85,54.63,36.22,1.179,8.5,-87.4,-5.1,-5.7,-2761,90.9,6.46,13.2,
25.91199824,-80.13726537,15:35.3,1/30/21,9,1.947,145.17,-7.056775287,0.95,151.8,142.23,0.6,4.68,22.8,0,4.31,4.31,84,47,451.4,15.7,-3,D,623.1,7,16.054,2,1.94,178,153.54,-80.13719384,25.91186899,0,0,1,N,1.837687,59,59,11,159,159,150.5753,0,9999.99,4.32,4.447,2,9,22.2,0,22.20000076,36.21,1528.69449,1/30/21,12:54:31,21.85,54.62,36.21,1.173,8.52,-88.5,-4.7,-1.8,-3976,90.8,6.45,13.2,
25.91199039,-80.13726072,15:36.3,1/30/21,9,1.87,147.41,-7.056775287,0.95,154.4,144.71,0.68,6.81,22.7,0,4.31,4.31,84,47,451.4,15.7,-3,D,623.1,7,15.066,2,1.94,178,153.64,-80.13719384,25.91186899,0,0,1,N,1.693918,62,62,11,152,152,150.5798,0,9999.99,4.32,4.447,2,9,22.2,0,22.20000076,36.23,1528.71635,1/30/21,12:54:32,21.85,54.64,36.23,1.162,8.46,-84.9,-3.4,-6.6,-2464,90.8,6.45,13.3,
25.91198333,-80.13725528,15:37.3,1/30/21,9,1.908,146.34,-7.056775287,0.95,156,146.24,1.08,2.86,22.8,0,4.31,4.31,84,47,451.4,15.7,-3,D,623.1,7,14.121,2,1.93,178,154.21,-80.13719384,25.91186899,0,0,1,N,1.44216,63,63,11,147,147,151.2975,0,9999.99,4.31,4.437,2,9,22.2,0,22.20000076,36.22,1528.70535,1/30/21,12:54:33,21.85,54.63,36.22,1.16,8.47,-85.6,-2.8,-5.1,-2661,90.8,6.45,13.1,
25.91197543,-80.13725019,15:38.3,1/30/21,9,1.973,147.94,-7.056775287,0.95,160.2,150.29,0.9,4.49,22.8,0,4.32,4.32,84,47,451.3,15.7,-2.9,D,627.2,7,13.11,2,1.9,178,154.54,-80.13719384,25.91186899,0,0,1,N,1.257015,62,62,11,133,133,151.709,0,9999.99,4.33,4.457,2,9,22.2,0,22.20000076,36.23,1528.71638,1/30/21,12:54:34,21.85,54.64,36.23,1.194,8.48,-86.1,-4,-2.7,-2543,90.8,6.45,13.2,
25.91196829,-80.13724607,15:39.3,1/30/21,9,1.735,148.41,-7.056775287,0.95,161.5,151.54,1.02,2.78,22.8,0,4.34,4.34,84,47,451.3,15.7,-2.9,D,627.2,7,12.215,2,1.89,178,154.68,-80.13719384,25.91186899,0,0,1,N,1.141309,63,63,11,128,128,151.9041,0,9999.99,4.35,4.477,2,9,22.2,0,22.20000076,36.22,1528.70534,1/30/21,12:54:35,21.85,54.63,36.22,1.173,8.45,-84.4,-4.1,0.3,-1120,90.8,6.45,13.2,
25.91196015,-80.13724189,15:40.3,1/30/21,9,1.931,152.48,-7.056775287,0.95,161.8,151.83,1.35,5.28,22.8,0,4.28,4.28,84,47,451.3,15.7,-2.9,D,627.2,7,11.219,2,1.88,179,154.63,-80.13719384,25.91186899,0,0,1,N,1.060589,65,65,11,129,129,152.4094,0,9999.99,4.29,4.417,2,9,22.2,0,22.20000076,36.23,1528.71653,1/30/21,12:54:36,21.85,54.64,36.23,1.209,8.47,-85.7,-3.7,-3.5,-1570,90.8,6.45,13.3,
25.91195164,-80.13723754,15:41.3,1/30/21,9,1.826,155.56,-7.056775287,0.95,162.9,152.9,1.55,4.72,22.8,0.01,4.27,4.27,84,47,451.3,15.7,-2.9,D,627.2,7,10.177,2,1.89,179,154.56,-80.13719384,25.91186899,0,0,1,N,0.9711797,66,66,11,128,128,153.0396,0,9999.99,4.28,4.407,2,9,22.2,0,22.20000076,36.23,1528.71679,1/30/21,12:54:37,21.85,54.64,36.23,1.131,8.46,-85.2,-3.8,-5,-1159,90.8,6.45,13.1,
25.91194329,-80.1372337,15:42.3,1/30/21,9,1.94,155.97,-7.056775287,0.95,164.1,154.07,0.82,5.94,22.8,0,4.31,4.31,84,49,451.3,15.7,-3.1,D,595.7,7,9.174,2,1.88,179,154.24,-80.13719384,25.91186899,0,0,1,N,0.9268991,62,62,11,124,124,153.3519,0,9999.99,4.32,4.447,2,9,22.2,0,22.20000076,36.21,1528.69474,1/30/21,12:54:38,21.85,54.62,36.21,1.149,8.45,-84.8,-3.2,-3.9,-3076,91,6.46,13.2,
25.91193502,-80.13723036,15:43.3,1/30/21,9,1.917,156.79,-7.056775287,0.95,164.1,154.07,0.89,4.24,22.8,0,4.31,4.32,84,49,451.3,15.7,-3.1,D,595.7,7,8.2,2,1.92,179,153.55,-80.13719384,25.91186899,0,0,1,N,0.9283565,62,62,11,124,124,153.3419,0,9999.99,4.32,4.447,2,9,22.2,0,22.20000076,36.23,1528.71658,1/30/21,12:54:39,21.84,54.64,36.23,1.186,8.47,-85.5,-3.7,-6.2,-2176,91,6.46,13.3,
25.9119272,-80.13722661,15:44.4,1/30/21,9,1.984,156.34,-7.056775287,0.95,165.5,155.43,0.71,4.46,22.9,0,4.3,4.3,84,49,451.3,15.7,-3.1,D,595.7,7,7.254,2,1.9,179,153.14,-80.13719384,25.91186899,0,0,1,N,0.8713952,61,61,11,120,120,153.7449,0,9999.99,4.31,4.437,2,9,22.2,0,22.20000076,36.22,1528.70554,1/30/21,12:54:40,21.84,54.62,36.22,1.142,8.46,-85.3,-3.9,-4.9,-4134,90.9,6.46,13.4,
25.91191825,-80.13722267,15:45.4,1/30/21,9,1.988,157.84,-7.056775287,0.95,166.3,156.21,1.35,3.1,22.8,0,4.33,4.33,84,48,451.2,15.7,-3,D,611,7,6.191,2,1.92,179,152.24,-80.13719384,25.91186899,0,0,1,N,0.8402798,64,64,11,118,118,153.9646,0,9999.99,4.34,4.467,2,9,22.2,0,22.20000076,36.22,1528.70548,1/30/21,12:54:41,21.85,54.63,36.22,1.173,8.5,-87.5,-4,-6.3,-3387,90.9,6.46,13.1,
25.91190852,-80.13721852,15:46.4,1/30/21,9,2.035,159.41,-7.056775287,0.95,167.2,157.09,0.89,5.32,22.8,0.01,4.33,4.33,84,48,451.2,15.7,-3,D,611,8,16.511,2,1.98,179,153.28,-80.13714428,25.91177589,0,0,1,N,0.3223261,62,62,11,110,110,152.8867,0,9999.99,4.34,4.467,2,9,22.2,0,22.20000076,36.22,1528.70569,1/30/21,12:54:42,21.85,54.63,36.22,1.19,8.46,-85.3,-4.6,-4.2,-2518,90.9,6.46,13.3,
25.91189969,-80.13721542,15:47.4,1/30/21,9,1.918,160.83,-7.056775287,0.95,166,155.92,0.82,2.84,22.8,0,4.34,4.35,84,48,451.2,15.7,-3,D,611,8,15.496,2,1.99,179,152.67,-80.13714428,25.91177589,0,0,1,N,0.4697471,62,62,11,111,111,152.0108,0,9999.99,4.35,4.477,2,9,22.2,0,22.20000076,36.21,1528.69468,1/30/21,12:54:44,21.85,54.62,36.21,1.196,8.51,-88,-4.3,-6.3,-3027,90.9,6.46,13.1,
25.9118905,-80.13721211,15:48.4,1/30/21,9,2.133,160.87,-7.056775287,0.95,166.5,156.41,0.89,4.21,22.8,0.01,4.36,4.37,84,48,451.2,15.7,-3,D,611,8,14.438,2,2.03,179,151.97,-80.13714428,25.91177589,0,0,1,N,0.6119955,63,63,11,104,104,151.0054,0,9999.99,4.37,4.497,2,9,22.2,0,22.20000076,36.21,1528.69468,1/30/21,12:54:44,21.85,54.62,36.21,1.196,8.51,-88,-4.3,-6.3,-3027,90.9,6.46,13.1,
25.91188086,-80.13720824,15:49.4,1/30/21,9,2.075,160.41,-7.056775287,0.95,166.6,156.51,1.15,2.11,22.8,0.01,4.32,4.33,84,44,451.2,15.7,-2.8,D,662.2,8,13.311,2,2.02,179,151.27,-80.13714428,25.91177589,0,0,1,N,0.7245983,64,64,11,101,101,149.9931,0,9999.99,4.33,4.457,2,9,22.2,0,22.20000076,36.22,1528.7062,1/30/21,12:54:45,21.84,54.63,36.22,1.185,8.46,-84.9,-4.2,-4.2,-1724,90.9,6.46,13.2,
25.91187179,-80.13720438,15:50.5,1/30/21,9,2.137,160.03,-7.056775287,0.95,166.3,156.21,1.11,3.55,22.9,0,4.33,4.33,84,44,451.2,15.7,-2.8,D,662.2,8,12.241,2,2.05,179,150.59,-80.13714428,25.91177589,0,0,1,N,0.8121842,63,63,11,99,99,149.2623,0,9999.99,4.34,4.467,2,9,22.2,0,22.20000076,36.22,1528.70553,1/30/21,12:54:47,21.85,54.63,36.22,1.181,8.51,-88.4,-4,-7.8,-385,90.8,6.45,13.2,
25.91186267,-80.137202,15:51.5,1/30/21,9,2.155,158.64,-7.056775287,0.95,165.4,155.33,0.91,0.96,22.8,0,4.36,4.37,84,44,451.2,15.7,-2.8,D,662.2,8,11.251,2,2.05,179,149.39,-80.13714428,25.91177589,0,0,1,N,0.9835193,62,62,11,95,95,147.4064,0,9999.99,4.37,4.497,2,9,22.2,0,22.20000076,36.21,1528.69467,1/30/21,12:54:48,21.85,54.62,36.21,1.176,8.45,-84.5,-3,-7.2,-3420,90.8,6.45,13.3,
25.91185068,-80.13719713,15:52.8,1/30/21,9,2.089,160.02,-7.056775287,0.95,164.1,154.07,0.9,4.18,22.8,0,4.36,4.37,84,43,451.2,15.7,-2.7,D,688.7,8,9.854,2,2.06,179,147.56,-80.13714428,25.91177589,0,0,1,N,1.177746,62,62,11,95,95,146.0396,0,9999.99,4.37,4.497,2,9,22.2,0,22.20000076,36.21,1528.69467,1/30/21,12:54:48,21.85,54.62,36.21,1.176,8.45,-84.5,-3,-7.2,-3420,90.8,6.45,13.3,
25.91184024,-80.13719277,15:53.9,1/30/21,9,2.029,159.18,-7.056775287,0.95,163.6,153.58,0.91,2.42,22.8,0.01,4.36,4.37,84,43,451.2,15.7,-2.7,D,688.7,8,8.644,2,2.06,179,145.87,-80.13714428,25.91177589,0,0,1,N,1.286983,62,62,11,94,94,145.2755,0,9999.99,4.37,4.497,2,9,22.2,0,22.20000076,36.21,1528.69447,1/30/21,12:54:49,21.85,54.62,36.21,1.183,8.46,-85.1,-3.8,-5.7,-2633,90.7,6.45,13.2,
25.9118314,-80.13718962,15:55.0,1/30/21,9,2.053,158.92,-7.056775287,0.95,162.2,152.22,0.44,2.42,22.8,0,4.34,4.34,84,43,451.2,15.7,-2.7,D,686.5,8,7.66,2,2.06,179,143.69,-80.13714428,25.91177589,0,0,1,N,1.428587,60,60,11,95,95,144.2894,0,9999.99,4.34,4.467,2,9,22.2,0,22.20000076,36.21,1528.69475,1/30/21,12:54:50,21.85,54.62,36.21,1.187,8.53,-88.9,-4.5,-6.9,-1976,90.7,6.44,13.2,
25.91182356,-80.13718614,15:56.0,1/30/21,9,2.069,155.82,-7.056775287,0.95,161.1,151.16,1.16,2.95,22.8,0,4.35,4.35,84,43,451.2,15.7,-2.7,D,686.5,8,6.754,2,2.05,179,141.69,-80.13714428,25.91177589,0,0,1,N,1.492665,64,64,11,96,96,143.8462,0,9999.99,4.35,4.477,2,9,22.2,0,22.20000076,36.22,1528.7055,1/30/21,12:54:52,21.84,54.63,36.22,1.238,8.45,-84.8,-2.8,-7,-3302,90.7,6.44,13.3,
25.91181588,-80.13718285,15:57.0,1/30/21,9,1.895,155.16,-7.056775287,0.95,160,150.09,1.11,2.21,22.8,0,4.29,4.29,84,43,451.2,15.7,-2.7,D,686.5,8,5.888,2,2.05,179,139.06,-80.13714428,25.91177589,0,0,1,N,1.570091,64,64,11,100,100,143.31,0,9999.99,4.29,4.417,2,9,22.2,0,22.20000076,36.22,1528.7055,1/30/21,12:54:52,21.84,54.63,36.22,1.238,8.45,-84.8,-2.8,-7,-3302,90.7,6.44,13.3,
25.91180743,-80.13717875,15:58.0,1/30/21,9,2.103,154.96,-7.056775287,0.95,158.9,149.03,0.55,2.58,22.8,0,4.32,4.33,84,42,451.1,15.7,-2.6,D,701.9,8,4.917,2,2.06,179,135.49,-80.13714428,25.91177589,0,0,1,N,1.608949,60,60,11,103,103,143.0428,0,9999.99,4.33,4.457,2,9,22.2,0,22.20000076,36.21,1528.6944,1/30/21,12:54:53,21.84,54.62,36.21,1.191,8.51,-87.8,-3.1,-3.5,-2664,90.7,6.44,13.2,
25.91179857,-80.13717414,15:59.0,1/30/21,9,1.97,154.26,-7.056775287,0.95,158.7,148.84,0.4,2.97,22.8,0,4.35,4.36,84,42,451.1,15.7,-2.6,D,701.9,9,14.798,2,2.09,179,166.84,-80.13714046,25.91166899,0,0,1,N,2.962069,59,59,11,180,180,161.7765,0,9999.99,4.36,4.487,2,9,22.2,0,22.20000076,36.23,1528.71682,1/30/21,12:54:55,21.84,54.64,36.23,1.188,8.45,-84.8,-2.8,-3.2,-1976,90.6,6.44,13.2,
25.91178952,-80.13716895,16:00.0,1/30/21,9,2.139,153.59,-7.056775287,0.95,163,153,0.24,6.54,22.7,0,4.36,4.36,84,42,451.1,15.7,-2.6,D,701.9,9,13.702,2,2.1,179,168,-80.13714046,25.91166899,0,0,1,N,2.468861,59,59,11,172,172,163.2052,0,9999.99,4.36,4.487,2,9,22.2,0,22.20000076,36.23,1528.71682,1/30/21,12:54:55,21.84,54.64,36.23,1.188,8.45,-84.8,-2.8,-3.2,-1976,90.6,6.44,13.2,
25.91177972,-80.13716377,16:01.0,1/30/21,9,2.221,151.76,-7.056775287,0.95,164,153.97,1.01,1.49,22.7,0,4.36,4.37,84,42,451.1,15.7,-2.6,D,701.9,9,12.532,2,2.08,179,169.28,-80.13714046,25.91166899,0,0,1,N,1.987535,63,63,11,172,172,165.3262,0,9999.99,4.37,4.497,2,9,22.2,0,22.20000076,36.22,1528.70555,1/30/21,12:54:56,21.84,54.63,36.22,1.217,8.47,-85.6,-4.4,-4.5,-727,90.6,6.44,13.3,
25.91177197,-80.1371608,16:02.0,1/30/21,9,1.967,153.98,-7.056775287,0.95,170.1,159.94,0.91,3.57,22.8,0.01,4.37,4.38,84,40,451.1,15.7,-2.5,D,733.1,9,11.63,2,2.08,179,169.93,-80.13714046,25.91166899,0,0,1,N,1.705762,62,62,11,152,152,166.1225,0,9999.99,4.38,4.507,2,9,22.2,0,22.20000076,36.24,1528.72767,1/30/21,12:54:58,21.85,54.66,36.24,1.21,8.45,-84.3,-3.5,-7.5,-4467,90.6,6.44,13.3,
25.91176297,-80.13715718,16:03.0,1/30/21,9,1.985,157.62,-7.056775287,0.95,172.8,162.6,1.17,0.71,22.8,0,4.36,4.37,84,40,451.1,15.7,-2.5,D,733.1,9,10.583,2,2.05,179,170.91,-80.13714046,25.91166899,0,0,1,N,1.369511,65,65,11,156,156,168.4465,0,9999.99,4.37,4.497,2,9,22.2,0,22.20000076,36.23,1528.71696,1/30/21,12:54:59,21.85,54.64,36.23,1.204,8.47,-85.6,-2.1,-5.1,-1342,90.7,6.44,13.1,
25.91175165,-80.13715477,16:04.2,1/30/21,9,1.872,160.29,-7.056775287,0.95,176.8,166.57,1.45,4.15,22.8,0,4.35,4.35,84,40,451.1,15.7,-2.5,D,733.1,9,9.302,2,2.03,179,171.15,-80.13714046,25.91166899,0,0,1,N,1.198714,64,64,11,140,140,169.6373,0,9999.99,4.36,4.487,2,9,22.2,0,22.20000076,36.23,1528.71662,1/30/21,12:55:00,21.85,54.64,36.23,1.205,8.46,-85.4,-5.2,-5.7,-6462,90.6,6.44,13.3,
25.91174417,-80.13715415,16:05.2,1/30/21,9,1.646,163,-7.056775287,0.95,178.6,168.36,0.98,2.42,22.8,0,4.37,4.37,84,41,451,15.7,-2.6,D,720.4,9,8.471,2,2.05,179,170.7,-80.13714046,25.91166899,0,0,1,N,1.122038,63,63,11,137,137,170.1752,0,9999.99,4.38,4.507,2,9,22.2,0,22.20000076,36.23,1528.71648,1/30/21,12:55:01,21.85,54.65,36.23,1.179,8.45,-84.4,-3.7,-5.8,-1373,90.5,6.43,13.2,
25.91173584,-80.13715349,16:06.2,1/30/21,9,1.849,171.35,-7.056775287,0.95,181.3,171.07,0.38,2.47,22.8,0,4.36,4.37,84,41,451,15.7,-2.6,D,720.4,9,7.546,2,2.04,179,170.06,-80.13714046,25.91166899,0,0,1,N,1.07689,59,59,11,125,125,170.4928,0,9999.99,4.37,4.497,2,9,22.2,0,22.20000076,36.23,1528.71666,1/30/21,12:55:02,21.85,54.65,36.23,1.144,8.47,-85.5,-4.3,-3.4,-1334,90.6,6.43,13.3,
25.91172692,-80.13715319,16:07.2,1/30/21,9,1.909,174.67,-7.056775287,0.95,181.7,171.47,0.03,4.17,22.8,0.01,4.37,4.38,84,41,451,15.7,-2.6,D,720.4,9,6.566,2,2.06,179,168.82,-80.13714046,25.91166899,0,0,1,N,1.077779,57,57,11,123,123,170.486,0,9999.99,4.38,4.507,2,9,22.2,0,22.20000076,36.25,1528.73882,1/30/21,12:55:03,21.86,54.66,36.25,1.151,8.46,-85.4,-3.6,-6,-3115,90.6,6.43,13.1,
25.911718,-80.13715274,16:08.2,1/30/21,9,2.058,176,-7.056775287,0.95,181.9,171.67,0.74,2.33,22.8,0,4.37,4.37,84,41,451,15.7,-2.6,D,720.4,9,5.587,2,2.07,179,167.3,-80.13714046,25.91166899,0,0,1,N,1.067361,61,61,11,123,123,170.5587,0,9999.99,4.38,4.507,2,9,22.2,0,22.20000076,36.22,1528.70539,1/30/21,12:55:04,21.86,54.63,36.22,1.196,8.5,-87.7,-2.6,-4.1,-2163,90.5,6.43,13.4,
25.91170782,-80.13715189,16:09.2,1/30/21,9,2.063,175.55,-7.056775287,0.95,183,172.78,0.44,4.31,22.8,0,4.35,4.36,84,41,451,15.7,-2.6,D,712.9,9,4.467,2,2.08,179,165.17,-80.13714046,25.91166899,0,0,1,N,1.017875,60,60,11,122,122,170.9069,0,9999.99,4.36,4.487,2,9,22.2,0,22.20000076,36.22,1528.70538,1/30/21,12:55:05,21.86,54.64,36.22,1.185,8.46,-85.3,-2.9,-3.6,-4550,90.5,6.43,13.1,
25.91169698,-80.13715162,16:10.2,1/30/21,9,2.08,174.69,-7.056775287,0.95,183.3,173.08,0.69,2.27,22.8,0,4.36,4.36,84,41,451,15.7,-2.6,D,712.9,10,24.827,2,2.09,179,188.01,-80.13718622,25.91147589,0,0,1,N,1.777795,61,61,11,168,168,183.283,0,9999.99,4.36,4.487,2,9,22.2,0,22.20000076,36.24,1528.72748,1/30/21,12:55:06,21.86,54.66,36.24,1.198,8.47,-85.5,-4.2,-5.8,-987,90.6,6.43,13.3,
25.91168778,-80.13715222,16:11.2,1/30/21,9,2.039,177.79,-7.056775287,0.95,188.5,178.34,0.52,3.09,22.8,0,4.33,4.33,84,41,451,15.7,-2.6,D,712.9,10,23.806,2,2.08,179,188.21,-80.13718622,25.91147589,0,0,1,N,1.612271,60,60,11,146,146,183.1821,0,9999.99,4.33,4.457,2,9,22.2,0,22.20000076,36.23,1528.71667,1/30/21,12:55:07,21.87,54.64,36.23,1.196,8.52,-88.4,-3.2,-2.8,-3414,90.6,6.44,13.3,
25.91167811,-80.13715185,16:12.2,1/30/21,9,2.129,176.64,-7.056775287,0.95,188,177.83,0.83,3.7,22.8,0,4.34,4.35,84,40,451,15.7,-2.5,D,725,10,22.747,2,2.08,179,188.69,-80.13718622,25.91147589,0,0,1,N,1.357644,62,62,11,150,150,183.5522,0,9999.99,4.35,4.477,2,9,22.2,0,22.20000076,36.24,1528.72768,1/30/21,12:55:08,21.87,54.65,36.24,1.202,8.46,-85,-3.4,-2.9,-2525,90.7,6.44,13.3,
25.91166884,-80.13715246,16:13.2,1/30/21,9,1.962,179.17,-7.056775287,0.95,192.8,182.73,0.69,2.86,22.8,0,4.33,4.34,84,40,451,15.7,-2.5,D,725,10,21.719,2,2.06,179,188.94,-80.13718622,25.91147589,0,0,1,N,1.196259,62,62,11,133,133,183.519,0,9999.99,4.34,4.467,2,9,22.2,0,22.20000076,36.25,1528.73879,1/30/21,12:55:09,21.87,54.67,36.25,1.178,8.46,-85.4,-2.3,-7.9,-1894,90.6,6.43,13.1,
25.91165844,-80.13715377,16:14.3,1/30/21,9,2.096,183.19,-7.056775287,0.95,194.7,184.67,1.16,1.71,22.9,0,4.31,4.31,84,40,451,15.7,-2.5,D,725,10,20.557,2,2.06,179,189.08,-80.13718622,25.91147589,0,0,1,N,1.097256,65,65,11,126,126,184.2219,0,9999.99,4.32,4.447,2,9,22.2,0,22.20000076,36.22,1528.70568,1/30/21,12:55:10,21.87,54.63,36.22,1.23,8.52,-88.9,-2.6,-2.5,-2791,90.7,6.44,13.3,
25.91164886,-80.13715555,16:15.3,1/30/21,9,1.951,186.46,-7.056775287,0.95,195.7,185.7,0.67,2.69,22.8,0,4.28,4.28,84,40,451,15.7,-2.5,D,725,10,19.477,2,2.07,179,189.06,-80.13718622,25.91147589,0,0,1,N,1.023221,61,61,11,123,123,184.7441,0,9999.99,4.29,4.417,2,9,22.2,0,22.20000076,36.23,1528.71645,1/30/21,12:55:11,21.87,54.65,36.23,1.147,8.45,-84.7,-4.4,-10.7,-2292,90.7,6.44,13.4,
25.91164122,-80.13715784,16:16.3,1/30/21,9,1.897,189.33,-7.056775287,0.95,196.8,186.83,0.67,2.52,22.8,0,4.24,4.25,84,41,450.9,15.7,-2.6,D,709.3,10,18.602,2,2.05,179,188.78,-80.13718622,25.91147589,0,0,1,N,1.066412,61,61,11,117,117,184.4398,0,9999.99,4.25,4.377,2,9,22.2,0,22.20000076,36.23,1528.71649,1/30/21,12:55:12,21.88,54.64,36.23,1.182,8.46,-85.2,-2.5,-5,-2409,90.7,6.44,13.3,
