Latitude,Longitude,Time,Date,Number of Sats,GPS Speed (Kn),GPS True Heading,GPS Magnetic Variation,HDOP,C Magnetic Heading,C True Heading,Pitch Angle,Roll Angle,C Inside Temp (c),DFS Depth (m),DTB Height (m),Total Water Column (m),Batt Percent,Power Watts,Watt-Hours,Batt Volts,Batt Ampers,Batt State,Time to Empty,Current Step,Dist To Next (m),Next Speed (kn),Vehicle Speed (kn),Motor Speed CMD,Next Heading,Next Long,Next Lat,Next Depth (m),Depth Goal (m),Vehicle State,Error State,Distance to Track (m),Fin Pitch R,Fin Pitch L,Pitch Goal,Fin Yaw T,Fin Yaw B,Yaw Goal,Fin Roll,DVL-Depth (m),DVL -Altitude (m),DVL -Water Column (m),DVL-FixType,DVL-FixQuality,DVL-Temperature,Conductivity (mmhos/cm),Temperature (c),Salinity (ppt),Sound Speed (m/s),Date m/d/y   ,Time hh:mm:ss,Temp C,SpCond mS/cm,Sal ppt,Depth feet,pH,pH mV,Turbid+ NTU,Chl ug/L,BGA-PC cells/mL,ODOsat %,ODO mg/L,Battery volts,ROSEM Command Type
25.91275467,-80.13788367,54:57.6,2/13/21,9,0.089,226.12,-7.060533745,1.15,92,86.47,1.06,-5.59,29.6,0,2.43,2.43,58,22,317.4,14.8,-1.5,D,872,0,7.364,1,2,128,68.11,-80.13781535,25.91277935,0,0,1,N,2.047172,63,63,11,63,63,70.5295,0,9999.99,2.44,2.567,2,9,27,0,27.10000038,33.42,1537.54008,2/13/21,15:33:45,25.19,50.93,33.42,0.946,8.26,-74.6,-2.7,-0.9,-3032,86.7,5.9,13.1,
25.91275501,-80.13788366,54:58.6,2/13/21,9,0.052,226.12,-7.060533745,1.15,92.9,87.32,1.16,-5.81,29.5,0,2.43,2.43,58,22,317.4,14.8,-1.5,D,872,0,7.349,1,0.07,160,68.39,-80.13781535,25.91277935,0,0,1,N,2.047172,64,64,11,51,51,68.41553,0,9999.99,2.44,2.567,2,9,27,0,27,33.42,1537.31363,2/13/21,15:33:46,25.19,50.94,33.42,0.928,8.26,-74.5,-2.5,-2,-2491,86.1,5.86,13,
25.9127545,-80.13788283,54:59.6,2/13/21,9,0.14,226.12,-7.060533745,1.15,94.6,88.91,0.86,-1.37,29.6,0.03,2.41,2.44,58,22,317.4,14.8,-1.5,D,872,0,7.294,1,0.07,160,67.73,-80.13781535,25.91277935,0,0,1,N,2.047172,63,63,11,45,45,67.76633,0,9999.99,2.42,2.547,2,9,27,0,27,33.41,1537.3056,2/13/21,15:33:47,25.19,50.92,33.41,0.914,8.26,-74.3,-2.6,-5.5,-1582,85.4,5.82,13.1,
25.91275583,-80.13787966,55:00.6,2/13/21,9,0.287,226.12,-7.060533745,1.21,98.1,92.19,0.24,-4.94,29.6,0.05,2.42,2.47,58,32,317.4,14.8,-2.1,D,609.3,0,6.944,1,0.2,160,67.87,-80.13781535,25.91277935,0,0,1,N,2.047172,58,58,11,30,30,67.95327,0,9999.99,2.42,2.547,2,9,27,0,27,33.42,1537.31761,2/13/21,15:33:48,25.19,50.94,33.42,0.942,8.26,-74,-2.9,-2.1,-6040,84.9,5.78,12.9,
25.91275579,-80.13787562,55:01.6,2/13/21,9,0.635,226.12,-7.060533745,1.15,99.8,93.78,0.89,-5.14,29.6,0.03,2.42,2.45,58,32,317.4,14.8,-2.1,D,609.3,0,6.573,1,0.34,160,66.51,-80.13781535,25.91277935,0,0,1,N,2.047172,62,62,11,22,22,66.62676,0,9999.99,2.43,2.557,2,9,27,0,27,33.43,1537.32768,2/13/21,15:33:49,25.19,50.94,33.43,1.04,8.25,-73.8,-1.6,-4,-4415,84.3,5.74,12.9,
25.91275744,-80.1378714,55:02.6,2/13/21,9,0.624,226.12,-7.060533745,1.15,99.2,93.22,0.84,-4.89,29.7,0.03,2.46,2.49,58,32,317.4,14.8,-2.1,D,609.3,1,30.329,1,0.49,160,151.7,-80.13772766,25.91251728,0,0,1,N,6.095109,62,62,11,250,250,125.9465,0,9999.99,2.47,2.597,2,9,27,0,27,33.42,1537.31619,2/13/21,15:33:50,25.19,50.93,33.42,0.945,8.25,-73.8,-2,-2.2,-1008,83.7,5.7,13,
25.91275641,-80.13786494,55:03.6,2/13/21,9,0.918,152.38,-7.060533745,1.15,100.5,94.43,0.97,1.86,29.7,0.02,2.5,2.52,58,32,317.4,14.8,-2.1,D,609.3,1,29.926,1,0.67,160,152.69,-80.13772766,25.91251728,0,0,1,N,5.517694,63,63,11,250,250,128.6658,0,9999.99,2.51,2.637,2,9,27,0,27,33.41,1537.30457,2/13/21,15:33:51,25.19,50.92,33.41,0.961,8.27,-75,-2.3,-0.7,-987,83.3,5.67,13,
25.91275605,-80.13785845,55:04.6,2/13/21,9,1.175,129.88,-7.060533745,1.16,105.3,98.89,1.85,-4.77,29.6,0.02,2.53,2.55,58,31,317.4,14.8,-2.1,D,613.5,1,29.598,1,0.85,160,153.77,-80.13772766,25.91251728,0,0,1,N,4.920649,65,65,11,250,250,131.6632,0,9999.99,2.54,2.667,2,9,26.9,0,27,33.41,1537.3044,2/13/21,15:33:52,25.18,50.92,33.41,0.959,8.24,-73.4,-2,-1.5,-1997,82.7,5.64,13.1,
25.91275576,-80.13785381,55:05.6,2/13/21,9,0.764,116.01,-7.060533745,1.16,110.1,103.34,-0.34,-3.61,29.7,0.03,2.6,2.63,58,31,317.4,14.8,-2.1,D,613.5,1,29.366,1,0.88,160,154.56,-80.13772766,25.91251728,0,0,1,N,4.491748,55,55,11,249,249,133.9452,0,9999.99,2.6,2.727,2,9,26.9,0,26.89999962,33.42,1537.08875,2/13/21,15:33:53,25.18,50.93,33.42,0.953,8.24,-73.2,-1.1,-0.5,-1055,82.3,5.61,13.1,
25.91275479,-80.13784687,55:06.6,2/13/21,9,1.084,116.01,-7.060533745,1.16,116.9,109.64,1.33,-7.6,29.7,0.02,2.71,2.73,58,31,317.4,14.8,-2.1,D,613.5,1,28.977,1,0.9,160,155.7,-80.13772766,25.91251728,0,0,1,N,3.843126,65,65,11,239,239,137.5892,0,9999.99,2.72,2.847,2,9,26.9,0,26.89999962,33.43,1537.09867,2/13/21,15:33:54,25.18,50.94,33.43,1.03,8.24,-73.1,-1.8,-2.2,-1264,81.9,5.58,12.9,
25.91275406,-80.13783988,55:07.6,2/13/21,9,1.252,97.4,-7.060533745,1.16,124.6,116.76,0.92,-2.36,29.6,0.02,2.78,2.8,58,28,317.4,14.8,-1.9,D,689.7,1,28.621,1,0.92,160,156.91,-80.13772766,25.91251728,0,0,1,N,3.198693,60,60,11,229,229,141.4588,0,9999.99,2.79,2.917,2,9,26.9,0,26.89999962,33.44,1537.10898,2/13/21,15:33:55,25.18,50.96,33.44,0.933,8.25,-73.9,-1.7,-0.8,-2209,81.5,5.55,13.1,
25.91275157,-80.13782846,55:08.6,2/13/21,9,1.236,102.86,-7.060533745,1.16,130.2,121.95,2.21,-6.91,29.7,0.02,2.92,2.94,58,28,317.4,14.8,-1.9,D,689.7,1,27.935,1,0.93,160,158.85,-80.13772766,25.91251728,0,0,1,N,2.179964,70,70,11,231,231,148.0086,0,9999.99,2.94,3.067,2,9,26.9,0,26.89999962,33.43,1537.09875,2/13/21,15:33:56,25.18,50.95,33.43,1.023,8.24,-73.1,-2.1,-2.5,-5286,81.1,5.53,13.1,
25.91274934,-80.13782227,55:09.7,2/13/21,9,1.352,106.77,-7.060533745,1.16,136.9,128.19,1.76,-2.95,29.6,0.02,2.92,2.94,58,28,317.4,14.8,-1.9,D,689.7,1,27.484,1,0.95,160,159.86,-80.13772766,25.91251728,0,0,1,N,1.650156,68,68,11,221,221,151.5958,0,9999.99,2.94,3.067,2,9,26.9,0,26.89999962,33.43,1537.09826,2/13/21,15:33:57,25.19,50.95,33.43,0.923,8.24,-73,-2.1,-1.5,-3990,80.7,5.5,13.1,
25.91274638,-80.13781621,55:10.7,2/13/21,9,1.082,111.85,-7.060533745,1.16,142.7,133.62,2.24,-5.77,29.7,0.02,2.98,3,58,28,317.4,14.8,-1.9,D,689.7,1,26.97,1,0.96,160,160.83,-80.13772766,25.91251728,0,0,1,N,1.161627,69,69,11,214,214,154.9885,0,9999.99,3,3.127,2,9,26.9,0,26.89999962,33.44,1537.10882,2/13/21,15:33:58,25.19,50.96,33.44,0.895,8.23,-72.7,-2.4,-3.8,-860,80.3,5.47,13,
25.91274309,-80.1378123,55:11.7,2/13/21,10,1.143,121.51,-7.060533745,1.16,148.9,139.47,1.58,-3.36,29.7,0.01,3,3.01,58,28,317.4,14.8,-1.9,D,687.9,1,26.498,1,0.98,160,161.37,-80.13772766,25.91251728,0,0,1,N,0.8890687,66,66,11,197,197,156.9088,0,9999.99,3.02,3.147,2,9,26.9,0,26.89999962,33.43,1537.09772,2/13/21,15:33:59,25.19,50.95,33.43,0.965,8.24,-73.3,-1.9,-1,-1527,80,5.45,13.2,
25.91273984,-80.13780688,55:12.7,2/13/21,10,1.107,126.28,-7.060533745,1.16,152.8,143.18,1.65,-4.47,29.6,0.01,3,3.01,58,28,317.4,14.8,-1.9,D,687.9,1,25.985,1,1.03,160,162.25,-80.13772766,25.91251728,0,0,1,N,0.4748201,67,67,11,194,194,159.8534,0,9999.99,3.01,3.137,2,9,26.8,0,26.79999924,33.44,1536.88035,2/13/21,15:34:00,25.2,50.96,33.44,0.938,8.27,-74.8,-1.8,-2.4,-2579,79.6,5.42,13.1,
25.91273524,-80.1378051,55:13.7,2/13/21,10,1.015,126.28,-7.060533745,1.16,156.2,146.43,1.75,-2.62,29.7,0.01,2.98,2.99,58,28,317.4,14.8,-1.9,D,687.9,1,25.444,1,1.05,160,162.28,-80.13772766,25.91251728,0,0,1,N,0.4452166,67,67,11,183,183,160.0648,0,9999.99,3,3.127,2,9,26.8,0,26.79999924,33.43,1536.86976,2/13/21,15:34:01,25.19,50.95,33.43,0.922,8.23,-72.7,-2.5,-3.5,-1327,79.3,5.4,13.1,
25.91272998,-80.13780116,55:14.7,2/13/21,10,1.327,135.47,-7.060533745,1.16,160.2,150.28,1.84,-2.28,29.7,0.01,2.98,2.99,58,28,317.3,14.8,-1.9,D,687,1,24.767,1,1.11,160,162.73,-80.13772766,25.91251728,0,0,1,N,0.2368455,66,66,11,176,176,161.5542,0,9999.99,2.99,3.117,2,9,26.8,0,26.79999924,33.44,1536.88059,2/13/21,15:34:02,25.19,50.96,33.44,0.91,8.23,-72.6,-2.3,-3.9,-1649,79,5.38,13.1,
25.91272423,-80.13779757,55:15.7,2/13/21,10,1.267,141.65,-7.060533745,1.16,161.6,151.64,0.88,-1.72,29.7,0.01,2.99,3,58,28,317.3,14.8,-1.9,D,687,1,24.051,1,1.15,160,163.1,-80.13772766,25.91251728,0,0,1,N,7.68E-02,61,61,11,171,171,162.6999,0,9999.99,2.99,3.117,2,9,26.8,0,26.79999924,33.45,1536.89161,2/13/21,15:34:03,25.19,50.97,33.45,0.936,8.24,-72.9,-2,-1.8,-1538,78.6,5.35,13.1,
25.91271859,-80.13779473,55:16.7,2/13/21,10,1.227,141.71,-7.060533745,1.16,165,154.94,0.9,-0.83,29.7,0.01,2.97,2.98,58,28,317.3,14.8,-1.9,D,687,1,23.368,1,1.16,160,163.32,-80.13772766,25.91251728,0,0,1,N,1.77E-02,65,65,11,162,162,163.3771,0,9999.99,2.98,3.107,2,9,26.8,0,26.79999924,33.44,1536.88079,2/13/21,15:34:04,25.19,50.97,33.44,0.91,8.26,-74.1,-3.5,-3.8,-2822,78.3,5.33,13.1,
25.91271356,-80.13779171,55:17.8,2/13/21,10,1.249,145.77,-7.060533745,1.16,166.5,156.4,1.84,-3,29.7,0.01,2.96,2.97,58,28,317.3,14.8,-1.9,D,687,1,22.746,1,1.21,160,163.64,-80.13772766,25.91251728,0,0,1,N,0.1462217,67,67,11,155,155,164.2971,0,9999.99,2.97,3.097,2,9,26.8,0,26.79999924,33.43,1536.86984,2/13/21,15:34:05,25.19,50.94,33.43,0.904,8.23,-72.5,-4,-1.6,-3145,78.1,5.32,13.1,
25.9127083,-80.13778926,55:18.8,2/13/21,10,1.132,145.77,-7.060533745,1.16,168.8,158.66,-0.9,0.8,29.7,0.01,2.96,2.96,58,28,317.3,14.8,-1.8,D,695.7,1,22.116,1,1.2,160,163.82,-80.13772766,25.91251728,0,0,1,N,0.2131579,52,52,11,151,151,164.7763,0,9999.99,2.95,3.077,2,9,26.8,0,26.79999924,33.43,1536.86986,2/13/21,15:34:06,25.19,50.95,33.43,0.933,8.23,-72.5,-2,-1.5,-2469,77.8,5.3,12.9,
25.91270378,-80.13778824,55:19.8,2/13/21,10,0.98,145.77,-7.060533745,1.16,171.1,160.92,1.01,-4.45,29.7,0.01,2.91,2.91,58,28,317.3,14.8,-1.8,D,695.7,1,21.605,1,1.18,159,163.71,-80.13772766,25.91251728,0,0,1,N,0.1694163,64,64,11,142,142,164.4632,0,9999.99,2.92,3.047,2,9,26.8,0,26.79999924,33.43,1536.86982,2/13/21,15:34:07,25.18,50.95,33.43,1.027,8.23,-72.5,-2.7,-7.2,-1914,77.6,5.28,13.1,
25.91269827,-80.13778548,55:20.8,2/13/21,10,1.339,156.92,-7.060533745,1.16,172.7,162.5,0.91,-1.31,29.8,0,2.94,2.95,58,59,317.3,14.8,4,C,-1,1,20.94,1,1.19,159,163.97,-80.13772766,25.91251728,0,0,1,N,0.2597329,62,62,11,140,140,165.1095,0,9999.99,2.95,3.077,2,9,26.8,0,26.79999924,33.43,1536.86935,2/13/21,15:34:08,25.18,50.95,33.43,0.892,8.25,-73.5,-3,-1.1,-1234,77.3,5.27,13.1,
25.91269278,-80.13778563,55:21.8,2/13/21,10,1.102,156.92,-7.060533745,1.16,171.4,161.21,1,0.1,29.8,0,2.94,2.95,58,59,317.3,14.8,4,C,-1,1,20.358,1,1.23,159,163.45,-80.13772766,25.91251728,0,0,1,N,6.96E-02,63,63,11,137,137,163.7483,0,9999.99,2.95,3.077,2,9,26.8,0,26.79999924,33.43,1536.86934,2/13/21,15:34:09,25.18,50.95,33.43,0.947,8.23,-72.3,-3.3,-5.2,-1866,77.1,5.25,13.1,
25.9126868,-80.1377847,55:22.8,2/13/21,10,1.306,156.92,-7.060533745,1.16,172.8,162.6,0.23,-0.5,29.8,0.01,2.92,2.93,58,59,317.3,14.8,4,C,-1,1,19.694,1,1.21,159,163.16,-80.13772766,25.91251728,0,0,1,N,3.48E-02,58,58,11,129,129,163.0004,0,9999.99,2.93,3.057,2,9,26.7,0,26.70000076,33.43,1536.64098,2/13/21,15:34:10,25.18,50.95,33.43,0.962,8.23,-72.5,-3.9,1.8,-3033,76.9,5.24,12.9,
25.91267915,-80.1377861,55:23.8,2/13/21,10,1.207,158.96,-7.060533745,1.16,172.9,162.69,1.5,-1.24,29.8,0,2.93,2.94,58,27,317.3,14.8,-1.8,D,702.3,1,18.924,1,1.24,159,162.01,-80.13772766,25.91251728,0,0,1,N,0.4123527,66,66,11,117,117,160.2994,0,9999.99,2.94,3.067,2,9,26.7,0,26.70000076,33.43,1536.64084,2/13/21,15:34:11,25.18,50.95,33.43,0.916,8.23,-72.3,-2.4,-0.8,-4719,76.7,5.23,13.1,
25.91267389,-80.13778609,55:24.8,2/13/21,9,1.256,158.96,-7.060533745,1.16,173.3,163.09,0.33,0.37,29.7,0.01,2.9,2.91,58,27,317.3,14.8,-1.8,D,702.3,1,18.368,1,1.2,158,161.45,-80.13772766,25.91251728,0,0,1,N,0.5788234,59,59,11,111,111,159.1117,0,9999.99,2.91,3.037,2,9,26.7,0,26.70000076,33.44,1536.65178,2/13/21,15:34:12,25.18,50.96,33.44,0.948,8.23,-72.7,-2.6,-0.4,-3,76.5,5.21,12.9,
25.91266823,-80.13778342,55:25.8,2/13/21,9,1.358,157.76,-7.060533745,1.16,172,161.81,1.48,-2.58,29.7,0.01,2.89,2.9,58,27,317.3,14.8,-1.8,D,702.3,1,17.687,1,1.2,158,161.62,-80.13772766,25.91251728,0,0,1,N,0.5066774,66,66,11,117,117,159.6261,0,9999.99,2.9,3.027,2,9,26.7,0,26.70000076,33.43,1536.64113,2/13/21,15:34:13,25.17,50.95,33.43,0.928,8.22,-72.2,-2.7,-3,-1197,76.4,5.2,13.1,
25.91266276,-80.13778189,55:26.8,2/13/21,9,1.242,166.66,-7.060533745,1.16,172.7,162.5,1.07,-1.57,29.7,0.01,2.88,2.89,58,27,317.3,14.8,-1.8,D,702.3,1,17.061,1,1.19,158,161.46,-80.13772766,25.91251728,0,0,1,N,0.5341038,60,60,11,116,116,159.4305,0,9999.99,2.89,3.017,2,9,26.7,0,26.70000076,33.44,1536.6519,2/13/21,15:34:14,25.17,50.96,33.44,0.959,8.23,-72.4,-4.5,-2.1,-3683,76.2,5.19,12.9,
25.91265719,-80.13778068,55:27.8,2/13/21,9,1.211,164.61,-7.060533745,1.16,169.4,159.25,0.89,-0.08,29.7,0.01,2.89,2.9,58,27,317.2,14.8,-1.8,D,718.6,1,16.436,1,1.2,158,161.18,-80.13772766,25.91251728,0,0,1,N,0.6010095,62,62,11,126,126,158.9537,0,9999.99,2.9,3.027,2,9,26.7,0,26.70000076,33.44,1536.6517,2/13/21,15:34:15,25.17,50.96,33.44,0.967,8.22,-72,-2.4,-0.4,-3198,76,5.18,13,
25.91265174,-80.13777929,55:28.8,2/13/21,9,1.136,161.56,-7.060533745,1.16,170,159.84,0.93,-0.98,29.7,0.01,2.87,2.88,58,27,317.2,14.8,-1.8,D,718.6,1,15.818,1,1.23,158,160.95,-80.13772766,25.91251728,0,0,1,N,0.6436437,63,63,11,122,122,158.6502,0,9999.99,2.88,3.007,2,9,26.7,0,26.70000076,33.43,1536.64138,2/13/21,15:34:16,25.17,50.95,33.43,0.891,8.23,-72.5,-2.5,-3.4,-393,75.9,5.17,13.1,
25.91264607,-80.13777674,55:29.8,2/13/21,9,1.431,159.22,-7.060533745,1.16,168.8,158.66,0.82,-1.25,29.7,0.01,2.86,2.87,58,27,317.2,14.8,-1.8,D,718.6,1,15.14,1,1.23,157,161.08,-80.13772766,25.91251728,0,0,1,N,0.5828403,63,63,11,132,132,159.0831,0,9999.99,2.87,2.997,2,9,26.7,0,26.70000076,33.44,1536.65204,2/13/21,15:34:17,25.17,50.96,33.44,0.929,8.25,-73.7,-2.4,-0.7,-2542,75.8,5.16,13.2,
25.91264022,-80.13777582,55:30.8,2/13/21,9,1.205,163.94,-7.060533745,1.16,167.9,157.77,1.18,0.12,29.7,0,2.85,2.85,58,27,317.2,14.8,-1.8,D,715.1,1,14.494,1,1.21,157,160.59,-80.13772766,25.91251728,0,0,1,N,0.683501,63,63,11,133,133,158.3667,0,9999.99,2.85,2.977,2,9,26.7,0,26.70000076,33.44,1536.65152,2/13/21,15:34:18,25.17,50.96,33.44,0.954,8.23,-72.3,-2.1,-5.3,-2373,75.6,5.15,12.9,
25.91263412,-80.13777374,55:31.8,2/13/21,9,1.358,162.93,-7.060533745,1.16,166.3,156.21,1.18,-3.1,29.7,0.01,2.84,2.85,58,27,317.2,14.8,-1.8,D,715.1,1,13.786,1,1.22,157,160.47,-80.13772766,25.91251728,0,0,1,N,0.6794475,64,64,11,136,136,158.3955,0,9999.99,2.85,2.977,2,9,26.7,0,26.70000076,33.44,1536.65169,2/13/21,15:34:19,25.17,50.96,33.44,0.908,8.22,-72.1,-0.7,-3.1,-3453,75.4,5.14,13.2,
25.91262856,-80.13777073,55:32.8,2/13/21,9,1.167,157.23,-7.060533745,1.16,164.7,154.65,0.29,0.95,29.7,0.01,2.85,2.86,58,27,317.2,14.8,-1.8,D,715.1,1,13.102,1,1.22,157,160.8,-80.13772766,25.91251728,0,0,1,N,0.5736716,59,59,11,145,145,159.1485,0,9999.99,2.85,2.977,2,9,26.7,0,26.70000076,33.46,1536.67326,2/13/21,15:34:20,25.17,50.98,33.46,0.895,8.22,-72.2,-3,0.9,-2929,75.3,5.13,13,
25.91262341,-80.13777312,55:33.8,2/13/21,9,1.306,167.79,-7.060533745,1.16,165.9,155.82,1.54,-0.95,29.7,0,2.84,2.84,58,27,317.2,14.8,-1.8,D,715.1,1,12.647,1,1.19,157,158.93,-80.13772766,25.91251728,0,0,1,N,0.9641532,66,66,11,129,129,156.378,0,9999.99,2.85,2.977,2,9,26.7,0,26.70000076,33.46,1536.67291,2/13/21,15:34:21,25.17,50.98,33.46,0.994,8.24,-73.3,-3.4,-4.1,-1991,75.2,5.12,13.1,
25.91261804,-80.13777099,55:34.8,2/13/21,9,1.265,158.95,-7.060533745,1.16,165.3,155.23,1.4,-2.38,29.7,0,2.86,2.86,58,27,317.2,14.8,-1.8,D,721.7,1,12.013,1,1.18,156,158.86,-80.13772766,25.91251728,0,0,1,N,0.9308046,65,65,11,131,131,156.6137,0,9999.99,2.87,2.997,2,9,26.7,0,26.70000076,33.45,1536.66204,2/13/21,15:34:22,25.18,50.97,33.45,0.882,8.23,-72.4,-2.8,-4.2,-1024,75.1,5.11,13,
25.91261296,-80.13776751,55:35.8,2/13/21,9,1.114,158.53,-7.060533745,1.16,164.1,154.06,0.89,-0.12,29.7,0,2.84,2.84,58,27,317.2,14.8,-1.8,D,721.7,1,11.361,1,1.16,156,159.46,-80.13772766,25.91251728,0,0,1,N,0.7634655,62,62,11,142,142,157.7985,0,9999.99,2.85,2.977,2,9,26.7,0,26.70000076,33.44,1536.65136,2/13/21,15:34:23,25.18,50.96,33.44,0.886,8.22,-72.2,-3.1,-7.2,-1964,75,5.11,13.1,
25.91260804,-80.13776467,55:36.8,2/13/21,9,1.188,158.95,-7.060533745,1.16,164.2,154.16,1.39,-1.95,29.7,0,2.85,2.85,58,26,317.2,14.8,-1.7,D,733.7,1,10.75,1,1.17,156,159.86,-80.13772766,25.91251728,0,0,1,N,0.6498932,65,65,11,145,145,158.6057,0,9999.99,2.86,2.987,2,9,26.7,0,26.70000076,33.44,1536.65121,2/13/21,15:34:24,25.17,50.96,33.44,0.916,8.22,-72.1,-3.9,-2.4,-3759,74.9,5.1,13.1,
25.91260326,-80.13776139,55:37.8,2/13/21,9,1.154,158.95,-7.060533745,1.16,166.5,156.4,0.72,-2.59,29.7,0,2.81,2.81,58,26,317.2,14.8,-1.7,D,733.7,1,10.139,1,1.17,156,160.56,-80.13772766,25.91251728,0,0,1,N,0.4855003,64,64,11,144,144,159.7773,0,9999.99,2.82,2.947,2,9,26.7,0,26.70000076,33.44,1536.65118,2/13/21,15:34:25,25.18,50.96,33.44,0.895,8.24,-72.8,-2.2,-1.9,-1095,74.8,5.09,13.1,
25.91259824,-80.13775675,55:38.8,2/13/21,9,1.162,158.95,-7.060533745,1.16,166.4,156.31,0.71,-0.74,29.7,0,2.8,2.8,58,26,317.2,14.8,-1.7,D,733.7,1,9.461,1,1.16,156,162.09,-80.13772766,25.91251728,0,0,1,N,0.2013407,61,61,11,149,149,161.8083,0,9999.99,2.81,2.937,2,9,26.7,0,26.70000076,33.45,1536.66179,2/13/21,15:34:26,25.17,50.97,33.45,0.847,8.23,-72.5,-2.9,-1.4,-2097,74.7,5.09,13,
25.91259402,-80.13775589,55:39.8,2/13/21,9,1.059,158.95,-7.060533745,1.16,166.1,156.01,1.6,-2.73,29.6,0,2.81,2.81,58,26,317.2,14.8,-1.7,D,741.5,1,8.988,1,1.17,156,161.69,-80.13772766,25.91251728,0,0,1,N,0.25732,67,67,11,149,149,161.4077,0,9999.99,2.83,2.957,2,9,26.7,0,26.70000076,33.45,1536.66179,2/13/21,15:34:27,25.18,50.97,33.45,0.975,8.23,-72.4,-3.1,-1.2,-1409,74.6,5.08,13.1,
25.91258873,-80.13775472,55:40.8,2/13/21,9,1.025,158.95,-7.060533745,1.16,167.3,157.19,0.76,-1.25,29.7,0,2.81,2.81,58,26,317.2,14.8,-1.7,D,741.5,1,8.394,1,1.13,156,161.19,-80.13772766,25.91251728,0,0,1,N,0.3131269,60,60,11,146,146,161.0085,0,9999.99,2.81,2.937,2,9,26.6,0,26.60000038,33.44,1536.42186,2/13/21,15:34:28,25.18,50.97,33.44,0.837,8.22,-72,-2.5,-1.9,-2423,74.6,5.08,13.1,
25.91258357,-80.13775207,55:41.8,2/13/21,9,1.158,157.63,-7.060533745,1.16,167.1,156.99,-0.13,-2.26,29.7,0,2.79,2.8,58,26,317.2,14.8,-1.7,D,735.6,1,7.764,1,1.12,156,161.67,-80.13772766,25.91251728,0,0,1,N,0.2223853,56,56,11,146,146,161.6577,0,9999.99,2.8,2.927,2,9,26.6,0,26.60000038,33.45,1536.43255,2/13/21,15:34:29,25.18,50.98,33.45,0.926,8.23,-72.6,-2.3,-2.9,-2549,74.5,5.08,13,
25.91257791,-80.13775064,55:42.8,2/13/21,9,1.257,157.63,-7.060533745,1.16,167.9,157.77,1.65,-1.6,29.7,0,2.79,2.79,58,26,317.2,14.8,-1.7,D,735.6,1,7.123,1,1.11,156,161.17,-80.13772766,25.91251728,0,0,1,N,0.26646,67,67,11,141,141,161.3424,0,9999.99,2.8,2.927,2,9,26.6,0,26.60000038,33.46,1536.4433,2/13/21,15:34:30,25.17,50.98,33.46,0.976,8.25,-73.6,-3.9,-2.2,-4188,74.5,5.07,13,
25.91257207,-80.13774761,55:43.8,2/13/21,9,1.337,153.17,-7.060533745,1.16,166.4,156.31,0.21,0.11,29.8,0,2.79,2.79,58,26,317.2,14.8,-1.7,D,735.6,1,6.411,1,1.11,156,161.87,-80.13772766,25.91251728,0,0,1,N,0.1652181,58,58,11,150,150,162.067,0,9999.99,2.79,2.917,2,9,26.6,0,26.60000038,33.45,1536.43274,2/13/21,15:34:31,25.17,50.97,33.45,0.855,8.23,-72.4,-2.2,-6.8,-2151,74.4,5.07,13.1,
25.91256795,-80.13774708,55:44.8,2/13/21,9,0.94,153.17,-7.060533745,1.16,169.3,159.15,0.78,-4.59,29.8,0,2.78,2.78,58,26,317.2,14.8,-1.7,D,735.6,2,36.939,1,1.1,156,155.55,-80.1375942,25.91226555,0,0,1,N,0.6749044,62,62,11,118,118,156.9093,0,9999.99,2.79,2.917,2,9,26.6,0,26.60000038,33.46,1536.4436,2/13/21,15:34:32,25.17,50.99,33.46,0.931,8.22,-72.1,-3.2,-6.3,-1947,74.3,5.06,13.1,
25.91256342,-80.13774641,55:45.9,2/13/21,9,1.181,152.92,-7.060533745,1.16,169.9,159.74,1.72,-2.81,29.7,0,2.78,2.78,58,26,317.1,14.8,-1.7,D,735.6,2,36.453,1,1.1,156,155.31,-80.1375942,25.91226555,0,0,1,N,0.518483,67,67,11,114,114,156.4249,0,9999.99,2.79,2.917,2,9,26.6,0,26.60000038,33.46,1536.44336,2/13/21,15:34:34,25.18,50.99,33.46,0.857,8.22,-72.1,-3.4,-5.5,-3107,74.2,5.06,12.9,
25.91255836,-80.13774361,55:46.9,2/13/21,9,1.047,156.02,-7.060533745,1.16,167.3,157.19,-0.03,-1.51,29.7,0,2.78,2.78,58,26,317.1,14.8,-1.7,D,735.6,2,35.825,1,1.1,156,155.35,-80.1375942,25.91226555,0,0,1,N,0.5264269,57,57,11,124,124,156.559,0,9999.99,2.78,2.907,2,9,26.6,0,26.60000038,33.46,1536.44336,2/13/21,15:34:34,25.18,50.99,33.46,0.857,8.22,-72.1,-3.4,-5.5,-3107,74.2,5.06,12.9,
25.91255358,-80.13774342,55:47.9,2/13/21,9,1.059,156.02,-7.060533745,1.16,167.3,157.19,0.23,-2.34,29.7,0,2.77,2.77,58,26,317.1,14.8,-1.7,D,735.6,2,35.334,1,1.12,156,155.02,-80.1375942,25.91226555,0,0,1,N,0.3160248,58,58,11,121,121,155.7933,0,9999.99,2.78,2.907,2,9,26.6,0,26.60000038,33.46,1536.44339,2/13/21,15:34:35,25.18,50.99,33.46,0.957,8.23,-72.3,-3.2,-3.5,-2287,74.3,5.06,13.2,
25.9125493,-80.13774069,55:48.9,2/13/21,9,1.148,153.15,-7.060533745,1.16,164.9,154.84,1.21,0.88,29.7,0,2.78,2.78,58,29,317.1,14.8,-1.9,D,663.4,2,34.788,1,1.1,156,155.09,-80.1375942,25.91226555,0,0,1,N,0.354739,64,64,11,132,132,156.0297,0,9999.99,2.78,2.907,2,9,26.6,0,26.60000038,33.45,1536.43279,2/13/21,15:34:37,25.18,50.97,33.45,0.875,8.25,-73.9,-2.1,-6.8,-2360,74.2,5.06,13.2,
25.91254487,-80.13773968,55:49.9,2/13/21,9,1.078,153.15,-7.060533745,1.16,165.2,155.14,0.88,-2.21,29.7,0,2.78,2.78,58,29,317.1,14.8,-1.9,D,663.4,2,34.298,1,1.13,155,154.9,-80.1375942,25.91226555,0,0,1,N,0.2309798,62,62,11,129,129,155.5473,0,9999.99,2.78,2.907,2,9,26.6,0,26.60000038,33.45,1536.43279,2/13/21,15:34:37,25.18,50.97,33.45,0.875,8.25,-73.9,-2.1,-6.8,-2360,74.2,5.06,13.2,
25.91254095,-80.13773724,55:50.9,2/13/21,9,1.107,150.76,-7.060533745,1.16,164,153.97,0.35,-3.16,29.7,0.01,2.75,2.76,58,29,317.1,14.8,-1.9,D,663.4,2,33.801,1,1.1,155,154.96,-80.1375942,25.91226555,0,0,1,N,0.2642576,60,60,11,132,132,155.7636,0,9999.99,2.76,2.887,2,9,26.6,0,26.60000038,33.45,1536.4328,2/13/21,15:34:38,25.18,50.97,33.45,0.925,8.23,-72.6,-3.4,-3.6,-22,74.2,5.06,13,
25.91253659,-80.13773436,55:51.9,2/13/21,9,1.111,154.34,-7.060533745,1.16,163.2,153.19,1.5,-1.96,29.7,0.03,2.74,2.77,58,29,317.1,14.8,-1.9,D,663.4,2,33.239,1,1.09,155,155.05,-80.1375942,25.91226555,0,0,1,N,0.3149008,66,66,11,139,139,156.108,0,9999.99,2.75,2.877,2,9,26.6,0,26.60000038,33.45,1536.43484,2/13/21,15:34:39,25.18,50.97,33.45,0.856,8.23,-72.3,-2.9,-6,-2194,74.1,5.05,13.1,
25.9125318,-80.13773229,55:52.9,2/13/21,9,1.106,156.81,-7.060533745,1.39,163.2,153.19,0.82,-1.75,29.7,0.03,2.75,2.78,58,29,317.1,14.8,-1.9,D,675.2,2,32.669,1,1.09,155,154.99,-80.1375942,25.91226555,0,0,1,N,0.2728174,62,62,11,138,138,155.9979,0,9999.99,2.75,2.877,2,9,26.6,0,26.60000038,33.46,1536.44586,2/13/21,15:34:41,25.18,50.99,33.46,0.883,8.25,-73.5,-2.4,-5.4,-2215,74.1,5.05,13.1,
25.91252701,-80.13773152,55:53.9,2/13/21,9,1.089,161.08,-7.060533745,1.16,164,153.97,0.68,-2.89,29.7,0.02,2.75,2.77,58,29,317.1,14.8,-1.9,D,675.2,2,32.155,1,1.13,155,154.71,-80.1375942,25.91226555,0,0,1,N,0.1122911,63,63,11,131,131,155.1641,0,9999.99,2.76,2.887,2,9,26.6,0,26.60000038,33.46,1536.44586,2/13/21,15:34:41,25.18,50.99,33.46,0.883,8.25,-73.5,-2.4,-5.4,-2215,74.1,5.05,13.1,
25.91252239,-80.13772933,55:54.9,2/13/21,9,1.13,161.08,-7.060533745,1.16,163.5,153.48,1.21,-1.4,29.7,0.02,2.75,2.78,58,29,317.1,14.8,-1.9,D,675.2,2,31.596,1,1.11,155,154.67,-80.1375942,25.91226555,0,0,1,N,8.93E-02,64,64,11,134,134,155.0761,0,9999.99,2.76,2.887,2,9,26.6,0,26.60000038,33.44,1536.42375,2/13/21,15:34:42,25.18,50.97,33.44,0.813,8.23,-72.6,-2.8,0.9,-3349,74,5.04,13,
25.91251662,-80.13772912,55:55.9,2/13/21,8,1.218,160.42,-7.060533745,1.25,164.3,154.26,0.73,-2.21,29.6,0.02,2.75,2.77,58,28,317.1,14.8,-1.9,D,677.2,2,31.008,1,1.1,155,154.2,-80.1375942,25.91226555,0,0,1,N,0.1663721,61,61,11,127,127,153.3202,0,9999.99,2.76,2.887,2,9,26.6,0,26.60000038,33.45,1536.43407,2/13/21,15:34:44,25.18,50.97,33.45,0.874,8.23,-72.4,-3.5,-2.9,-3789,74.1,5.05,13.1,
25.91251225,-80.13772727,55:56.9,2/13/21,9,1.163,155.8,-7.060533745,1.25,163.5,153.48,1.41,-3.17,29.7,0.02,2.73,2.75,58,28,317.1,14.8,-1.9,D,677.2,2,30.491,1,1.13,155,154.12,-80.1375942,25.91226555,0,0,1,N,0.2076478,65,65,11,124,124,153.0179,0,9999.99,2.74,2.867,2,9,26.6,0,26.60000038,33.45,1536.43407,2/13/21,15:34:44,25.18,50.97,33.45,0.874,8.23,-72.4,-3.5,-2.9,-3789,74.1,5.05,13.1,
25.91250783,-80.13772375,55:58.0,2/13/21,9,1.13,155.02,-7.060533745,1.25,163.1,153.09,1.15,-0.53,29.7,0.01,2.73,2.75,58,28,317.1,14.8,-1.9,D,677.2,2,29.895,1,1.12,155,154.31,-80.1375942,25.91226555,0,0,1,N,0.1036464,64,64,11,130,130,153.7628,0,9999.99,2.74,2.867,2,9,26.6,0,26.60000038,33.44,1536.42295,2/13/21,15:34:45,25.18,50.96,33.44,0.845,8.24,-73,-2.7,-3,-1412,74,5.04,13.1,
25.91250326,-80.13772423,55:59.0,2/13/21,9,0.999,155.02,-7.060533745,1.25,161.8,151.83,0.89,-1.98,29.7,0.01,2.73,2.74,58,28,317.1,14.8,-1.9,D,677.2,2,29.458,1,1.1,155,153.8,-80.1375942,25.91226555,0,0,1,N,0.3662698,62,62,11,127,127,151.8832,0,9999.99,2.74,2.867,2,9,26.6,0,26.60000038,33.45,1536.43366,2/13/21,15:34:47,25.18,50.97,33.45,0.847,8.23,-72.3,-3,-3.2,-1406,74,5.04,13.1,
25.91249896,-80.13772223,56:00.0,2/13/21,9,1.159,153.04,-7.060533745,1.16,162.1,152.12,0.85,-2.73,29.7,0.01,2.74,2.75,58,29,317,14.8,-1.9,D,674.5,2,28.941,1,1.1,155,153.74,-80.1375942,25.91226555,0,0,1,N,0.3911269,60,60,11,125,125,151.7062,0,9999.99,2.74,2.867,2,9,26.6,0,26.60000038,33.45,1536.43366,2/13/21,15:34:47,25.18,50.97,33.45,0.847,8.23,-72.3,-3,-3.2,-1406,74,5.04,13.1,
25.91249481,-80.13771984,56:01.0,2/13/21,9,0.937,153.04,-7.060533745,1.16,160.8,150.86,0.69,-2.76,29.7,0.02,2.71,2.73,58,29,317,14.8,-1.9,D,674.5,2,28.421,1,1.09,155,153.76,-80.1375942,25.91226555,0,0,1,N,0.3754899,61,61,11,131,131,151.8174,0,9999.99,2.72,2.847,2,9,26.6,0,26.60000038,33.45,1536.43388,2/13/21,15:34:49,25.18,50.97,33.45,0.818,8.23,-72.7,-2.4,-7.4,-1369,74,5.04,13.1,
25.91249107,-80.13771594,56:02.0,2/13/21,9,1.071,153.19,-7.060533745,1.16,160.6,150.67,1.11,-0.12,29.7,0.02,2.71,2.73,58,29,317,14.8,-1.9,D,674.5,2,27.876,1,1.07,155,154.1,-80.1375942,25.91226555,0,0,1,N,0.203695,64,64,11,137,137,153.0464,0,9999.99,2.72,2.847,2,9,26.6,0,26.60000038,33.45,1536.43394,2/13/21,15:34:50,25.18,50.97,33.45,0.923,8.26,-74.6,-2.8,-5.5,-1534,74,5.04,12.9,
25.91248652,-80.13771531,56:03.0,2/13/21,9,1.132,157.68,-7.060533745,1.16,159.5,149.61,1.4,-3.69,29.7,0.01,2.72,2.73,58,29,317,14.8,-1.9,D,674,2,27.395,1,1.07,155,153.76,-80.1375942,25.91226555,0,0,1,N,0.3640513,65,65,11,135,135,151.8992,0,9999.99,2.73,2.857,2,9,26.6,0,26.60000038,33.45,1536.43394,2/13/21,15:34:50,25.18,50.97,33.45,0.923,8.26,-74.6,-2.8,-5.5,-1534,74,5.04,12.9,
25.9124811,-80.13771312,56:04.0,2/13/21,9,1.008,153.2,-7.060533745,1.16,160.4,150.48,0.78,-1.76,29.7,0.01,2.71,2.72,58,29,317,14.8,-1.9,D,674,2,26.757,1,1.07,155,153.61,-80.1375942,25.91226555,0,0,1,N,0.4251722,62,62,11,131,131,151.4626,0,9999.99,2.72,2.847,2,9,26.6,0,26.60000038,33.44,1536.42257,2/13/21,15:34:51,25.18,50.97,33.44,0.832,8.23,-72.3,-2.4,-0.7,-2119,73.9,5.04,13.2,
25.91247593,-80.13770995,56:05.0,2/13/21,9,1.208,151.05,-7.060533745,1.16,160.2,150.28,0.85,-2.79,29.7,0.01,2.71,2.72,58,29,317,14.8,-1.9,D,674,2,26.101,1,1.07,155,153.67,-80.1375942,25.91226555,0,0,1,N,0.3873326,62,62,11,133,133,151.7329,0,9999.99,2.72,2.847,2,9,26.6,0,26.60000038,33.46,1536.44371,2/13/21,15:34:53,25.18,50.99,33.46,0.864,8.23,-72.6,-2,-4.5,-3175,73.9,5.03,13.1,
25.91247062,-80.13770662,56:06.1,2/13/21,9,1.16,150.93,-7.060533745,1.16,160.1,150.19,1.6,-3.91,29.7,0,2.71,2.71,58,29,317,14.8,-1.9,D,674,2,25.425,1,1.06,155,153.75,-80.1375942,25.91226555,0,0,1,N,0.3401131,65,65,11,133,133,152.0705,0,9999.99,2.72,2.847,2,9,26.6,0,26.60000038,33.46,1536.44371,2/13/21,15:34:53,25.18,50.99,33.46,0.864,8.23,-72.6,-2,-4.5,-3175,73.9,5.03,13.1,
25.91246601,-80.13770467,56:07.0,2/13/21,9,0.944,157.95,-7.060533745,1.16,159.5,149.61,0.43,-1.61,29.7,0.01,2.72,2.73,58,28,317,14.8,-1.9,D,678.1,2,24.878,1,1.07,155,153.63,-80.1375942,25.91226555,0,0,1,N,0.3847781,60,60,11,136,136,151.7512,0,9999.99,2.72,2.847,2,9,26.6,0,26.60000038,33.47,1536.4544,2/13/21,15:34:54,25.18,51,33.47,0.833,8.25,-74,-2.5,-4.9,-1885,73.9,5.03,12.9,
25.91246115,-80.13770564,56:08.1,2/13/21,9,1.08,157.95,-7.060533745,1.16,160.4,150.48,0.94,-2.91,29.7,0.01,2.7,2.71,58,29,317,14.8,-1.9,D,673.9,2,24.439,1,1.07,155,152.87,-80.1375942,25.91226555,0,0,1,N,0.7050157,63,63,11,123,123,149.4686,0,9999.99,2.71,2.837,2,9,26.6,0,26.60000038,33.47,1536.455,2/13/21,15:34:56,25.19,51,33.47,0.843,8.23,-72.5,-1.9,-2.8,-1471,73.9,5.03,13.1,
25.91245717,-80.13770467,56:09.1,2/13/21,9,1.045,154.58,-7.060533745,1.16,159.3,149.41,1.96,-2.41,29.7,0,2.71,2.72,58,29,317,14.8,-1.9,D,673.9,2,23.968,1,1.08,155,152.69,-80.1375942,25.91226555,0,0,1,N,0.7653562,69,69,11,124,124,149.0402,0,9999.99,2.72,2.847,2,9,26.6,0,26.60000038,33.47,1536.455,2/13/21,15:34:56,25.19,51,33.47,0.843,8.23,-72.5,-1.9,-2.8,-1471,73.9,5.03,13.1,
25.9124525,-80.137702,56:10.1,2/13/21,9,1.046,154.58,-7.060533745,1.16,159.8,149.9,0.98,-2.56,29.7,0.01,2.72,2.73,58,29,317,14.8,-1.9,D,673.9,2,23.489,1,1.05,155,152.69,-80.1375942,25.91226555,0,0,1,N,0.7503542,61,61,11,127,127,149.1467,0,9999.99,2.73,2.857,2,9,26.6,0,26.60000038,33.48,1536.46505,2/13/21,15:34:57,25.19,51.01,33.48,0.855,8.23,-72.6,-3,-3,-3800,73.9,5.03,13.1,
25.9124485,-80.13769917,56:11.1,2/13/21,9,1.06,148.98,-7.060533745,1.16,159.3,149.41,-0.54,-1.81,29.7,0.01,2.71,2.72,58,29,317,14.8,-1.9,D,673.9,2,22.885,1,1.05,155,152.7,-80.1375942,25.91226555,0,0,1,N,0.7290182,54,54,11,127,127,149.2981,0,9999.99,2.72,2.847,2,9,26.6,0,26.60000038,33.45,1536.43359,2/13/21,15:34:59,25.19,50.97,33.45,0.84,8.23,-72.5,-2.5,-6.7,-3339,73.9,5.04,13.1,
25.91244367,-80.1376975,56:12.1,2/13/21,9,1.131,148.98,-7.060533745,1.16,157.7,147.87,0.98,-2.11,29.6,0.01,2.7,2.71,58,29,316.9,14.8,-1.9,D,673.6,2,22.357,1,1.04,155,152.85,-80.1375942,25.91226555,0,0,1,N,0.6565563,63,63,11,135,135,149.8132,0,9999.99,2.7,2.827,2,9,26.6,0,26.60000038,33.45,1536.43359,2/13/21,15:34:59,25.19,50.97,33.45,0.84,8.23,-72.5,-2.5,-6.7,-3339,73.9,5.04,13.1,
25.9124395,-80.1376955,56:13.1,2/13/21,9,0.859,148.98,-7.060533745,1.16,157.7,147.87,0.41,-0.4,29.6,0.01,2.72,2.73,58,29,316.9,14.8,-1.9,D,673.6,2,21.801,1,1.03,155,152.62,-80.1375942,25.91226555,0,0,1,N,0.727943,57,57,11,133,133,149.3057,0,9999.99,2.72,2.847,2,9,26.6,0,26.60000038,33.48,1536.46558,2/13/21,15:35:00,25.19,51.01,33.48,0.988,8.23,-72.6,-3.1,-5.1,-936,73.9,5.03,13.2,
25.9124355,-80.13769217,56:14.1,2/13/21,9,1.084,147.83,-7.060533745,1.16,157.2,147.39,0.68,-2.74,29.6,0,2.72,2.73,58,29,316.9,14.8,-1.9,D,673.6,2,21.31,1,1.05,155,152.53,-80.1375942,25.91226555,0,0,1,N,0.7448496,63,63,11,134,134,149.1857,0,9999.99,2.73,2.857,2,9,26.6,0,26.60000038,33.49,1536.47577,2/13/21,15:35:02,25.19,51.03,33.49,0.808,8.24,-73.1,1.4,-5.8,-3084,73.9,5.03,13,
25.91243117,-80.137689,56:15.1,2/13/21,9,1.097,151.01,-7.060533745,1.16,156.8,147.01,1.36,-1.54,29.7,0,2.74,2.74,58,29,316.9,14.8,-1.9,D,673.6,2,20.727,1,1.04,155,152.8,-80.1375942,25.91226555,0,0,1,N,0.6271893,65,65,11,139,139,150.0221,0,9999.99,2.74,2.867,2,9,26.5,0,26.60000038,33.49,1536.47577,2/13/21,15:35:02,25.19,51.03,33.49,0.808,8.24,-73.1,1.4,-5.8,-3084,73.9,5.03,13,
25.91242667,-80.13768617,56:16.1,2/13/21,9,1.075,151.01,-7.060533745,1.16,158.3,148.45,1.5,-2.77,29.7,0.01,2.73,2.73,58,29,316.9,14.8,-1.9,D,672.1,2,20.178,1,1.05,155,152.93,-80.1375942,25.91226555,0,0,1,N,0.561973,65,65,11,135,135,150.4867,0,9999.99,2.74,2.867,2,9,26.6,0,26.60000038,33.49,1536.47527,2/13/21,15:35:03,25.2,51.03,33.49,0.877,8.23,-72.8,-2,-7.8,-2691,73.9,5.03,13.1,
25.91242167,-80.13768267,56:17.1,2/13/21,9,1.135,149.91,-7.060533745,1.16,158.2,148.35,1.11,-3.06,29.7,0.01,2.73,2.74,58,29,316.9,14.8,-1.9,D,672.1,2,19.626,1,1.05,155,152.98,-80.1375942,25.91226555,0,0,1,N,0.5293425,61,61,11,137,137,150.7193,0,9999.99,2.74,2.867,2,9,26.6,0,26.60000038,33.49,1536.47593,2/13/21,15:35:04,25.2,51.03,33.49,0.854,8.23,-72.8,-1.4,-6.8,-3506,73.9,5.03,13.1,
25.91241638,-80.1376795,56:18.1,2/13/21,9,1.078,153.19,-7.060533745,1.16,157.5,147.68,1.17,-2.07,29.7,0.01,2.73,2.74,58,29,316.9,14.8,-1.9,D,672.1,2,18.817,1,1.07,155,153.04,-80.1375942,25.91226555,0,0,1,N,0.4435414,64,64,11,140,140,151.0002,0,9999.99,2.74,2.867,2,9,26.6,0,26.60000038,33.49,1536.47626,2/13/21,15:35:06,25.21,51.03,33.49,0.859,8.24,-73.2,-3.3,-3,-2830,74,5.04,13.1,
25.91241233,-80.13767733,56:19.1,2/13/21,9,1.126,150.54,-7.060533745,1.16,157.8,147.97,1.41,-4.09,29.7,0.01,2.74,2.75,58,28,316.9,14.8,-1.9,D,677.6,2,18.265,1,1.08,155,153.23,-80.1375942,25.91226555,0,0,1,N,0.4151472,65,65,11,141,141,151.5343,0,9999.99,2.75,2.877,2,9,26.6,0,26.60000038,33.49,1536.47626,2/13/21,15:35:06,25.21,51.03,33.49,0.859,8.24,-73.2,-3.3,-3,-2830,74,5.04,13.1,
25.91240767,-80.13767483,56:20.1,2/13/21,9,1.119,151.63,-7.060533745,1.16,158.1,148.26,1.25,-2.87,29.7,0.02,2.75,2.76,58,28,316.9,14.8,-1.9,D,677.6,2,17.75,1,1.09,155,153.21,-80.1375942,25.91226555,0,0,1,N,0.4116568,65,65,11,142,142,151.5592,0,9999.99,2.76,2.887,2,9,26.5,0,26.5,33.49,1536.24652,2/13/21,15:35:07,25.21,51.03,33.49,0.821,8.24,-73.1,-1.5,-7.9,-5502,74,5.04,13,
25.91240252,-80.13767133,56:21.1,2/13/21,9,1.116,151.63,-7.060533745,1.16,158.2,148.35,1.77,-3.41,29.7,0.02,2.75,2.77,58,28,316.9,14.8,-1.9,D,677.6,2,17.073,1,1.11,155,153.14,-80.1375942,25.91226555,0,0,1,N,0.4189337,68,68,11,140,140,151.5368,0,9999.99,2.76,2.887,2,9,26.5,0,26.5,33.5,1536.25738,2/13/21,15:35:09,25.21,51.04,33.5,0.847,8.23,-72.7,-1.4,-2.4,-3739,74,5.04,13.1,
25.91239779,-80.13766845,56:22.1,2/13/21,9,0.992,156.59,-7.060533745,1.16,158.3,148.45,1.03,-2,29.7,0.01,2.76,2.76,58,28,316.9,14.8,-1.9,D,677.6,2,16.473,1,1.12,155,153.21,-80.1375942,25.91226555,0,0,1,N,0.3421003,62,62,11,140,140,151.7683,0,9999.99,2.76,2.887,2,9,26.5,0,26.5,33.51,1536.26739,2/13/21,15:35:10,25.21,51.05,33.51,0.902,8.24,-73,-2.2,-6.3,-2422,74.1,5.04,13,
25.91239379,-80.13766496,56:23.1,2/13/21,9,1.208,144.28,-7.060533745,1.16,158.9,149.03,0.22,-1.69,29.7,0.01,2.75,2.76,58,28,316.9,14.8,-1.9,D,675.4,2,15.919,1,1.11,155,153.61,-80.1375942,25.91226555,0,0,1,N,0.3133047,58,58,11,142,142,152.659,0,9999.99,2.76,2.887,2,9,26.5,0,26.5,33.51,1536.26739,2/13/21,15:35:10,25.21,51.05,33.51,0.902,8.24,-73,-2.2,-6.3,-2422,74.1,5.04,13,
25.91238969,-80.13766151,56:24.1,2/13/21,9,1.083,148.42,-7.060533745,1.16,159.2,149.32,1.64,-3.77,29.7,0,2.75,2.75,58,28,316.9,14.8,-1.9,D,675.4,2,15.358,1,1.11,155,154,-80.1375942,25.91226555,0,0,1,N,0.196902,67,67,11,144,144,153.4931,0,9999.99,2.75,2.877,2,9,26.5,0,26.5,33.49,1536.24599,2/13/21,15:35:11,25.21,51.02,33.49,0.811,8.27,-74.6,-2.6,-3,-3537,74.1,5.04,13.1,
25.91238583,-80.1376585,56:25.1,2/13/21,9,1.16,149.32,-7.060533745,1.16,159.2,149.32,0.44,-1.95,29.8,0,2.76,2.76,58,28,316.9,14.8,-1.9,D,675.4,2,14.799,1,1.1,155,154.21,-80.1375942,25.91226555,0,0,1,N,8.17E-02,60,60,11,145,145,153.9196,0,9999.99,2.76,2.887,2,9,26.5,0,26.5,33.5,1536.25638,2/13/21,15:35:13,25.21,51.05,33.5,0.893,8.24,-72.9,-1.6,-4.5,666,74.2,5.05,13.2,
25.91238167,-80.13765617,56:26.1,2/13/21,9,1.06,149.32,-7.060533745,1.16,160.4,150.48,1.82,-2.91,29.8,0.01,2.76,2.76,58,29,316.8,14.8,-1.9,D,671.3,2,14.284,1,1.1,155,154.55,-80.1375942,25.91226555,0,0,1,N,3.13E-03,68,68,11,142,142,154.5273,0,9999.99,2.77,2.897,2,9,26.5,0,26.5,33.5,1536.25638,2/13/21,15:35:13,25.21,51.05,33.5,0.893,8.24,-72.9,-1.6,-4.5,666,74.2,5.05,13.2,
25.91237717,-80.13765383,56:27.1,2/13/21,9,1.111,152.67,-7.060533745,1.16,160.7,150.77,0.2,-2.6,29.8,0.01,2.75,2.76,58,29,316.8,14.8,-1.9,D,671.3,2,13.759,1,1.1,155,154.62,-80.1375942,25.91226555,0,0,1,N,2.03E-02,57,57,11,143,143,154.65,0,9999.99,2.76,2.887,2,9,26.5,0,26.5,33.49,1536.24587,2/13/21,15:35:14,25.21,51.03,33.49,0.831,8.24,-73.1,-3.2,-0.6,-5504,74.2,5.05,12.9,
25.9123725,-80.1376525,56:28.1,2/13/21,9,1.005,157.09,-7.060533745,1.16,161,151.06,0.86,-2.8,29.8,0.01,2.75,2.76,58,29,316.8,14.8,-1.9,D,671.3,2,13.196,1,1.1,155,154.56,-80.1375942,25.91226555,0,0,1,N,7.35E-03,62,62,11,141,141,154.5575,0,9999.99,2.76,2.887,2,9,26.5,0,26.5,33.5,1536.25673,2/13/21,15:35:16,25.21,51.04,33.5,0.834,8.24,-73.2,-2.3,-0.9,-3787,74.2,5.05,13.1,
25.91236761,-80.13765083,56:29.1,2/13/21,9,0.982,157.09,-7.060533745,1.16,162.3,152.32,1.33,-3.52,29.8,0.01,2.77,2.77,58,29,316.8,14.8,-1.9,D,671.3,2,12.683,1,1.09,155,153.48,-80.1375942,25.91226555,0,0,1,N,0.1079889,65,65,11,129,129,152.8486,0,9999.99,2.77,2.897,2,9,26.5,0,26.5,33.51,1536.26718,2/13/21,15:35:17,25.21,51.05,33.51,0.881,8.24,-73.1,-2.5,-3.1,-718,74.3,5.06,13.1,
25.91236296,-80.13764748,56:30.2,2/13/21,9,1.193,152.44,-7.060533745,1.16,161.2,151.25,0.66,-2.46,29.8,0.01,2.77,2.78,58,29,316.8,14.8,-1.9,D,669.8,2,12.071,1,1.09,155,153.8,-80.1375942,25.91226555,0,0,1,N,0.1928841,61,61,11,137,137,153.4039,0,9999.99,2.78,2.907,2,9,26.5,0,26.5,33.5,1536.25671,2/13/21,15:35:18,25.2,51.04,33.5,0.79,8.24,-73,-1.6,-0.9,-3075,74.4,5.06,13,
25.91235801,-80.1376457,56:31.2,2/13/21,9,1.117,159.65,-7.060533745,1.16,162.1,152.12,0.73,-1.61,29.7,0.01,2.77,2.79,58,29,316.8,14.8,-1.9,D,669.8,2,11.5,1,1.1,155,153.39,-80.1375942,25.91226555,0,0,1,N,0.108374,61,61,11,130,130,152.8755,0,9999.99,2.78,2.907,2,9,26.5,0,26.5,33.5,1536.25671,2/13/21,15:35:18,25.2,51.04,33.5,0.79,8.24,-73,-1.6,-0.9,-3075,74.4,5.06,13,
25.91235368,-80.1376432,56:32.2,2/13/21,9,1.147,152.49,-7.060533745,1.16,162.4,152.41,0.76,-1.63,29.7,0.01,2.76,2.77,58,29,316.8,14.8,-1.9,D,669.8,2,10.957,1,1.09,155,153.43,-80.1375942,25.91226555,0,0,1,N,0.1903271,62,62,11,129,129,153.0065,0,9999.99,2.77,2.897,2,9,26.5,0,26.5,33.51,1536.26795,2/13/21,15:35:19,25.2,51.06,33.51,0.918,8.25,-73.9,-3.8,-5.2,-2611,74.4,5.06,13.1,
25.91234945,-80.13764065,56:33.2,2/13/21,9,1.075,154.82,-7.060533745,1.16,161,151.06,1.22,-2.8,29.7,0.01,2.76,2.77,58,28,316.8,14.8,-1.9,D,677.7,2,10.422,1,1.09,155,153.53,-80.1375942,25.91226555,0,0,1,N,0.1733189,65,65,11,136,136,153.1945,0,9999.99,2.77,2.897,2,9,26.5,0,26.5,33.5,1536.25675,2/13/21,15:35:21,25.21,51.05,33.5,0.856,8.24,-73.2,-2.3,-2.7,-2849,74.5,5.07,13.1,
25.91234496,-80.13763866,56:34.2,2/13/21,9,0.997,158.43,-7.060533745,1.16,160.6,150.67,0.95,-1.95,29.7,0.01,2.79,2.8,58,28,316.8,14.8,-1.9,D,677.7,2,9.886,1,1.08,155,153.27,-80.1375942,25.91226555,0,0,1,N,0.1443115,63,63,11,136,136,152.9452,0,9999.99,2.8,2.927,2,9,26.5,0,26.5,33.5,1536.25675,2/13/21,15:35:21,25.21,51.05,33.5,0.856,8.24,-73.2,-2.3,-2.7,-2849,74.5,5.07,13.1,
25.91234086,-80.13763652,56:35.2,2/13/21,9,1.065,152.75,-7.060533745,1.16,159.7,149.8,1.41,-2.1,29.8,0.01,2.78,2.79,58,28,316.8,14.8,-1.9,D,677.7,2,9.383,1,1.08,155,153.19,-80.1375942,25.91226555,0,0,1,N,0.1725918,65,65,11,139,139,152.9178,0,9999.99,2.79,2.917,2,9,26.5,0,26.5,33.49,1536.24616,2/13/21,15:35:22,25.21,51.03,33.49,0.844,8.24,-73,-2.9,-6.5,-4453,74.5,5.07,13,
25.91233614,-80.13763318,56:36.2,2/13/21,9,1.101,154.72,-7.060533745,1.16,159.6,149.7,1.28,-2.68,29.8,0.01,2.78,2.78,58,28,316.8,14.8,-1.9,D,677.7,2,8.764,1,1.04,155,153.59,-80.1375942,25.91226555,0,0,1,N,0.1837461,64,64,11,143,143,153.4731,0,9999.99,2.79,2.917,2,9,26.5,0,26.5,33.49,1536.2461,2/13/21,15:35:24,25.21,51.03,33.49,0.833,8.24,-73.2,-0.7,0.1,-1817,74.5,5.07,13.1,
25.91233129,-80.13762949,56:37.2,2/13/21,9,1.242,149.62,-7.060533745,1.16,159.9,149.99,0.37,-1.79,29.8,0.01,2.78,2.78,58,29,316.8,14.8,-1.9,D,673.5,2,8.117,1,1.08,155,154.22,-80.1375942,25.91226555,0,0,1,N,0.1078032,59,59,11,144,144,154.1869,0,9999.99,2.79,2.917,2,9,26.5,0,26.5,33.49,1536.2461,2/13/21,15:35:24,25.21,51.03,33.49,0.833,8.24,-73.2,-0.7,0.1,-1817,74.5,5.07,13.1,
25.91232718,-80.13762586,56:38.2,2/13/21,9,1.184,145.36,-7.060533745,1.16,159.8,149.9,1.44,-1.05,29.7,0.01,2.78,2.79,58,29,316.8,14.8,-1.9,D,673.5,2,7.55,1,1.09,155,155.2,-80.1375942,25.91226555,0,0,1,N,3.49E-03,66,66,11,148,148,155.1293,0,9999.99,2.78,2.907,2,9,26.5,0,26.5,33.49,1536.24591,2/13/21,15:35:25,25.21,51.03,33.49,0.86,8.24,-73.1,-1.2,-5.6,-4621,74.5,5.07,13.1,
25.91232236,-80.13762353,56:39.2,2/13/21,9,1.155,151.11,-7.060533745,1.16,159.4,149.51,0.47,-2.34,29.8,0.01,2.8,2.81,58,29,316.7,14.8,-1.9,D,672.4,2,6.965,1,1.09,155,155.09,-80.1375942,25.91226555,0,0,1,N,0.1310106,60,60,11,149,149,154.9811,0,9999.99,2.81,2.937,2,9,26.5,0,26.5,33.49,1536.24603,2/13/21,15:35:26,25.22,51.03,33.49,0.854,8.24,-72.9,-1,-3.6,-3304,74.6,5.08,13,
25.91231795,-80.13762013,56:40.2,2/13/21,9,1.132,147.94,-7.060533745,1.16,159.5,149.61,1.23,-1.84,29.7,0.01,2.79,2.8,58,29,316.7,14.8,-1.9,D,672.4,2,6.378,1,1.1,155,156,-80.1375942,25.91226555,0,0,1,N,0.1137726,65,65,11,151,151,155.6509,0,9999.99,2.8,2.927,2,9,26.5,0,26.5,33.5,1536.25645,2/13/21,15:35:27,25.22,51.05,33.5,0.799,8.24,-73.2,-2.4,-4,-1214,74.6,5.08,13.1,
25.91231329,-80.13761732,56:41.2,2/13/21,9,1.097,150.38,-7.060533745,1.17,160.8,150.86,1.29,-1.53,29.7,0.01,2.8,2.81,58,29,316.7,14.8,-1.9,D,672.4,2,5.79,1,1.08,154,156.46,-80.1375942,25.91226555,0,0,1,N,0.2099055,65,65,11,148,148,155.8829,0,9999.99,2.81,2.937,2,9,26.5,0,26.5,33.49,1536.24601,2/13/21,15:35:28,25.22,51.03,33.49,0.816,8.26,-74.4,-1.8,-0.6,-1700,74.6,5.08,13.1,
25.9123087,-80.13761453,56:42.2,2/13/21,9,1.134,149.74,-7.060533745,1.17,160.5,150.57,1.29,-2.81,29.8,0,2.8,2.81,58,28,316.7,14.8,-1.9,D,681.7,3,35.519,1,1.07,154,152.97,-80.13745312,25.91202417,0,0,1,N,0.4425321,65,65,11,140,140,153.9009,0,9999.99,2.81,2.937,2,9,26.5,0,26.5,33.49,1536.24583,2/13/21,15:35:30,25.22,51.03,33.49,0.82,8.24,-73.1,-3.2,-4.3,-2754,74.7,5.08,12.9,
25.91230396,-80.13761182,56:43.2,2/13/21,9,1.071,150.4,-7.060533745,1.17,161.2,151.25,0.61,-1.96,29.9,0.01,2.81,2.82,58,28,316.7,14.8,-1.9,D,681.7,3,34.927,1,1.07,154,152.97,-80.13745312,25.91202417,0,0,1,N,0.4483599,63,63,11,140,140,153.9635,0,9999.99,2.82,2.947,2,9,26.5,0,26.5,33.49,1536.24583,2/13/21,15:35:30,25.22,51.03,33.49,0.82,8.24,-73.1,-3.2,-4.3,-2754,74.7,5.08,12.9,
25.91229981,-80.13760935,56:44.2,2/13/21,9,0.866,150.4,-7.060533745,1.17,162,152.02,1.58,-0.34,29.8,0.01,2.8,2.82,58,28,316.7,14.8,-1.9,D,681.7,3,34.402,1,1.04,154,152.99,-80.13745312,25.91202417,0,0,1,N,0.4384148,65,65,11,137,137,154.0711,0,9999.99,2.81,2.937,2,9,26.5,0,26.5,33.49,1536.24603,2/13/21,15:35:31,25.22,51.03,33.49,0.824,8.24,-73.1,-3.5,-3.5,-2357,74.7,5.08,13.1,
25.91229536,-80.13760722,56:45.2,2/13/21,9,1.099,149.16,-7.060533745,1.17,160.8,150.86,1.1,-2.86,29.7,0.02,2.79,2.8,58,28,316.7,14.8,-1.9,D,681.7,3,33.866,1,1.06,154,152.93,-80.13745312,25.91202417,0,0,1,N,0.428665,64,64,11,140,140,153.9885,0,9999.99,2.8,2.927,2,9,26.5,0,26.5,33.5,1536.2573,2/13/21,15:35:32,25.22,51.04,33.5,0.868,8.26,-74.1,-2.8,-1.4,-1678,74.7,5.08,13.1,
25.91229104,-80.13760354,56:46.2,2/13/21,9,1.134,147.64,-7.060533745,1.17,160.9,150.96,0.64,-1.91,29.7,0.01,2.82,2.83,58,28,316.7,14.8,-1.9,D,684.2,3,33.271,1,1.04,154,153.12,-80.13745312,25.91202417,0,0,1,N,0.4003022,61,61,11,141,141,154.5693,0,9999.99,2.83,2.957,2,9,26.5,0,26.5,33.49,1536.24642,2/13/21,15:35:33,25.22,51.03,33.49,0.824,8.24,-73,-3,-0.3,-4755,74.6,5.08,13.1,
25.91228698,-80.13760368,56:47.2,2/13/21,9,0.897,147.64,-7.060533745,1.17,161.7,151.73,0.61,-3.9,29.7,0.01,2.8,2.81,58,28,316.7,14.8,-1.9,D,684.2,3,32.875,1,1.03,154,152.74,-80.13745312,25.91202417,0,0,1,N,0.5061393,61,61,11,136,136,153.5871,0,9999.99,2.81,2.937,2,9,26.5,0,26.5,33.49,1536.24589,2/13/21,15:35:34,25.22,51.03,33.49,0.859,8.24,-73.1,-3.4,-1.2,-2919,74.6,5.08,13,
25.91228263,-80.1376022,56:48.2,2/13/21,9,1.019,146.63,-7.060533745,1.17,161.2,151.25,1.1,0.24,29.7,0.01,2.82,2.83,58,28,316.7,14.8,-1.9,D,684.2,3,32.378,1,1.02,154,152.58,-80.13745312,25.91202417,0,0,1,N,0.174427,64,64,11,135,135,153.1771,0,9999.99,2.83,2.957,2,9,26.5,0,26.5,33.51,1536.26735,2/13/21,15:35:35,25.22,51.06,33.51,0.856,8.24,-73,-2.4,-4.1,-27,74.7,5.08,13.1,
25.91227906,-80.13760005,56:49.2,2/13/21,9,1.059,148.61,-7.060533745,1.17,161.1,151.15,1,-3.96,29.7,0,2.83,2.83,58,28,316.7,14.8,-1.9,D,679.2,3,31.926,1,1.01,154,152.59,-80.13745312,25.91202417,0,0,1,N,0.1836783,63,63,11,135,135,153.257,0,9999.99,2.84,2.967,2,9,26.5,0,26.5,33.5,1536.25652,2/13/21,15:35:37,25.23,51.04,33.5,0.828,8.24,-73.1,-2.4,-2.5,-3137,74.8,5.09,13.1,
25.91227482,-80.13759751,56:50.2,2/13/21,9,0.992,149.38,-7.060533745,1.17,161.2,151.25,1.24,-0.86,29.7,0,2.82,2.82,58,28,316.7,14.8,-1.9,D,679.2,3,31.391,1,1.01,154,152.61,-80.13745312,25.91202417,0,0,1,N,0.1937467,64,64,11,135,135,153.3666,0,9999.99,2.83,2.957,2,9,26.5,0,26.5,33.5,1536.25652,2/13/21,15:35:37,25.23,51.04,33.5,0.828,8.24,-73.1,-2.4,-2.5,-3137,74.8,5.09,13.1,
25.91227016,-80.13759486,56:51.2,2/13/21,9,1.09,149.74,-7.060533745,1.17,162.2,152.22,0.74,-3.15,29.7,0,2.84,2.84,58,28,316.7,14.8,-1.9,D,679.2,3,30.808,1,1,154,152.6,-80.13745312,25.91202417,0,0,1,N,0.1969098,60,60,11,131,131,153.4356,0,9999.99,2.85,2.977,2,9,26.5,0,26.5,33.5,1536.25617,2/13/21,15:35:38,25.23,51.05,33.5,0.813,8.24,-73.2,-2.2,-2.5,-2461,74.8,5.09,13,
25.91226606,-80.13759356,56:52.2,2/13/21,9,0.949,153.04,-7.060533745,1.17,161.1,151.15,1.44,-0.85,29.7,0.01,2.84,2.85,58,28,316.7,14.8,-1.9,D,679.2,3,30.344,1,1,154,152.42,-80.13745312,25.91202417,0,0,1,N,0.1868335,65,65,11,131,131,153.5757,0,9999.99,2.85,2.977,2,9,26.5,0,26.5,33.51,1536.26711,2/13/21,15:35:40,25.23,51.06,33.51,0.807,8.25,-73.6,-3,-8,-558,74.8,5.09,13,
25.91226122,-80.13759172,56:53.2,2/13/21,9,1.092,156.02,-7.060533745,1.17,161.7,151.73,0.64,-2.21,29.7,0.01,2.83,2.84,58,28,316.6,14.8,-1.9,D,677.7,3,29.782,1,1.01,154,152.26,-80.13745312,25.91202417,0,0,1,N,9.36E-02,61,61,11,130,130,152.2243,0,9999.99,2.84,2.967,2,9,26.5,0,26.5,33.51,1536.26711,2/13/21,15:35:40,25.23,51.06,33.51,0.807,8.25,-73.6,-3,-8,-558,74.8,5.09,13,
25.91225648,-80.13759103,56:54.2,2/13/21,9,0.968,156.02,-7.060533745,1.17,162.5,152.51,1.37,-1.2,29.7,0.01,2.82,2.83,58,28,316.6,14.8,-1.9,D,677.7,3,29.284,1,1.02,154,151.9,-80.13745312,25.91202417,0,0,1,N,2.77E-03,65,65,11,121,121,150.9203,0,9999.99,2.83,2.957,2,9,26.5,0,26.5,33.5,1536.25658,2/13/21,15:35:41,25.23,51.05,33.5,0.835,8.24,-73.3,-3,-2.3,-3436,74.9,5.1,13.1,
25.91225198,-80.13758921,56:55.2,2/13/21,9,1.146,158.92,-7.060533745,1.17,163.4,153.38,1.04,-1.38,29.7,0,2.82,2.82,58,28,316.6,14.8,-1.9,D,677.7,3,28.756,1,1.01,154,151.75,-80.13745312,25.91202417,0,0,1,N,0.1926378,63,63,11,115,115,150.4145,0,9999.99,2.83,2.957,2,9,26.5,0,26.5,33.52,1536.27784,2/13/21,15:35:43,25.23,51.07,33.52,0.829,8.24,-73.2,-2.9,-1.5,-5487,74.9,5.1,13.1,
25.91224693,-80.13758648,56:56.2,2/13/21,9,1.073,154.93,-7.060533745,1.17,161.8,151.83,0.98,-1.63,29.7,0,2.82,2.82,58,28,316.6,14.8,-1.9,D,680.4,3,28.133,1,1,154,151.7,-80.13745312,25.91202417,0,0,1,N,0.2795599,63,63,11,121,121,150.2669,0,9999.99,2.83,2.957,2,9,26.5,0,26.5,33.52,1536.27784,2/13/21,15:35:43,25.23,51.07,33.52,0.829,8.24,-73.2,-2.9,-1.5,-5487,74.9,5.1,13.1,
25.91224236,-80.13758425,56:57.2,2/13/21,9,1.035,156.42,-7.060533745,1.17,161,151.06,1.27,-1.4,29.7,0,2.82,2.82,58,28,316.6,14.8,-1.9,D,680.4,3,27.58,1,1.02,154,151.61,-80.13745312,25.91202417,0,0,1,N,0.3197804,65,65,11,123,123,149.9791,0,9999.99,2.83,2.957,2,9,26.5,0,26.5,33.53,1536.28823,2/13/21,15:35:44,25.23,51.08,33.53,0.815,8.25,-73.7,-2.7,-5.7,-3923,75,5.1,13.1,
25.91223832,-80.13758267,56:58.2,2/13/21,9,1.014,156.45,-7.060533745,1.17,159.7,149.8,0.95,-0.94,29.7,0.01,2.82,2.83,58,28,316.6,14.8,-1.9,D,682.5,3,27.109,1,1.03,154,151.45,-80.13745312,25.91202417,0,0,1,N,0.311416,64,64,11,126,126,149.473,0,9999.99,2.83,2.957,2,9,26.5,0,26.5,33.52,1536.27761,2/13/21,15:35:45,25.23,51.07,33.52,0.83,8.27,-75.1,-2.8,-2.8,-1487,75,5.1,13.1,
25.91223382,-80.13758166,56:59.2,2/13/21,9,1.035,156.45,-7.060533745,1.17,159.9,149.99,1.42,-1.36,29.7,0.01,2.82,2.83,58,28,316.6,14.8,-1.9,D,682.5,3,26.622,1,1.03,154,151.12,-80.13745312,25.91202417,0,0,1,N,0.3668081,66,66,11,121,121,148.4468,0,9999.99,2.83,2.957,2,9,26.5,0,26.5,33.51,1536.26726,2/13/21,15:35:46,25.23,51.06,33.51,0.852,8.25,-73.7,-2.5,-1.7,-795,75,5.11,13,
25.91222946,-80.13757922,57:00.3,2/13/21,9,1.068,156.45,-7.060533745,1.17,158.7,148.84,-0.3,-2.94,29.7,0,2.83,2.83,58,28,316.6,14.8,-1.9,D,682.5,3,26.08,1,1.01,154,151.08,-80.13745312,25.91202417,0,0,1,N,0.5457805,55,55,11,125,125,148.3656,0,9999.99,2.84,2.967,2,9,26.5,0,26.5,33.52,1536.27771,2/13/21,15:35:48,25.23,51.08,33.52,0.786,8.25,-73.4,-3.6,-4.9,-749,75.2,5.11,13.1,
25.91222516,-80.13757629,57:01.3,2/13/21,9,1.11,156.2,-7.060533745,1.17,157.8,147.97,1.43,-1.36,29.7,0.01,2.83,2.83,58,28,316.6,14.8,-1.9,D,682.5,3,25.52,1,1.03,154,151.14,-80.13745312,25.91202417,0,0,1,N,0.5097563,67,67,11,128,128,148.6225,0,9999.99,2.84,2.967,2,9,26.5,0,26.5,33.52,1536.27789,2/13/21,15:35:49,25.23,51.08,33.52,0.873,8.27,-75.1,-3.4,-0.9,-4136,75.2,5.12,13.1,
25.91222102,-80.13757308,57:02.3,2/13/21,9,1.032,154.93,-7.060533745,1.17,157,147.2,0.75,-2.89,29.7,0.01,2.83,2.83,58,28,316.6,14.8,-1.9,D,677.9,3,24.961,1,1.03,154,151.27,-80.13745312,25.91202417,0,0,1,N,0.4417932,61,61,11,135,135,149.1075,0,9999.99,2.84,2.967,2,9,26.5,0,26.5,33.52,1536.27789,2/13/21,15:35:49,25.23,51.08,33.52,0.873,8.27,-75.1,-3.4,-0.9,-4136,75.2,5.12,13.1,
25.91221637,-80.13757052,57:03.3,2/13/21,9,1.053,154.93,-7.060533745,1.17,157.2,147.39,1,-0.47,29.7,0.01,2.83,2.84,58,28,316.6,14.8,-1.9,D,677.9,3,24.385,1,1.03,154,151.22,-80.13745312,25.91202417,0,0,1,N,0.4547274,63,63,11,133,133,149.0153,0,9999.99,2.84,2.967,2,9,26.5,0,26.5,33.52,1536.2779,2/13/21,15:35:50,25.23,51.07,33.52,0.843,8.25,-73.7,-1.7,-3.6,-4463,75.3,5.12,12.9,
25.91221301,-80.13756658,57:04.3,2/13/21,9,1.11,144.44,-7.060533745,1.17,155.2,145.47,1.12,-3.72,29.7,0.01,2.83,2.84,58,28,316.6,14.8,-1.9,D,677.9,3,23.868,1,1.03,154,151.61,-80.13745312,25.91202417,0,0,1,N,0.2841755,64,64,11,146,146,150.234,0,9999.99,2.84,2.967,2,9,26.5,0,26.5,33.53,1536.28862,2/13/21,15:35:52,25.24,51.09,33.53,0.799,8.25,-73.4,-2.1,-2.3,-1232,75.3,5.12,13.1,
25.91220887,-80.13756354,57:05.3,2/13/21,9,1.205,147.34,-7.060533745,1.17,156.6,146.82,0.96,-1.96,29.7,0.01,2.83,2.84,58,29,316.5,14.8,-1.9,D,673.7,3,23.319,1,1.04,154,151.73,-80.13745312,25.91202417,0,0,1,N,0.2284862,63,63,11,142,142,150.6325,0,9999.99,2.84,2.967,2,9,26.5,0,26.5,33.53,1536.28862,2/13/21,15:35:52,25.24,51.09,33.53,0.799,8.25,-73.4,-2.1,-2.3,-1232,75.3,5.12,13.1,
25.91220452,-80.13756223,57:06.3,2/13/21,9,0.943,147.34,-7.060533745,1.17,156,146.24,-0.18,-3.42,29.8,0.01,2.83,2.84,58,29,316.5,14.8,-1.9,D,673.7,3,22.831,1,1.03,154,151.45,-80.13745312,25.91202417,0,0,1,N,0.3351292,56,56,11,142,142,149.8697,0,9999.99,2.84,2.967,2,9,26.5,0,26.5,33.52,1536.27837,2/13/21,15:35:53,25.24,51.07,33.52,0.863,8.26,-74.5,-2.8,-5.1,-708,75.3,5.12,13.2,
25.91220047,-80.13755899,57:07.3,2/13/21,9,1.084,142.22,-7.060533745,1.17,155.9,146.15,1.43,-2.83,29.7,0.01,2.83,2.84,58,29,316.5,14.8,-1.9,D,673.7,3,22.281,1,1.04,154,151.62,-80.13745312,25.91202417,0,0,1,N,0.2580937,66,66,11,143,143,150.4206,0,9999.99,2.84,2.967,2,9,26.5,0,26.5,33.53,1536.28883,2/13/21,15:35:55,25.24,51.08,33.53,0.931,8.25,-73.8,-3.4,-1,-2956,75.4,5.13,13.1,
25.91219623,-80.13755568,57:08.3,2/13/21,9,0.997,146.36,-7.060533745,1.17,155.7,145.95,0.64,-3.05,29.7,0.01,2.76,2.76,58,29,316.5,14.8,-1.9,D,673.7,3,21.708,1,1.02,154,151.8,-80.13745312,25.91202417,0,0,1,N,0.1858909,61,61,11,147,147,150.9374,0,9999.99,2.77,2.897,2,9,26.5,0,26.5,33.53,1536.28863,2/13/21,15:35:56,25.23,51.08,33.53,0.84,8.25,-73.6,-3.5,0.8,-1829,75.5,5.13,13,
25.91219205,-80.13755301,57:09.3,2/13/21,9,1.103,138.44,-7.060533745,1.17,156.8,147.01,0.56,-0.79,29.8,0.01,2.86,2.87,58,29,316.5,14.8,-1.9,D,673.6,3,21.173,1,1.03,154,151.84,-80.13745312,25.91202417,0,0,1,N,0.165953,60,60,11,143,143,151.0801,0,9999.99,2.87,2.997,2,9,26.5,0,26.5,33.53,1536.28854,2/13/21,15:35:57,25.23,51.09,33.53,0.827,8.26,-74.4,-3.4,-3.4,-3178,75.6,5.14,13.1,
25.91218866,-80.13755318,57:10.3,2/13/21,9,0.944,138.44,-7.060533745,1.17,156.9,147.1,1.67,-2.7,29.7,0,2.86,2.87,58,29,316.5,14.8,-1.9,D,673.6,3,20.849,1,1.01,154,151.32,-80.13745312,25.91202417,0,0,1,N,0.3540179,64,64,11,136,136,149.7346,0,9999.99,2.87,2.997,2,9,26.5,0,26.5,33.53,1536.28854,2/13/21,15:35:57,25.23,51.09,33.53,0.827,8.26,-74.4,-3.4,-3.4,-3178,75.6,5.14,13.1,
25.91218499,-80.13755001,57:11.3,2/13/21,9,1.06,138.24,-7.060533745,1.17,156.9,147.1,0.85,-2.12,29.8,0.01,2.86,2.87,58,29,316.5,14.8,-1.9,D,673.6,3,20.339,1,1.02,154,151.55,-80.13745312,25.91202417,0,0,1,N,0.2633624,61,61,11,139,139,150.383,0,9999.99,2.87,2.997,2,9,26.5,0,26.5,33.54,1536.29919,2/13/21,15:35:59,25.23,51.1,33.54,0.79,8.25,-74,-2.7,-1.2,-1031,75.7,5.15,13.1,
25.91218155,-80.13754758,57:12.3,2/13/21,9,0.893,138.24,-7.060533745,1.17,156.9,147.1,0.66,-2.52,29.7,0.01,2.86,2.87,58,28,316.5,14.8,-1.9,D,680.2,3,19.888,1,1.01,154,151.64,-80.13745312,25.91202417,0,0,1,N,0.2280077,64,64,11,142,142,150.6359,0,9999.99,2.87,2.997,2,9,26.5,0,26.5,33.54,1536.29919,2/13/21,15:35:59,25.23,51.1,33.54,0.79,8.25,-74,-2.7,-1.2,-1031,75.7,5.15,13.1,
25.91217733,-80.13754524,57:13.4,2/13/21,8,0.958,138.24,-7.060533745,1.26,157.8,147.97,1.35,-3.07,29.7,0.01,2.79,2.79,58,28,316.5,14.8,-1.9,D,680.2,3,19.363,1,0.99,154,151.59,-80.13745312,25.91202417,0,0,1,N,0.2384544,65,65,11,139,139,150.5612,0,9999.99,2.79,2.917,2,9,26.5,0,26.5,33.55,1536.3101,2/13/21,15:36:00,25.24,51.11,33.55,0.798,8.25,-73.7,-2.7,-6.3,-1010,75.8,5.15,12.9,
25.91217325,-80.1375422,57:14.4,2/13/21,8,1.085,142.27,-7.060533745,1.26,157.9,148.07,-0.52,-1.99,29.7,0.01,2.79,2.79,58,28,316.5,14.8,-1.9,D,680.2,3,18.819,1,1,154,151.74,-80.13745312,25.91202417,0,0,1,N,0.1784981,54,54,11,139,139,150.9903,0,9999.99,2.79,2.917,2,9,26.5,0,26.5,33.55,1536.3098,2/13/21,15:36:02,25.24,51.11,33.55,0.796,8.28,-75.8,-4.3,-2.7,-3688,75.9,5.16,12.9,
25.91216971,-80.13754077,57:15.4,2/13/21,9,0.908,142.27,-7.060533745,1.26,157.6,147.78,1.54,-1.07,29.7,0.01,2.79,2.8,58,28,316.5,14.8,-1.9,D,680.2,3,18.405,1,1,154,151.56,-80.13745312,25.91202417,0,0,1,N,0.2366112,66,66,11,138,138,150.5743,0,9999.99,2.79,2.917,2,9,26.5,0,26.5,33.55,1536.3098,2/13/21,15:36:02,25.24,51.11,33.55,0.796,8.28,-75.8,-4.3,-2.7,-3688,75.9,5.16,12.9,
25.91216586,-80.13753594,57:16.4,2/13/21,9,1.328,134.52,-7.060533745,1.26,157.4,147.59,0.37,-2.22,29.7,0.01,2.79,2.8,58,28,316.5,14.8,-1.9,D,675.6,3,17.8,1,1.01,154,152.27,-80.13745312,25.91202417,0,0,1,N,7.74E-03,57,57,11,144,144,152.213,0,9999.99,2.79,2.917,2,9,26.5,0,26.5,33.54,1536.29935,2/13/21,15:36:03,25.25,51.1,33.54,0.907,8.26,-74.1,-2.9,-4.7,-884,76,5.17,13.1,
25.91216192,-80.13753185,57:17.4,2/13/21,9,1.039,136.73,-7.060533745,1.17,156.7,146.91,1.11,-3.01,29.7,0.01,2.82,2.83,58,28,316.5,14.8,-1.9,D,675.6,3,17.223,1,1.01,154,152.79,-80.13745312,25.91202417,0,0,1,N,0.1503917,64,64,11,153,153,153.3454,0,9999.99,2.82,2.947,2,9,26.5,0,26.5,33.56,1536.32089,2/13/21,15:36:05,25.25,51.12,33.56,0.812,8.26,-74.2,-3.6,-3.1,-2053,76.1,5.17,13.1,
25.91215776,-80.13752954,57:18.4,2/13/21,9,1.037,144.53,-7.060533745,1.17,158.2,148.35,1.46,-3.05,29.7,0,2.82,2.82,58,28,316.5,14.8,-1.9,D,675.6,3,16.706,1,0.99,154,152.77,-80.13745312,25.91202417,0,0,1,N,0.1403827,66,66,11,147,147,153.2738,0,9999.99,2.82,2.947,2,9,26.5,0,26.5,33.56,1536.32089,2/13/21,15:36:05,25.25,51.12,33.56,0.812,8.26,-74.2,-3.6,-3.1,-2053,76.1,5.17,13.1,
25.9121534,-80.13752658,57:19.4,2/13/21,9,1.033,140.52,-7.060533745,1.17,156.8,147.01,1.14,-2.17,29.7,0.01,2.81,2.81,58,28,316.4,14.8,-1.9,D,677.6,3,16.14,1,1,154,152.92,-80.13745312,25.91202417,0,0,1,N,0.1751931,63,63,11,150,150,153.523,0,9999.99,2.82,2.947,2,9,26.5,0,26.5,33.55,1536.30978,2/13/21,15:36:06,25.25,51.11,33.55,0.893,8.28,-75.4,-3.5,-5.2,-1598,76.1,5.18,13,
25.91214934,-80.13752284,57:20.4,2/13/21,9,1.124,139.71,-7.060533745,1.17,158.6,148.74,0.74,-1.78,29.7,0,2.81,2.81,58,28,316.4,14.8,-1.9,D,677.6,3,15.568,1,1,154,153.39,-80.13745312,25.91202417,0,0,1,N,0.2951699,62,62,11,152,152,154.3815,0,9999.99,2.82,2.947,2,9,26.5,0,26.5,33.56,1536.32052,2/13/21,15:36:08,25.25,51.12,33.56,0.79,8.26,-74.3,-2.3,-3.3,-2304,76.3,5.19,13.1,
25.9121449,-80.13752091,57:21.4,2/13/21,9,0.987,150.9,-7.060533745,1.17,160.1,150.19,0.43,-3.52,29.7,0,2.86,2.86,58,28,316.4,14.8,-1.9,D,677.6,3,15.04,1,1,154,153.2,-80.13745312,25.91202417,0,0,1,N,0.2406203,60,60,11,142,142,153.9913,0,9999.99,2.86,2.987,2,9,26.5,0,26.5,33.56,1536.32052,2/13/21,15:36:08,25.25,51.12,33.56,0.79,8.26,-74.3,-2.3,-3.3,-2304,76.3,5.19,13.1,
25.91214004,-80.13752113,57:22.4,2/13/21,9,0.965,150.9,-7.060533745,1.17,159.8,149.9,1.36,-1.18,29.8,0.01,2.86,2.86,58,28,316.4,14.8,-1.9,D,677.6,3,14.57,1,1,154,152.17,-80.13745312,25.91202417,0,0,1,N,3.07E-02,65,65,11,136,136,152.0482,0,9999.99,2.86,2.987,2,9,26.5,0,26.5,33.57,1536.33117,2/13/21,15:36:09,25.25,51.14,33.57,0.882,8.26,-74.4,-3.5,-6.6,-1258,76.3,5.19,13.1,
25.91213553,-80.13751928,57:23.4,2/13/21,9,1.09,145.87,-7.060533745,1.17,160.1,150.19,0.16,-3.97,29.7,0.01,2.9,2.91,58,28,316.4,14.8,-1.9,D,676.2,3,14.04,1,1,154,151.88,-80.13745312,25.91202417,0,0,1,N,0.1002989,58,58,11,135,135,151.5502,0,9999.99,2.91,3.037,2,9,26.5,0,26.5,33.55,1536.31023,2/13/21,15:36:11,25.24,51.12,33.55,0.798,8.26,-74.2,-3.9,-4.6,-1837,76.4,5.2,13.1,
25.91213153,-80.13751741,57:24.4,2/13/21,9,0.916,145.87,-7.060533745,1.17,160.5,150.57,1.41,-1.25,29.7,0.01,2.9,2.9,58,28,316.4,14.8,-1.9,D,676.2,3,13.56,1,1.02,154,151.69,-80.13745312,25.91202417,0,0,1,N,0.1410247,66,66,11,130,130,151.2586,0,9999.99,2.91,3.037,2,9,26.5,0,26.5,33.55,1536.31023,2/13/21,15:36:11,25.24,51.12,33.55,0.798,8.26,-74.2,-3.9,-4.6,-1837,76.4,5.2,13.1,
25.9121268,-80.13751424,57:25.4,2/13/21,9,1.08,146.16,-7.060533745,1.17,159,149.13,0.4,-3.52,29.7,0.01,2.81,2.81,58,28,316.4,14.8,-1.9,D,677.2,3,12.946,1,1.01,154,151.82,-80.13745312,25.91202417,0,0,1,N,0.1066746,59,59,11,137,137,151.5045,0,9999.99,2.81,2.937,2,9,26.5,0,26.5,33.56,1536.32066,2/13/21,15:36:12,25.24,51.13,33.56,0.862,8.26,-74.4,-2.3,-0.4,-1116,76.5,5.2,13.1,
25.91212267,-80.13751168,57:26.5,2/13/21,9,1.042,149.21,-7.060533745,1.17,159.4,149.51,0.67,-3.51,29.7,0,2.81,2.81,58,28,316.4,14.8,-1.9,D,677.2,3,12.42,1,1,154,151.87,-80.13745312,25.91202417,0,0,1,N,9.12E-02,62,62,11,132,132,151.6152,0,9999.99,2.81,2.937,2,9,26.5,0,26.5,33.56,1536.32071,2/13/21,15:36:13,25.24,51.13,33.56,0.786,8.26,-74.3,-3,-3,-2852,76.6,5.21,13.2,
25.91211796,-80.13750994,57:27.5,2/13/21,9,1.037,155.45,-7.060533745,1.17,160.8,150.86,0.95,-1.01,29.7,0.01,2.81,2.81,58,28,316.4,14.8,-1.9,D,677.2,3,11.877,1,1,154,151.42,-80.13745312,25.91202417,0,0,1,N,0.1818027,63,63,11,127,127,150.9666,0,9999.99,2.81,2.937,2,9,26.5,0,26.5,33.57,1536.33118,2/13/21,15:36:15,25.25,51.14,33.57,0.818,8.26,-74.2,-3.1,-1.8,-1412,76.7,5.22,13.1,
25.91211343,-80.13750778,57:28.4,2/13/21,9,1.032,154.43,-7.060533745,1.17,160.2,150.28,0.18,-3.87,29.7,0.01,2.93,2.93,58,28,316.4,14.8,-1.9,D,678.9,3,11.332,1,1.02,154,151.15,-80.13745312,25.91202417,0,0,1,N,0.2250054,58,58,11,128,128,150.6574,0,9999.99,2.93,3.057,2,9,26.5,0,26.5,33.57,1536.33118,2/13/21,15:36:15,25.25,51.14,33.57,0.818,8.26,-74.2,-3.1,-1.8,-1412,76.7,5.22,13.1,
25.91210933,-80.13750594,57:29.5,2/13/21,9,0.895,154.43,-7.060533745,1.17,159.8,149.9,1.39,-1.73,29.7,0,2.93,2.93,58,28,316.4,14.8,-1.9,D,678.9,3,10.844,1,1.02,154,150.85,-80.13745312,25.91202417,0,0,1,N,0.2746966,65,65,11,129,129,150.3018,0,9999.99,2.93,3.057,2,9,26.5,0,26.5,33.57,1536.33124,2/13/21,15:36:16,25.25,51.14,33.57,0.835,8.27,-74.7,-2.4,-2.9,-993,76.8,5.22,13.1,
25.91210484,-80.1375051,57:30.5,2/13/21,9,1.045,154.43,-7.060533745,1.17,159.6,149.7,1.09,-2.18,29.7,0,2.93,2.93,58,28,316.4,14.8,-1.9,D,678.9,3,10.368,1,1.02,154,149.91,-80.13745312,25.91202417,0,0,1,N,0.4329859,63,63,11,125,125,149.1705,0,9999.99,2.93,3.057,2,9,26.5,0,26.5,33.57,1536.3312,2/13/21,15:36:18,25.25,51.13,33.57,0.812,8.26,-74.6,-3.5,-5.4,-1518,76.9,5.23,13,
25.91210015,-80.13750235,57:31.5,2/13/21,9,1.137,155.65,-7.060533745,1.17,158.9,149.03,0.36,-1.9,29.7,0.01,2.84,2.85,58,28,316.4,14.8,-1.9,D,678.9,3,9.778,1,1.01,154,149.77,-80.13745312,25.91202417,0,0,1,N,0.4343188,59,59,11,128,128,149.1609,0,9999.99,2.85,2.977,2,9,26.5,0,26.5,33.57,1536.3312,2/13/21,15:36:18,25.25,51.13,33.57,0.812,8.26,-74.6,-3.5,-5.4,-1518,76.9,5.23,13,
25.91209562,-80.13749854,57:32.5,2/13/21,9,0.99,151.06,-7.060533745,1.17,158,148.16,1.32,-1.2,29.7,0.01,2.83,2.84,58,28,316.3,14.8,-1.9,D,678.4,3,9.152,1,1.02,154,150.24,-80.13745312,25.91202417,0,0,1,N,0.3310061,65,65,11,134,134,149.8991,0,9999.99,2.84,2.967,2,9,26.5,0,26.5,33.57,1536.33151,2/13/21,15:36:19,25.25,51.14,33.57,0.801,8.26,-74.3,-2.9,-4.6,-3741,77,5.24,13.1,
