Latitude,Longitude,Time,Date,Number of Sats,GPS Speed (Kn),GPS True Heading,GPS Magnetic Variation,HDOP,C Magnetic Heading,C True Heading,Pitch Angle,Roll Angle,C Inside Temp (c),DFS Depth (m),DTB Height (m),Total Water Column (m),Batt Percent,Power Watts,Watt-Hours,Batt Volts,Batt Ampers,Batt State,Time to Empty,Current Step,Dist To Next (m),Next Speed (kn),Vehicle Speed (kn),Motor Speed CMD,Next Heading,Next Long,Next Lat,Next Depth (m),Depth Goal (m),Vehicle State,Error State,Distance to Track (m),Fin Pitch R,Fin Pitch L,Pitch Goal,Fin Yaw T,Fin Yaw B,Yaw Goal,Fin Roll,DVL-Depth (m),DVL -Altitude (m),DVL -Water Column (m),DVL-FixType,DVL-FixQuality,DVL-Temperature,Conductivity (mmhos/cm),Temperature (c),Salinity (ppt),Sound Speed (m/s),Date m/d/y   ,Time hh:mm:ss,Temp C,SpCond mS/cm,Sal ppt,Depth feet,pH,pH mV,Turbid+ NTU,Chl ug/L,BGA-PC cells/mL,ODOsat %,ODO mg/L,Battery volts,ROSEM Command Type
25.91275883,-80.13786017,01:41.0,2/13/21,7,0.247,59.34,-7.060548918,1.81,80.2,75.29,0.84,-5,29.3,0,2.61,2.62,62,22,339.6,15,-1.4,D,951.1,0,3.166,2,0,128,122.89,-80.13783442,25.91274487,0,0,1,N,0.3663357,63,63,11,5,5,285.0399,0,9999.99,2.62,2.747,2,9,28,0,28.10000038,33.75,1540.11744,2/13/21,14:40:25,25.44,51.39,33.75,1.228,7.9,-53.2,-3.5,-4.4,-2292,93.7,6.34,12.8,
25.91275883,-80.137861,01:42.0,2/13/21,7,0.022,59.34,-7.060548918,1.81,80.4,75.48,1.33,-9,29.3,0,2.62,2.63,62,22,339.6,15,-1.4,D,951.1,1,21.548,2,0.1,174,125.97,-80.13768571,25.91264487,0,0,1,N,0.4217438,62,62,11,250,250,130.5587,0,9999.99,2.63,2.757,2,9,28,0,28,33.68,1539.82382,2/13/21,14:40:26,25.44,51.3,33.68,1.147,7.92,-54,-3.5,-4.8,-3579,93.1,6.31,12.7,
25.91275864,-80.13786097,01:43.0,2/13/21,7,0.022,59.34,-7.060548918,1.81,79.5,74.62,1.58,0.84,29.3,0.01,2.56,2.57,62,22,339.6,15,-1.4,D,951.1,1,21.617,2,0.02,174,125.82,-80.13768571,25.91264487,0,0,1,N,0.361858,70,70,11,250,250,124.9581,0,9999.99,2.57,2.698897,0,0,28,0,28,33.71,1539.85592,2/13/21,14:40:28,25.43,51.33,33.71,1.209,7.9,-52.9,-3.7,-1.5,-4182,92.3,6.25,12.8,
25.91275756,-80.13785903,01:44.0,2/13/21,7,0.37,59.34,-7.060548918,1.81,82.8,77.77,1.53,-4.56,29.3,0.01,2.63,2.64,62,29,339.5,15,-1.9,D,724.4,1,21.389,2,0.12,174,125.86,-80.13768571,25.91264487,0,0,1,N,0.3468688,66,66,11,250,250,124.9959,0,9999.99,2.64,2.767,2,9,27.9,0,28,33.71,1539.85592,2/13/21,14:40:28,25.43,51.33,33.71,1.209,7.9,-52.9,-3.7,-1.5,-4182,92.3,6.25,12.8,
25.91275583,-80.13785067,01:45.0,2/13/21,7,0.942,59.34,-7.060548918,1.81,88.4,83.08,1.25,0.01,29.3,0.01,2.62,2.63,62,29,339.5,15,-1.9,D,724.4,1,20.988,2,0.36,174,126.54,-80.13768571,25.91264487,0,0,1,N,0.1026964,65,65,11,250,250,126.2326,0,9999.99,2.64,2.767,2,9,27.9,0,27.89999962,33.76,1539.68846,2/13/21,14:40:29,25.43,51.4,33.76,1.196,7.9,-52.8,-3.6,-5.1,-3692,91.8,6.21,12.7,
25.9127565,-80.13784367,01:46.0,2/13/21,6,1.335,59.34,-7.060548918,2.29,95.8,90.04,1.64,-4.39,29.4,0,2.7,2.7,62,29,339.5,15,-1.9,D,724.4,1,20.359,2,0.61,174,127.21,-80.13768571,25.91264487,0,0,1,N,0.1332905,67,67,11,250,250,127.5438,0,9999.99,2.71,2.837,2,9,27.9,0,27.89999962,33.69,1539.61423,2/13/21,14:40:31,25.41,51.3,33.69,1.184,7.91,-53.5,-1.9,-0.7,-3626,90.9,6.16,12.7,
25.91275593,-80.13783958,01:47.0,2/13/21,6,1.335,59.34,-7.060548918,2.29,105,98.61,0.84,-1.72,29.4,0,2.77,2.77,62,41,339.6,14.9,-2.7,D,516.2,1,19.732,2,0.84,174,128.75,-80.13768571,25.91264487,0,0,1,N,0.6557469,64,64,11,250,250,130.7991,0,9999.99,2.78,2.907,2,9,27.9,0,27.89999962,33.69,1539.61423,2/13/21,14:40:31,25.41,51.3,33.69,1.184,7.91,-53.5,-1.9,-0.7,-3626,90.9,6.16,12.7,
25.912754,-80.13782867,01:48.0,2/13/21,6,1.485,96.15,-7.060548918,2.29,113.2,106.21,1.72,-5.37,29.3,0,2.9,2.9,62,41,339.6,14.9,-2.7,D,516.2,1,18.912,2,1.04,174,130.08,-80.13768571,25.91264487,0,0,1,N,1.067746,67,67,11,238,238,134.0061,0,9999.99,2.91,3.037,2,9,27.8,0,27.79999924,33.71,1539.4143,2/13/21,14:40:32,25.38,51.34,33.71,1.187,7.91,-53.8,-4.2,-1.4,-3859,90.5,6.13,12.9,
25.91275017,-80.13782267,01:49.1,2/13/21,6,1.409,107.3,-7.060548918,2.29,121.9,114.26,2.43,-1.05,29.3,0.01,3.08,3.08,62,41,339.6,14.9,-2.7,D,516.2,1,18.162,2,1.19,174,130.8,-80.13768571,25.91264487,0,0,1,N,1.260446,72,72,11,217,217,135.738,0,9999.99,3.09,3.217,2,9,27.8,0,27.79999924,33.72,1539.42502,2/13/21,14:40:34,25.36,51.35,33.72,1.2,7.9,-53,-3.1,-0.6,-3505,89.6,6.07,12.8,
25.91274595,-80.13781358,01:50.0,2/13/21,6,1.631,109.43,-7.060548918,2.29,129.4,121.21,2.74,-4.45,29.4,0.01,3.14,3.15,62,41,339.6,14.9,-2.7,D,516.2,1,17.026,2,1.3,174,131.31,-80.13768571,25.91264487,0,0,1,N,1.220024,73,73,11,187,187,136.2629,0,9999.99,3.16,3.287,2,9,27.8,0,27.79999924,33.72,1539.42502,2/13/21,14:40:34,25.36,51.35,33.72,1.2,7.9,-53,-3.1,-0.6,-3505,89.6,6.07,12.8,
25.91274163,-80.13780648,01:51.1,2/13/21,6,1.718,119.44,-7.060548918,2.29,135.3,126.69,2.51,-2.61,29.4,0.01,3.18,3.19,62,41,339.6,14.9,-2.7,D,510.2,1,16.176,2,1.41,174,131.69,-80.13768571,25.91264487,0,0,1,N,1.333766,72,72,11,167,167,136.6349,0,9999.99,3.21,3.337,2,9,27.7,0,27.70000076,33.75,1539.23533,2/13/21,14:40:35,25.35,51.38,33.75,1.193,7.9,-52.9,-4,0,-2514,89.2,6.05,12.7,
25.91273772,-80.13780032,01:52.1,2/13/21,6,1.446,120.8,-7.060548918,2.29,140.6,131.65,1.9,-3,29.4,0,3.21,3.21,62,41,339.6,14.9,-2.7,D,510.2,1,15.427,2,1.5,174,132.01,-80.13768571,25.91264487,0,0,1,N,1.307055,68,68,11,148,148,136.8261,0,9999.99,3.23,3.357,2,9,27.7,0,27.70000076,33.74,1539.22442,2/13/21,14:40:37,25.34,51.37,33.74,1.251,7.93,-54.9,-3.9,-1.8,-3372,88.4,6,12.9,
25.91273141,-80.13779422,01:53.1,2/13/21,6,1.664,128.01,-7.060548918,2.29,142.8,133.71,0.86,-0.71,29.4,0,3.22,3.22,62,41,339.6,14.9,-2.7,D,510.2,1,14.505,2,1.59,175,131.56,-80.13768571,25.91264487,0,0,1,N,1.297058,62,62,11,134,134,135.4892,0,9999.99,3.24,3.367,2,9,27.7,0,27.70000076,33.74,1539.22442,2/13/21,14:40:37,25.34,51.37,33.74,1.251,7.93,-54.9,-3.9,-1.8,-3372,88.4,6,12.9,
25.91272455,-80.13778956,01:54.1,2/13/21,6,1.734,135.18,-7.060548918,2.29,144.9,135.69,1.19,-1.25,29.4,0,3.23,3.23,62,41,339.6,14.9,-2.7,D,513,1,13.652,2,1.64,175,130.47,-80.13768571,25.91264487,0,0,1,N,1.072409,64,64,11,117,117,133.1709,0,9999.99,3.24,3.367,2,9,27.6,0,27.60000038,33.74,1539.0019,2/13/21,14:40:38,25.34,51.37,33.74,1.21,7.91,-53.6,-4.5,-4.6,-3445,88.1,5.98,12.7,
25.91271544,-80.13778476,01:55.1,2/13/21,6,2.28,149.37,-7.060548918,2.3,145.2,135.97,1.55,0.1,29.4,0,3.26,3.26,62,41,339.6,14.9,-2.7,D,513,1,12.638,2,1.7,175,128.38,-80.13768571,25.91264487,0,0,1,N,0.7291486,66,66,11,101,101,129.4585,0,9999.99,3.27,3.397,2,9,27.6,0,27.60000038,33.75,1539.01249,2/13/21,14:40:40,25.33,51.39,33.75,1.239,7.91,-53.8,-3.9,-4.3,-4482,87.4,5.93,12.8,
25.91270686,-80.13777911,01:56.1,2/13/21,6,2.021,149.6,-7.060548918,2.3,143.4,134.28,1.71,0.71,29.4,0,3.21,3.21,62,41,339.6,14.9,-2.7,D,513,1,11.609,2,1.76,175,126.42,-80.13768571,25.91264487,0,0,1,N,0.2276014,67,67,11,95,95,126.394,0,9999.99,3.22,3.347,2,9,27.5,0,27.60000038,33.75,1539.01249,2/13/21,14:40:40,25.33,51.39,33.75,1.239,7.91,-53.8,-3.9,-4.3,-4482,87.4,5.93,12.8,
25.91269961,-80.13777221,01:57.2,2/13/21,6,2.005,146.32,-7.060548918,2.3,141.6,132.59,0.44,0.84,29.4,0,3.23,3.24,62,41,339.6,14.9,-2.7,D,513,1,10.578,2,1.77,176,125.13,-80.13768571,25.91264487,0,0,1,N,0.2943713,60,60,11,95,95,124.675,0,9999.99,3.25,3.377,2,9,27.5,0,27.5,33.74,1538.77901,2/13/21,14:40:41,25.33,51.38,33.74,1.216,7.92,-54.4,-4.1,-5.3,-1103,87.1,5.91,12.8,
25.91269171,-80.13776502,01:58.2,2/13/21,6,1.945,145.25,-7.060548918,2.3,140.8,131.84,1.87,2.37,29.4,0,3.22,3.22,62,42,339.6,14.9,-2.8,D,494.7,1,9.49,2,1.93,176,123.29,-80.13768571,25.91264487,0,0,1,N,0.5677736,68,68,11,91,91,122.7229,0,9999.99,3.24,3.367,2,9,27.5,0,27.5,33.73,1538.76834,2/13/21,14:40:43,25.33,51.36,33.73,1.204,7.91,-53.5,-4.1,0.7,-3905,86.4,5.86,12.9,
25.9126802,-80.13775877,01:59.2,2/13/21,6,2.348,149.45,-7.060548918,2.3,138.9,130.06,0.64,1.35,29.4,0,3.22,3.23,62,42,339.6,14.9,-2.8,D,494.7,1,8.296,2,1.97,176,118.26,-80.13768571,25.91264487,0,0,1,N,1.220842,61,61,11,79,79,118.1053,0,9999.99,3.23,3.357,2,9,27.5,0,27.5,33.73,1538.76834,2/13/21,14:40:43,25.33,51.36,33.73,1.204,7.91,-53.5,-4.1,0.7,-3905,86.4,5.86,12.9,
25.91268308,-80.13775044,02:00.2,2/13/21,6,1.661,149.45,-7.060548918,2.3,136.7,128,0.69,0.63,29.4,0,3.21,3.21,62,42,339.6,14.9,-2.8,D,494.7,1,7.744,2,1.97,176,123.28,-80.13768571,25.91264487,0,0,1,N,0.469901,61,61,11,109,109,123.4208,0,9999.99,3.22,3.347,2,9,27.5,0,27.5,33.73,1538.76835,2/13/21,14:40:45,25.32,51.36,33.73,1.185,7.92,-54.4,-2.5,-4.5,-5690,85.9,5.83,12.8,
25.9126769,-80.13774378,02:01.2,2/13/21,6,1.835,141.58,-7.060548918,2.3,135.3,126.69,1.34,4.38,29.4,0,3.28,3.28,62,43,339.6,14.9,-2.8,D,489.5,1,6.812,2,1.98,176,121.52,-80.13768571,25.91264487,0,0,1,N,0.4798211,65,65,11,109,109,122.3154,0,9999.99,3.29,3.417,2,9,27.4,0,27.5,33.73,1538.76835,2/13/21,14:40:45,25.32,51.36,33.73,1.185,7.92,-54.4,-2.5,-4.5,-5690,85.9,5.83,12.8,
25.91267033,-80.1377373,02:02.2,2/13/21,6,1.632,137.72,-7.060548918,2.3,134.6,126.04,0.5,-0.8,29.4,0,3.28,3.28,62,43,339.6,14.9,-2.8,D,489.5,1,5.885,2,1.99,176,118.75,-80.13768571,25.91264487,0,0,1,N,0.6131161,61,61,11,107,107,120.8947,0,9999.99,3.28,3.407,2,9,27.4,0,27.39999962,33.73,1538.54476,2/13/21,14:40:46,25.32,51.36,33.73,1.208,7.93,-54.7,-3.1,1.9,-3565,85.7,5.82,12.7,
25.912665,-80.13772864,02:03.2,2/13/21,6,1.713,132.81,-7.060548918,2.3,134.9,126.32,1.56,-0.21,29.4,0,3.28,3.28,62,43,339.6,14.9,-2.8,D,489.5,1,4.843,2,1.97,176,117.53,-80.13768571,25.91264487,0,0,1,N,0.8008997,66,66,11,107,107,121.2118,0,9999.99,3.29,3.417,2,9,27.4,0,27.39999962,33.73,1538.54475,2/13/21,14:40:47,25.31,51.35,33.73,1.201,7.91,-53.8,-4.8,-4.8,-2471,85.5,5.8,12.9,
25.91266007,-80.13772143,02:04.2,2/13/21,6,1.731,130.86,-7.060548918,2.3,135.3,126.69,1.12,5.83,29.4,0,3.31,3.31,62,43,339.6,14.9,-2.8,D,489.5,2,29.511,2,2.01,176,146.81,-80.13755989,25.91243797,0,0,1,N,2.297581,63,63,11,184,184,140.4579,0,9999.99,3.32,3.447,2,9,27.4,0,27.39999962,33.73,1538.54473,2/13/21,14:40:48,25.3,51.36,33.73,1.174,7.91,-53.9,-3.5,2.4,-4098,85.2,5.79,12.9,
25.91265375,-80.13771404,02:05.2,2/13/21,6,1.941,130.03,-7.060548918,2.3,139.9,130.99,0.62,-1.87,29.4,0,3.32,3.33,62,43,339.6,14.9,-2.8,D,489.3,2,28.52,2,1.98,176,147.28,-80.13755989,25.91243797,0,0,1,N,1.964011,61,61,11,167,167,140.8855,0,9999.99,3.33,3.457,2,9,27.4,0,27.39999962,33.74,1538.55533,2/13/21,14:40:50,25.29,51.37,33.74,1.233,7.93,-54.9,-3.6,-1,-3232,84.9,5.76,12.6,
25.91265021,-80.13770792,02:06.2,2/13/21,6,1.548,127.56,-7.060548918,2.3,143.5,134.37,1.68,-2.88,29.5,0.01,3.32,3.32,62,43,339.6,14.9,-2.8,D,489.3,2,27.86,2,1.96,176,147.9,-80.13755989,25.91243797,0,0,1,N,1.709258,67,67,11,157,157,141.9345,0,9999.99,3.33,3.457,2,9,27.3,0,27.39999962,33.74,1538.55533,2/13/21,14:40:50,25.29,51.37,33.74,1.233,7.93,-54.9,-3.6,-1,-3232,84.9,5.76,12.6,
25.91263791,-80.13770197,02:07.2,2/13/21,6,2.11,144.97,-7.060548918,2.3,145.9,136.63,1.43,0.6,29.4,0,3.34,3.34,62,43,339.6,14.9,-2.8,D,489.3,2,26.386,2,1.93,176,147.41,-80.13755989,25.91243797,0,0,1,N,1.827581,66,66,11,136,136,138.8981,0,9999.99,3.35,3.477,2,9,27.3,0,27.29999924,33.74,1538.33135,2/13/21,14:40:51,25.29,51.37,33.74,1.171,7.92,-54.1,-3,-2.1,-3634,84.7,5.75,13,
25.91263054,-80.13769622,02:08.2,2/13/21,6,1.973,146.84,-7.060548918,2.3,148.9,139.47,1.88,-0.4,29.4,0,3.33,3.33,62,42,339.6,14.9,-2.8,D,497.5,2,25.386,2,1.92,176,147.51,-80.13755989,25.91243797,0,0,1,N,1.711436,68,68,11,126,126,139.2527,0,9999.99,3.35,3.477,2,9,27.3,0,27.29999924,33.74,1538.33104,2/13/21,14:40:53,25.29,51.37,33.74,1.175,7.9,-52.9,-4,-2.8,-2933,84.3,5.72,12.8,
25.91262031,-80.13768938,02:09.3,2/13/21,6,2.155,146.1,-7.060548918,2.3,149.7,140.23,1.39,1.28,29.4,0,3.34,3.34,62,42,339.6,14.9,-2.8,D,497.5,2,24.058,2,1.94,176,147.43,-80.13755989,25.91243797,0,0,1,N,1.659406,65,65,11,124,124,139.6053,0,9999.99,3.35,3.477,2,9,27.3,0,27.29999924,33.74,1538.33104,2/13/21,14:40:54,25.29,51.37,33.74,1.191,7.93,-54.8,-3.9,-2.1,-4019,84.2,5.71,12.7,
25.91261031,-80.13768436,02:10.3,2/13/21,6,2.357,149.89,-7.060548918,2.3,150.9,141.37,0.97,0.47,29.4,0,3.35,3.35,62,42,339.6,14.9,-2.8,D,497.5,2,22.852,2,1.94,176,146.99,-80.13755989,25.91243797,0,0,1,N,1.752504,62,62,11,122,122,138.9664,0,9999.99,3.36,3.487,2,9,27.3,0,27.29999924,33.74,1538.33104,2/13/21,14:40:54,25.29,51.37,33.74,1.191,7.93,-54.8,-3.9,-2.1,-4019,84.2,5.71,12.7,
25.9125998,-80.13767822,02:11.3,2/13/21,6,2.238,152.01,-7.060548918,2.3,150.2,140.71,1.87,0.3,29.4,0,3.35,3.35,62,42,339.6,14.9,-2.8,D,497.5,2,21.538,2,1.97,176,146.67,-80.13755989,25.91243797,0,0,1,N,1.770841,68,68,11,120,120,138.8412,0,9999.99,3.37,3.497,2,9,27.3,0,27.29999924,33.75,1538.34166,2/13/21,14:40:55,25.28,51.38,33.75,1.2,7.92,-54.2,-4.3,-0.4,-1656,84,5.7,13,
25.91258974,-80.13767089,02:12.3,2/13/21,6,2.4,150.52,-7.060548918,2.3,151.4,141.85,0.54,2.67,29.4,0,3.38,3.38,62,42,339.6,14.9,-2.8,D,500.8,2,20.2,2,1.96,176,146.66,-80.13755989,25.91243797,0,0,1,N,1.664607,60,60,11,118,118,139.5683,0,9999.99,3.39,3.517,2,9,27.3,0,27.29999924,33.75,1538.34166,2/13/21,14:40:57,25.28,51.39,33.75,1.212,7.92,-54,-4.2,-0.5,-4864,83.7,5.68,13,
25.91257858,-80.13766486,02:13.3,2/13/21,6,2.468,152.52,-7.060548918,2.3,149.9,140.42,1.12,2.57,29.4,0,3.37,3.37,62,42,339.6,14.9,-2.8,D,500.8,2,18.833,2,2,176,146.12,-80.13755989,25.91243797,0,0,1,N,1.733832,61,61,11,119,119,139.0938,0,9999.99,3.38,3.507,2,9,27.3,0,27.29999924,33.75,1538.34166,2/13/21,14:40:57,25.28,51.39,33.75,1.212,7.92,-54,-4.2,-0.5,-4864,83.7,5.68,13,
25.91257063,-80.13766153,02:14.3,2/13/21,6,2.057,154.51,-7.060548918,2.3,149.8,140.33,1.21,0.63,29.5,0,3.38,3.38,62,42,339.6,14.9,-2.8,D,500.8,2,17.914,2,2,176,145.43,-80.13755989,25.91243797,0,0,1,N,1.86358,64,64,11,119,119,138.2094,0,9999.99,3.39,3.517,2,9,27.2,0,27.29999924,33.76,1538.35228,2/13/21,14:40:58,25.27,51.39,33.76,1.256,7.93,-55.1,-4.6,-3.8,-1855,83.6,5.67,12.7,
25.91256578,-80.13765504,02:15.3,2/13/21,7,2.041,146.77,-7.060548918,1.81,149.8,140.33,0.73,0.48,29.5,0,3.38,3.38,62,42,339.6,14.9,-2.8,D,493.4,2,17.103,2,2.01,176,146.19,-80.13755989,25.91243797,0,0,1,N,1.552182,61,61,11,127,127,140.3421,0,9999.99,3.38,3.507,2,9,27.2,0,27.20000076,33.76,1538.12734,2/13/21,14:40:59,25.27,51.39,33.76,1.177,7.95,-56.2,-4.1,-2.8,-2968,83.4,5.66,12.9,
25.91255804,-80.13764848,02:16.3,2/13/21,7,2.244,143.86,-7.060548918,1.81,149.7,140.23,0.67,3.43,29.5,0,3.39,3.39,62,42,339.6,14.9,-2.8,D,493.4,2,16.024,2,2.05,176,146.43,-80.13755989,25.91243797,0,0,1,N,1.39229,61,61,11,132,132,141.4496,0,9999.99,3.4,3.527,2,9,27.2,0,27.20000076,33.75,1538.11671,2/13/21,14:41:00,25.27,51.39,33.75,1.242,7.93,-54.9,-4.4,-1.6,-4577,83.3,5.66,12.8,
25.91255125,-80.13764319,02:17.3,2/13/21,7,2.032,143.59,-7.060548918,1.81,150.3,140.8,0.86,1.72,29.5,0,3.41,3.41,62,42,339.6,14.9,-2.8,D,493.4,2,15.102,2,2.03,176,146.52,-80.13755989,25.91243797,0,0,1,N,1.208596,61,61,11,128,128,142.1819,0,9999.99,3.42,3.547,2,9,27.2,0,27.20000076,33.74,1538.10608,2/13/21,14:41:01,25.27,51.37,33.74,1.176,7.93,-54.7,-5.1,-2.2,-3388,83.2,5.65,12.9,
25.91254326,-80.13763654,02:18.3,2/13/21,7,1.838,143.78,-7.060548918,1.81,150.4,140.9,0.81,2.42,29.5,0,3.41,3.41,62,42,339.6,14.9,-2.8,D,493.4,2,13.994,2,2.02,176,146.78,-80.13755989,25.91243797,0,0,1,N,1.129922,61,61,11,137,137,143.2828,0,9999.99,3.42,3.547,2,9,27.2,0,27.20000076,33.75,1538.11671,2/13/21,14:41:03,25.26,51.38,33.75,1.147,7.95,-56.1,-5,-2.5,-3963,83.1,5.64,12.9,
25.91248737,-80.1375848,02:24.6,2/13/21,7,1.147,143.36,-7.060548918,1.81,152,142.42,-0.33,-5.87,29.5,0,3.46,3.46,62,26,339.6,15,-1.7,D,812.3,2,6.032,2,1.36,176,155.6,-80.13755989,25.91243797,0,0,1,N,1.021086,55,55,11,153,153,148.9951,0,9999.99,3.46,3.587,2,9,27.1,0,27.20000076,33.77,1538.13796,2/13/21,14:41:09,25.25,51.42,33.77,1.187,7.93,-55.1,-4.4,-1.1,-5041,82.6,5.61,12.9,
25.91250995,-80.13760589,02:25.6,2/13/21,7,0.877,143.75,-7.060548918,1.81,150.5,140.99,2.3,-1.82,29.6,0.03,3.44,3.47,62,26,339.6,15,-1.7,D,812.3,2,9.232,2,1.21,176,150.11,-80.13755989,25.91243797,0,0,1,N,0.212259,71,71,11,162,162,149.8023,0,9999.99,3.44,3.567,2,9,27.1,0,27.20000076,33.77,1538.13796,2/13/21,14:41:09,25.25,51.42,33.77,1.187,7.93,-55.1,-4.4,-1.1,-5041,82.6,5.61,12.9,
25.91250594,-80.13760264,02:26.6,2/13/21,7,0.866,144.62,-7.060548918,1.81,152.9,143.28,0.01,2.74,29.6,0.03,3.44,3.47,62,26,339.6,15,-1.7,D,812.3,2,8.684,2,1.13,178,150.5,-80.13755989,25.91243797,0,0,1,N,0.1368394,57,57,11,155,155,150.3422,0,9999.99,3.46,3.587,2,9,27.1,0,27.10000038,33.79,1537.93601,2/13/21,14:41:10,25.24,51.43,33.79,1.202,7.92,-54.5,-4.7,-4.1,-1819,82.5,5.61,12.8,
25.9125027,-80.13759926,02:27.6,2/13/21,8,1.051,141.27,-7.060548918,1.06,157,147.2,1.27,-0.63,29.6,0,3.43,3.43,62,26,339.6,15,-1.7,D,812.3,2,8.205,2,1.24,181,151.32,-80.13755989,25.91243797,0,0,1,N,7.87E-03,65,65,11,143,143,151.2657,0,9999.99,3.44,3.567,2,9,27.1,0,27.10000038,33.75,1537.89108,2/13/21,14:41:11,25.24,51.39,33.75,1.107,7.96,-56.4,-3.9,-0.9,-3801,82.5,5.61,12.8,
25.91249912,-80.13759636,02:28.6,2/13/21,8,1.198,143.94,-7.060548918,1.06,159.8,149.9,1.81,3.03,29.6,0,3.45,3.46,62,45,339.6,14.9,-3,D,461.9,2,7.717,2,1.41,183,151.79,-80.13755989,25.91243797,0,0,1,N,5.82E-02,68,68,11,134,134,151.7388,0,9999.99,3.46,3.587,2,9,27.1,0,27.10000038,33.78,1537.92299,2/13/21,14:41:13,25.23,51.42,33.78,1.255,7.94,-55.6,-4.2,-4.5,-2223,82.5,5.6,12.8,
25.91249221,-80.13759173,02:29.6,2/13/21,8,1.735,148.14,-7.060548918,1.06,159.6,149.7,1.39,3.96,29.6,0.01,3.46,3.47,62,45,339.6,14.9,-3,D,461.9,2,6.821,2,1.57,184,152.17,-80.13755989,25.91243797,0,0,1,N,9.49E-02,65,65,11,136,136,152.0018,0,9999.99,3.48,3.607,2,9,27.1,0,27.10000038,33.78,1537.92299,2/13/21,14:41:13,25.23,51.42,33.78,1.255,7.94,-55.6,-4.2,-4.5,-2223,82.5,5.6,12.8,
25.91248525,-80.13758809,02:30.6,2/13/21,8,1.642,150.67,-7.060548918,1.06,163.3,153.29,0.94,3.16,29.6,0,3.47,3.47,62,45,339.6,14.9,-3,D,461.9,2,5.966,2,1.75,184,151.79,-80.13755989,25.91243797,0,0,1,N,4.86E-02,63,63,11,121,121,151.6702,0,9999.99,3.48,3.607,2,9,27.1,0,27.10000038,33.75,1537.89176,2/13/21,14:41:14,25.23,51.39,33.75,1.178,7.94,-55.2,-4.4,-2.9,-3253,82.5,5.6,12.7,
25.91247677,-80.1375836,02:31.6,2/13/21,8,1.902,154.05,-7.060548918,1.06,161.9,151.93,0.38,3.37,29.7,0,3.5,3.5,62,52,339.6,14.9,-3.5,D,401.9,2,4.924,2,1.93,185,151.21,-80.13755989,25.91243797,0,0,1,N,1.21E-02,59,59,11,124,124,151.2356,0,9999.99,3.51,3.637,2,9,27.1,0,27.10000038,33.76,1537.90171,2/13/21,14:41:15,25.23,51.4,33.76,1.176,7.95,-56.1,-4.5,-1.8,-5001,82.4,5.6,12.9,
25.91246761,-80.13757931,02:32.6,2/13/21,8,2.066,155.92,-7.060548918,1.06,163.9,153.87,0.9,4.67,29.7,0,3.51,3.51,62,52,339.6,14.9,-3.5,D,401.9,3,28.858,2,1.99,185,150.65,-80.13743787,25.91224141,0,0,1,N,8.35E-02,62,62,11,113,113,150.4555,0,9999.99,3.51,3.637,2,9,27.1,0,27.10000038,33.76,1537.90171,2/13/21,14:41:17,25.23,51.39,33.76,1.163,7.95,-56.2,-4.2,-3.8,-1380,82.4,5.6,13,
25.91245914,-80.13757559,02:33.6,2/13/21,8,2.074,156.58,-7.060548918,1.06,164.8,154.75,0.85,2.7,29.7,0,3.51,3.51,62,52,339.6,14.9,-3.5,D,401.9,3,27.855,2,2.07,185,150.36,-80.13743787,25.91224141,0,0,1,N,0.2149497,64,64,11,104,104,149.7803,0,9999.99,3.52,3.647,2,9,27.1,0,27.10000038,33.76,1537.90171,2/13/21,14:41:17,25.23,51.39,33.76,1.163,7.95,-56.2,-4.2,-3.8,-1380,82.4,5.6,13,
25.91244876,-80.1375712,02:34.6,2/13/21,8,2.204,157.95,-7.060548918,1.06,163.9,153.87,1.04,5.08,29.7,0,3.52,3.52,62,52,339.6,14.9,-3.5,D,401.9,3,26.636,2,2.13,185,149.96,-80.13743787,25.91224141,0,0,1,N,0.401532,63,63,11,106,106,148.5829,0,9999.99,3.53,3.657,2,9,27.1,0,27.10000038,33.77,1537.91235,2/13/21,14:41:18,25.23,51.41,33.77,1.186,7.97,-56.9,-3.1,1.9,-1299,82.3,5.59,12.7,
25.91243982,-80.13756809,02:35.6,2/13/21,8,2.083,159.74,-7.060548918,1.06,165,154.94,0.68,1.48,29.7,0,3.53,3.53,62,54,339.5,14.9,-3.6,D,388.5,3,25.62,2,2.2,185,149.45,-80.13743787,25.91224141,0,0,1,N,0.6110521,61,61,11,95,95,146.924,0,9999.99,3.54,3.667,2,9,27,0,27.10000038,33.76,1537.90171,2/13/21,14:41:20,25.22,51.4,33.76,1.186,7.95,-55.9,-4.3,-0.1,-1416,82.3,5.59,12.9,
25.91243083,-80.13756463,02:36.6,2/13/21,8,2.183,160.74,-7.060548918,1.06,163.6,153.58,1.43,3.63,29.7,0,3.52,3.52,62,54,339.5,14.9,-3.6,D,388.5,3,24.583,2,2.22,184,148.95,-80.13743787,25.91224141,0,0,1,N,0.798553,66,66,11,93,93,145.1217,0,9999.99,3.54,3.667,2,9,27,0,27.10000038,33.76,1537.90171,2/13/21,14:41:20,25.22,51.4,33.76,1.186,7.95,-55.9,-4.3,-0.1,-1416,82.3,5.59,12.9,
25.9124213,-80.13756008,02:37.6,2/13/21,8,2.14,159.2,-7.060548918,1.06,162.1,152.12,1.05,4.45,29.7,0,3.54,3.54,62,54,339.5,14.9,-3.6,D,388.5,3,23.441,2,2.24,184,148.57,-80.13743787,25.91224141,0,0,1,N,0.9208578,63,63,11,96,96,144.2577,0,9999.99,3.55,3.677,2,9,27,0,27,33.79,1537.70734,2/13/21,14:41:21,25.22,51.44,33.79,1.178,7.94,-55.5,-3.2,0.5,-1336,82.3,5.59,12.9,
25.91241216,-80.13755667,02:38.6,2/13/21,8,2.014,159.86,-7.060548918,1.06,163.5,153.48,1.07,3,29.7,0,3.53,3.53,62,52,339.5,14.9,-3.5,D,399.9,3,22.398,2,2.26,184,147.96,-80.13743787,25.91224141,0,0,1,N,1.115369,63,63,11,85,85,142.8857,0,9999.99,3.54,3.667,2,9,27,0,27,33.77,1537.68606,2/13/21,14:41:22,25.22,51.41,33.77,1.21,7.97,-57.3,-3.8,-1.9,-1494,82.2,5.59,12.6,
25.91240404,-80.13755258,02:39.6,2/13/21,8,2.134,158.4,-7.060548918,1.06,162.4,152.41,0.08,0.48,29.7,0,3.54,3.54,62,52,339.5,14.9,-3.5,D,399.9,3,21.416,2,2.27,184,147.61,-80.13743787,25.91224141,0,0,1,N,1.204371,60,60,11,90,90,142.2608,0,9999.99,3.55,3.677,2,9,27,0,27,33.78,1537.6967,2/13/21,14:41:24,25.22,51.42,33.78,1.131,7.96,-56.5,-3,-4.2,-991,82.1,5.58,12.8,
25.91239563,-80.13754809,02:40.6,2/13/21,8,2.026,157.26,-7.060548918,1.06,161.3,151.35,1.7,2.15,29.7,0,3.54,3.54,62,52,339.5,14.9,-3.5,D,399.9,3,20.387,2,2.32,183,147.27,-80.13743787,25.91224141,0,0,1,N,1.267251,67,67,11,89,89,141.8211,0,9999.99,3.55,3.677,2,9,27,0,27,33.78,1537.6967,2/13/21,14:41:24,25.22,51.42,33.78,1.131,7.96,-56.5,-3,-4.2,-991,82.1,5.58,12.8,
25.91238644,-80.13754321,02:41.6,2/13/21,8,2.084,156.68,-7.060548918,1.06,158,148.16,0.62,2.37,29.7,0,3.55,3.55,62,52,339.5,14.9,-3.5,D,399.9,3,19.264,2,2.29,183,146.84,-80.13743787,25.91224141,0,0,1,N,1.342001,61,61,11,91,91,141.2996,0,9999.99,3.56,3.687,2,9,27,0,27,33.77,1537.68606,2/13/21,14:41:25,25.22,51.41,33.77,1.145,7.95,-56.1,-4.3,-4.5,-5332,82.1,5.58,13,
25.91237753,-80.13753877,02:42.6,2/13/21,8,2.131,157.3,-7.060548918,1.06,153.7,144.04,1.06,7.89,29.7,0,3.55,3.55,62,52,339.5,14.9,-3.4,D,405.5,3,18.192,2,2.25,183,146.31,-80.13743787,25.91224141,0,0,1,N,1.449165,63,63,11,113,113,140.5548,0,9999.99,3.56,3.687,2,9,27,0,27,33.77,1537.68606,2/13/21,14:41:27,25.21,51.41,33.77,1.224,7.97,-57.1,-3.3,-4,-3775,82.1,5.58,13,
25.9123685,-80.13753389,02:43.6,2/13/21,8,2.16,155.66,-7.060548918,1.06,155.7,145.95,1.31,3.71,29.7,0,3.57,3.57,62,52,339.5,14.9,-3.4,D,405.5,3,17.087,2,2.24,183,145.8,-80.13743787,25.91224141,0,0,1,N,1.510728,65,65,11,104,104,140.1285,0,9999.99,3.58,3.707,2,9,27,0,27,33.77,1537.68606,2/13/21,14:41:27,25.21,51.41,33.77,1.224,7.97,-57.1,-3.3,-4,-3775,82.1,5.58,13,
25.91236011,-80.13752879,02:44.6,2/13/21,8,2.029,153.81,-7.060548918,1.06,155.8,146.05,0.91,2.59,29.7,0,3.55,3.55,62,52,339.5,14.9,-3.4,D,405.5,3,16.028,2,2.27,183,145.43,-80.13743787,25.91224141,0,0,1,N,1.519437,64,64,11,103,103,140.0684,0,9999.99,3.56,3.687,2,9,27,0,27,33.8,1537.71799,2/13/21,14:41:28,25.21,51.45,33.8,1.182,7.97,-57.1,-3.9,-8.9,-730,82.1,5.58,12.8,
25.91235116,-80.13752287,02:45.6,2/13/21,8,2.128,151.91,-7.060548918,1.06,155,145.28,0.89,2.17,29.7,0,3.58,3.58,62,51,339.5,14.9,-3.4,D,409.8,3,14.873,2,2.26,182,145.14,-80.13743787,25.91224141,0,0,1,N,1.486853,62,62,11,107,107,140.2938,0,9999.99,3.59,3.717,2,9,27,0,27,33.82,1537.73928,2/13/21,14:41:29,25.21,51.47,33.82,1.117,7.97,-57,-4.3,-1.1,-3909,82.1,5.58,12.9,
25.91234238,-80.13751741,02:46.7,2/13/21,8,2.079,151.7,-7.060548918,1.06,154.9,145.19,0.63,5.07,29.7,0,3.59,3.59,62,51,339.5,14.9,-3.4,D,409.8,3,13.76,2,2.27,182,144.68,-80.13743787,25.91224141,0,0,1,N,1.489419,61,61,11,107,107,140.276,0,9999.99,3.6,3.727,2,9,27,0,27,33.86,1537.78185,2/13/21,14:41:31,25.23,51.53,33.86,1.151,7.99,-58.6,-3.9,-5.3,-885,82.2,5.58,12.8,
25.91233412,-80.13751202,02:47.7,2/13/21,8,2.227,149.89,-7.060548918,1.06,156.1,146.34,0.38,1.51,29.8,0,3.6,3.6,62,51,339.5,14.9,-3.4,D,409.8,3,12.699,2,2.21,182,144.27,-80.13743787,25.91224141,0,0,1,N,1.462511,59,59,11,102,102,140.4625,0,9999.99,3.61,3.737,2,9,27,0,27,33.85,1537.77121,2/13/21,14:41:32,25.24,51.52,33.85,1.196,7.99,-58.2,-3.4,-7.4,-1879,82.2,5.58,12.9,
25.91232696,-80.13750749,02:48.7,2/13/21,8,1.937,150.62,-7.060548918,1.06,153.8,144.14,1.41,4.04,29.7,0,3.58,3.58,62,51,339.5,14.9,-3.4,D,409.8,3,11.789,2,2.21,182,143.79,-80.13743787,25.91224141,0,0,1,N,1.460522,65,65,11,114,114,140.4763,0,9999.99,3.59,3.717,2,9,27,0,27,33.82,1537.73928,2/13/21,14:41:33,25.24,51.48,33.82,1.142,7.98,-58.1,-3.1,-4.5,-3757,82.3,5.59,12.9,
25.91231762,-80.13750105,02:49.7,2/13/21,8,2.214,150.03,-7.060548918,1.06,152.9,143.28,0.98,1.6,29.7,0,3.6,3.6,62,49,339.5,14.9,-3.3,D,423.5,3,10.571,2,2.24,181,143.29,-80.13743787,25.91224141,0,0,1,N,1.405046,63,63,11,117,117,140.861,0,9999.99,3.61,3.737,2,9,27,0,27,33.82,1537.73928,2/13/21,14:41:34,25.23,51.48,33.82,1.139,8,-59.2,-4.3,-0.9,372,82.4,5.59,12.7,
25.91230819,-80.13749494,02:50.7,2/13/21,8,2.119,150.08,-7.060548918,1.06,153.5,143.85,1.25,2.8,29.8,0,3.6,3.6,62,49,339.5,14.9,-3.3,D,423.5,3,9.366,2,2.22,181,142.45,-80.13743787,25.91224141,0,0,1,N,1.382939,65,65,11,116,116,141.0151,0,9999.99,3.61,3.737,2,9,27,0,27,33.83,1537.74992,2/13/21,14:41:35,25.23,51.49,33.83,1.113,8.02,-60.3,-3.7,-2.7,-2959,82.5,5.6,12.8,
25.91229993,-80.13748832,02:51.7,2/13/21,8,2.064,145.79,-7.060548918,1.06,152,142.42,1.22,2.3,29.7,0,3.6,3.6,62,49,339.5,14.9,-3.3,D,423.5,3,8.234,2,2.18,181,142.21,-80.13743787,25.91224141,0,0,1,N,1.259711,64,64,11,125,125,141.874,0,9999.99,3.61,3.737,2,9,26.9,0,26.89999962,33.85,1537.5443,2/13/21,14:41:36,25.23,51.52,33.85,1.09,8,-58.8,-2.7,-0.6,-3165,82.6,5.61,12.8,
25.91229217,-80.13748218,02:52.7,2/13/21,8,2.104,146.31,-7.060548918,1.06,154,144.33,0.06,3.68,29.7,0,3.6,3.6,62,48,339.4,14.9,-3.2,D,433,3,7.176,2,2.2,181,141.87,-80.13743787,25.91224141,0,0,1,N,1.133391,57,57,11,121,121,142.7585,0,9999.99,3.61,3.737,2,9,26.9,0,26.89999962,33.83,1537.523,2/13/21,14:41:37,25.23,51.49,33.83,1.216,8,-58.7,-2.9,-4.8,-4535,82.6,5.61,12.9,
25.91228369,-80.13747604,02:53.7,2/13/21,8,2.296,146.63,-7.060548918,1.06,152.6,142.99,0.96,1.35,29.8,0,3.61,3.61,62,48,339.4,14.9,-3.2,D,433,3,6.057,2,2.18,181,140.92,-80.13743787,25.91224141,0,0,1,N,1.062264,64,64,11,128,128,143.2588,0,9999.99,3.62,3.747,2,9,26.9,0,26.89999962,33.88,1537.57626,2/13/21,14:41:38,25.22,51.55,33.88,1.219,8.01,-59.8,-3.7,-0.4,-2899,82.7,5.62,12.8,
25.91227524,-80.13747022,02:54.8,2/13/21,8,2.124,148.41,-7.060548918,1.06,154.1,144.42,1.49,2.08,29.8,0,3.62,3.62,62,48,339.4,14.9,-3.2,D,433,3,4.961,2,2.14,181,139.3,-80.13743787,25.91224141,0,0,1,N,1.006826,66,66,11,124,124,143.6496,0,9999.99,3.62,3.747,2,9,26.9,0,26.89999962,33.87,1537.5656,2/13/21,14:41:39,25.23,51.54,33.87,1.081,8.03,-60.8,-5.1,-6.2,-3367,82.8,5.62,12.9,
25.9122669,-80.13746509,02:55.8,2/13/21,8,2.106,149.48,-7.060548918,1.06,153.9,144.23,0.27,3.96,29.8,0,3.58,3.58,62,48,339.4,14.9,-3.2,D,433,4,28.93,2,2.13,180,147.16,-80.13730823,25.91204831,0,0,1,N,0.8768165,59,59,11,130,130,145.0275,0,9999.99,3.59,3.717,2,9,26.9,0,26.89999962,33.89,1537.58691,2/13/21,14:41:40,25.23,51.58,33.89,1.222,8.01,-59.6,-4.1,-4.2,-2236,82.9,5.63,12.8,
25.91225811,-80.13745845,02:56.8,2/13/21,8,2.094,147.08,-7.060548918,1.06,155.7,145.95,1.57,3.18,29.8,0,3.62,3.62,62,48,339.4,14.9,-3.2,D,437.3,4,27.749,2,2.15,180,147.22,-80.13730823,25.91204831,0,0,1,N,0.8113642,66,66,11,125,125,144.8715,0,9999.99,3.63,3.757,2,9,26.9,0,26.89999962,33.87,1537.5656,2/13/21,14:41:41,25.24,51.54,33.87,1.167,8.01,-59.7,-3.1,-1.2,-4188,83,5.63,12.9,
25.91224823,-80.1374518,02:57.8,2/13/21,8,2.429,149.61,-7.060548918,1.06,156,146.24,0.73,1.53,29.8,0,3.64,3.64,62,48,339.4,14.9,-3.2,D,437.3,4,26.464,2,2.17,180,147.14,-80.13730823,25.91204831,0,0,1,N,0.8124345,62,62,11,122,122,144.2263,0,9999.99,3.65,3.777,2,9,26.9,0,26.89999962,33.87,1537.5656,2/13/21,14:41:42,25.24,51.55,33.87,1.093,8.03,-60.5,-4.8,-5.5,-3451,83.1,5.64,12.7,
25.91223877,-80.13744557,02:58.8,2/13/21,8,2.276,149.53,-7.060548918,1.06,156.7,146.91,0.92,1.48,29.7,0,3.65,3.65,62,48,339.4,14.9,-3.2,D,437.3,4,25.243,2,2.13,180,147.03,-80.13730823,25.91204831,0,0,1,N,0.8200933,64,64,11,115,115,143.2901,0,9999.99,3.66,3.787,2,9,26.9,0,26.89999962,33.87,1537.5656,2/13/21,14:41:43,25.24,51.54,33.87,1.134,8.04,-61.1,-3.5,0.5,-3664,83.2,5.65,12.9,
25.91222989,-80.13744058,02:59.8,2/13/21,8,2.215,149.76,-7.060548918,1.06,155.9,146.15,0.71,2.74,29.8,0,3.67,3.67,62,47,339.4,14.9,-3.1,D,445.3,4,24.143,2,2.14,180,146.75,-80.13730823,25.91204831,0,0,1,N,0.9018257,61,61,11,112,112,142.4423,0,9999.99,3.68,3.807,2,9,26.9,0,26.89999962,33.87,1537.5656,2/13/21,14:41:44,25.24,51.55,33.87,1.116,8.02,-60.1,-4.4,-4.8,-2857,83.4,5.66,12.8,
25.91222166,-80.13743417,03:00.8,2/13/21,8,2.104,148.85,-7.060548918,1.06,156.6,146.82,1.11,1.76,29.8,0,3.65,3.65,62,47,339.4,14.9,-3.1,D,445.3,4,23.026,2,2.14,180,146.84,-80.13730823,25.91204831,0,0,1,N,0.8258864,64,64,11,114,114,142.9799,0,9999.99,3.66,3.787,2,9,26.9,0,26.89999962,33.89,1537.58691,2/13/21,14:41:45,25.23,51.57,33.89,1.153,8.01,-59.5,-3.8,1.7,-1700,83.5,5.67,12.9,
25.91221431,-80.13743031,03:01.8,2/13/21,8,1.904,152.13,-7.060548918,1.06,156.9,147.1,0.8,1.74,29.7,0,3.66,3.66,62,47,339.4,14.9,-3.1,D,445.3,4,22.132,2,2.13,180,146.52,-80.13730823,25.91204831,0,0,1,N,0.9177356,62,62,11,108,108,142.3294,0,9999.99,3.66,3.787,2,9,26.9,0,26.89999962,33.87,1537.5656,2/13/21,14:41:46,25.23,51.55,33.87,1.093,8.01,-59.5,-3.5,-4.2,-1282,83.6,5.68,12.7,
25.91220547,-80.1374248,03:02.8,2/13/21,8,2.131,153.89,-7.060548918,1.06,157.6,147.78,0.78,3.29,29.7,0,3.67,3.67,62,47,339.4,14.9,-3.1,D,445.3,4,21.008,2,2.12,180,146.29,-80.13730823,25.91204831,0,0,1,N,0.952149,62,62,11,104,104,142.0861,0,9999.99,3.68,3.807,2,9,26.9,0,26.89999962,33.88,1537.57626,2/13/21,14:41:47,25.23,51.56,33.88,1.107,8.04,-61.5,-3.9,-0.6,-3101,83.8,5.69,12.9,
25.91219368,-80.13741761,03:03.9,2/13/21,8,2.201,153.15,-7.060548918,1.06,156.4,146.62,-0.14,1.9,29.8,0,3.68,3.68,62,47,339.4,14.9,-3.1,D,443.6,4,19.518,2,2.16,180,145.91,-80.13730823,25.91204831,0,0,1,N,1.026887,56,56,11,107,107,141.5592,0,9999.99,3.69,3.817,2,9,26.9,0,26.89999962,33.86,1537.55495,2/13/21,14:41:49,25.23,51.54,33.86,1.172,8.02,-60,-3.4,-0.4,-4872,83.9,5.7,12.9,
25.9121852,-80.13741337,03:05.0,2/13/21,8,2.047,153.38,-7.060548918,1.06,156.5,146.72,1.78,4.31,29.8,0,3.67,3.67,62,47,339.4,14.9,-3.1,D,443.6,4,18.501,2,2.17,180,145.36,-80.13730823,25.91204831,0,0,1,N,1.141818,68,68,11,103,103,140.7508,0,9999.99,3.67,3.797,2,9,26.9,0,26.89999962,33.86,1537.55495,2/13/21,14:41:49,25.23,51.54,33.86,1.172,8.02,-60,-3.4,-0.4,-4872,83.9,5.7,12.9,
25.91217767,-80.13740932,03:05.9,2/13/21,8,1.938,151.98,-7.060548918,1.06,155.8,146.05,1,1.11,29.8,0,3.68,3.68,62,47,339.4,14.9,-3.1,D,443.6,4,17.582,2,2.16,180,144.9,-80.13730823,25.91204831,0,0,1,N,1.226703,63,63,11,103,103,140.1561,0,9999.99,3.69,3.817,2,9,26.9,0,26.89999962,33.88,1537.57626,2/13/21,14:41:50,25.23,51.55,33.88,1.081,8.01,-59.8,-4.4,0.9,-1100,84,5.71,12.8,
25.91216982,-80.13740384,03:07.0,2/13/21,8,2.026,152.14,-7.060548918,1.06,153.7,144.04,0.66,5.06,29.8,0,3.69,3.69,62,47,339.3,14.9,-3.1,D,442.9,4,16.553,2,2.14,180,144.71,-80.13730823,25.91204831,0,0,1,N,1.213603,64,64,11,111,111,140.2476,0,9999.99,3.7,3.827,2,9,26.9,0,26.89999962,33.89,1537.58691,2/13/21,14:41:52,25.23,51.57,33.89,1.125,8.04,-61.2,-3.9,-0.9,-1555,84.3,5.73,12.8,
25.91216126,-80.13739835,03:08.0,2/13/21,8,1.865,151.89,-7.060548918,1.06,154.2,144.52,0.34,2.49,29.8,0,3.75,3.75,62,47,339.3,14.9,-3.1,D,442.9,4,15.459,2,2.15,180,144.34,-80.13730823,25.91204831,0,0,1,N,1.236889,59,59,11,109,109,140.0847,0,9999.99,3.75,3.877,2,9,26.9,0,26.89999962,33.89,1537.58691,2/13/21,14:41:52,25.23,51.57,33.89,1.125,8.04,-61.2,-3.9,-0.9,-1555,84.3,5.73,12.8,
25.91215293,-80.13739334,03:09.0,2/13/21,8,2.009,149.91,-7.060548918,1.06,153.8,144.14,0.87,2.07,29.8,0,3.7,3.7,62,47,339.3,14.9,-3.1,D,442.9,4,14.415,2,2.1,180,143.81,-80.13730823,25.91204831,0,0,1,N,1.283684,62,62,11,109,109,139.7576,0,9999.99,3.71,3.837,2,9,26.9,0,26.89999962,33.89,1537.58691,2/13/21,14:41:53,25.22,51.58,33.89,1.186,8.03,-60.8,-3.3,0.1,-3947,84.4,5.73,12.9,
25.91214529,-80.13738814,03:10.0,2/13/21,8,1.936,149.21,-7.060548918,1.06,153.1,143.47,1.07,2.76,29.9,0,3.64,3.64,62,47,339.3,14.9,-3.1,D,442.9,4,13.422,2,2.15,179,143.46,-80.13730823,25.91204831,0,0,1,N,1.280395,63,63,11,111,111,139.7806,0,9999.99,3.65,3.777,2,9,26.9,0,26.89999962,33.9,1537.59756,2/13/21,14:41:55,25.22,51.58,33.9,1.153,8.06,-62.4,-3,-4.2,-3171,84.6,5.74,12.9,
25.91213705,-80.13738258,03:11.0,2/13/21,8,2.007,149.08,-7.060548918,1.06,154,144.33,0.31,2.26,29.9,0,3.71,3.71,62,47,339.3,14.9,-3.1,D,442.1,4,12.356,2,2.12,179,143,-80.13730823,25.91204831,0,0,1,N,1.275189,59,59,11,109,109,139.8167,0,9999.99,3.72,3.847,2,9,26.9,0,26.89999962,33.9,1537.59756,2/13/21,14:41:55,25.22,51.58,33.9,1.153,8.06,-62.4,-3,-4.2,-3171,84.6,5.74,12.9,
25.91212867,-80.13737817,03:12.0,2/13/21,8,2.029,148.67,-7.060548918,1.06,153,143.37,0.77,1.09,29.9,0,3.73,3.73,62,47,339.3,14.9,-3.1,D,442.1,4,11.272,2,2.11,179,142.4,-80.13730823,25.91204831,0,0,1,N,1.285862,62,62,11,112,112,139.7426,0,9999.99,3.73,3.857,2,9,26.9,0,26.89999962,33.9,1537.59756,2/13/21,14:41:56,25.22,51.59,33.9,1.124,8.05,-61.7,-3.5,0.6,-2745,84.7,5.75,12.9,
25.9121205,-80.137372,03:13.0,2/13/21,8,1.986,146.73,-7.060548918,1.06,152.6,142.99,1.43,2.8,29.9,0,3.71,3.71,62,47,339.3,14.9,-3.1,D,442.1,4,10.255,2,2.12,179,141.95,-80.13730823,25.91204831,0,0,1,N,1.251824,65,65,11,115,115,139.9801,0,9999.99,3.72,3.847,2,9,26.9,0,26.89999962,33.92,1537.61886,2/13/21,14:41:58,25.22,51.61,33.92,1.113,8.03,-61,-4.2,-6.6,-3109,84.8,5.76,12.8,
25.91207095,-80.13731628,04:13.8,2/13/21,8,0.06,145.09,-7.060548918,1.06,160.6,150.67,1.44,-5.14,30.1,0,3.85,3.85,62,24,338.8,15,-1.6,D,851.4,4,2.643,2,0.1,179,162.26,-80.13730823,25.91204831,0,0,1,N,1.292006,66,66,11,136,136,152.8835,0,9999.99,3.86,3.987,2,9,26.8,0,26.89999962,33.95,1537.65082,2/13/21,14:42:58,25.24,51.66,33.95,1.039,8.09,-64.2,-4.1,-4.2,-2652,88.3,5.99,12.7,
25.91204726,-80.1373009,04:14.8,2/13/21,8,0.21,145.09,-7.060548918,1.06,160.9,150.96,1.1,-3.27,30.1,0,3.87,3.87,62,24,338.8,15,-1.6,D,851.4,4,0.741,2,0.11,179,279.04,-80.13730823,25.91204831,0,0,1,N,0.5627596,64,64,11,135,135,152.9102,0,9999.99,3.88,4.007,0,0,26.8,0,26.79999924,33.96,1537.43397,2/13/21,14:42:59,25.24,51.66,33.96,0.975,8.06,-62.6,-3.7,-2.8,-3660,88.4,6,12.9,
25.91204777,-80.13730093,04:15.8,2/13/21,8,0.212,145.09,-7.060548918,1.06,158.1,148.26,3,2.11,30.1,0,3.86,3.86,62,24,338.8,15,-1.6,D,851.4,5,22.445,2,0.12,184,156.91,-80.13721291,25.9118621,0,0,1,N,0.6369593,71,71,11,169,169,159.8336,0,9999.99,3.87,3.997,2,9,26.8,0,26.79999924,33.98,1537.45529,2/13/21,14:43:00,25.24,51.7,33.98,1.017,8.07,-62.9,-4.6,-6.6,-3273,88.3,5.99,12.9,
25.91204774,-80.13730112,04:16.8,2/13/21,8,0.11,145.09,-7.060548918,1.06,162,152.02,2.05,0.3,30.1,0,3.85,3.85,62,39,338.8,14.9,-2.6,D,540.3,5,22.448,2,0.07,189,156.86,-80.13721291,25.9118621,0,0,1,N,0.6192166,69,69,11,158,158,159.7026,0,9999.99,3.88,4.007,2,9,26.8,0,26.79999924,33.96,1537.43397,2/13/21,14:43:01,25.24,51.67,33.96,0.987,8.05,-62.1,-5.3,2.4,-2576,88.4,6,12.9,
25.91204347,-80.13729864,04:17.8,2/13/21,8,0.95,145.09,-7.060548918,1.06,166.1,156.01,1.45,4.24,30.1,0,3.83,3.83,62,39,338.8,14.9,-2.6,D,540.3,5,21.914,2,0.32,194,156.97,-80.13721291,25.9118621,0,0,1,N,0.6443543,66,66,11,142,142,159.8829,0,9999.99,3.84,3.967,2,9,26.8,0,26.79999924,33.96,1537.43397,2/13/21,14:43:02,25.24,51.67,33.96,1.11,8.08,-63.5,-4.4,-5.1,1024,88.4,6,12.7,
25.91203661,-80.13729743,04:18.8,2/13/21,8,1.268,158,-7.060548918,1.06,173.9,163.68,1.72,1.45,30.1,0,3.81,3.81,62,39,338.8,14.9,-2.6,D,540.3,5,21.166,2,0.7,198,156.46,-80.13721291,25.9118621,0,0,1,N,0.4462009,67,67,11,106,106,158.469,0,9999.99,3.83,3.957,2,9,26.8,0,26.79999924,33.94,1537.41265,2/13/21,14:43:03,25.24,51.64,33.94,1.117,8.06,-62.7,-4.9,-1.9,-4147,88.4,6,12.9,
25.91202734,-80.13729495,04:19.8,2/13/21,8,1.602,162.84,-7.060548918,1.06,176.8,166.57,0.89,5.04,30.1,0,3.81,3.81,62,39,338.8,14.9,-2.6,D,540.3,5,20.123,2,1.15,203,155.94,-80.13721291,25.9118621,0,0,1,N,0.2492271,62,62,11,89,89,157.0614,0,9999.99,3.82,3.947,2,9,26.8,0,26.79999924,33.95,1537.42331,2/13/21,14:43:04,25.23,51.66,33.95,1.065,8.06,-62.5,-4.8,-5.3,-1576,88.4,6,12.9,
25.9120177,-80.13729444,04:20.8,2/13/21,8,1.625,172.09,-7.060548918,1.06,175,164.78,2.07,7.17,30.1,0,3.82,3.82,62,76,338.8,14.8,-5.1,D,273,5,19.127,2,1.64,204,154.77,-80.13721291,25.9118621,0,0,1,N,0.1501444,69,69,11,85,85,154.2019,0,9999.99,3.83,3.957,2,9,26.8,0,26.79999924,33.97,1537.44463,2/13/21,14:43:05,25.22,51.68,33.97,1.131,8.05,-62.1,-4.6,-3.2,-1547,88.5,6,12.9,
25.91200538,-80.1372942,04:21.9,2/13/21,8,2.439,176.22,-7.060548918,1.06,172.2,162,3.3,11.3,30,0,3.79,3.79,62,76,338.8,14.8,-5.1,D,273,5,17.887,2,2.01,204,152.96,-80.13721291,25.9118621,0,0,1,N,0.7083515,76,76,11,78,78,150.217,0,9999.99,3.82,3.947,2,9,26.8,0,26.79999924,33.97,1537.44463,2/13/21,14:43:06,25.22,51.68,33.97,1.131,8.08,-63.9,-3.8,-0.8,-4638,88.5,6.01,12.8,
25.91198924,-80.13728858,04:22.9,2/13/21,8,2.738,172.04,-7.060548918,1.06,167.8,157.68,3.79,12.4,30.1,0,3.78,3.78,62,76,338.8,14.8,-5.1,D,273,5,16.035,2,2.36,203,151.84,-80.13721291,25.9118621,0,0,1,N,0.955853,80,80,11,90,90,148.4638,0,9999.99,3.82,3.942275,2,9,26.8,0,26.79999924,33.96,1537.43397,2/13/21,14:43:07,25.21,51.67,33.96,1.028,8.07,-63,-4.9,-1.6,-2487,88.5,6.01,12.9,
25.91197535,-80.13728426,04:23.9,2/13/21,8,2.94,168.35,-7.060548918,1.06,166.5,156.4,2.92,14,30.1,0,3.74,3.74,62,93,338.7,14.8,-6.2,D,225,5,14.475,2,2.6,202,150.46,-80.13721291,25.9118621,0,0,1,N,1.212405,75,75,11,88,88,146.6594,0,9999.99,3.77,3.898209,2,9,26.8,0,26.79999924,33.98,1537.45529,2/13/21,14:43:08,25.21,51.69,33.98,1.009,8.06,-62.4,-3.9,-1.9,-3456,88.5,6,12.9,
25.91196307,-80.13728068,04:24.9,2/13/21,8,2.69,167.03,-7.060548918,1.06,163.1,153.09,2.71,12.1,30.1,0,3.79,3.79,62,93,338.7,14.8,-6.2,D,225,5,13.115,2,2.74,200,148.88,-80.13721291,25.9118621,0,0,1,N,1.464582,72,72,11,92,92,144.9027,0,9999.99,3.82,3.949706,2,9,26.8,0,26.79999924,33.97,1537.44463,2/13/21,14:43:09,25.2,51.68,33.97,1.065,8.05,-61.8,-4.1,1.4,-3031,88.5,6.01,12.9,
25.91194901,-80.13727476,04:25.9,2/13/21,8,2.961,162.72,-7.060548918,1.06,160.1,150.19,2.44,13,30,0,3.82,3.82,62,84,338.7,14.8,-5.6,D,248.7,5,11.474,2,2.84,197,147.38,-80.13721291,25.9118621,0,0,1,N,1.590498,72,72,11,102,102,144.0325,0,9999.99,3.84,3.96948,2,9,26.8,0,26.79999924,33.97,1537.44463,2/13/21,14:43:10,25.2,51.68,33.97,1.023,8.08,-63.5,-4.3,0.7,-4163,88.5,6.01,12.8,
25.91193723,-80.13726983,04:26.9,2/13/21,8,2.851,160.29,-7.060548918,1.06,159.1,149.22,2.55,10.9,30,0,3.82,3.82,62,84,338.7,14.8,-5.6,D,248.7,5,10.109,2,2.91,193,145.73,-80.13721291,25.9118621,0,0,1,N,1.700693,72,72,11,103,103,143.2752,0,9999.99,3.84,3.96715,2,9,26.8,0,26.79999924,33.97,1537.44463,2/13/21,14:43:11,25.2,51.68,33.97,1.023,8.07,-62.9,-3.8,-3.2,-3092,88.5,6.01,12.9,
25.9119255,-80.13726407,04:27.9,2/13/21,8,2.713,159.87,-7.060548918,1.06,158.2,148.35,2.22,10.4,30,0,3.9,3.9,62,75,338.7,14.8,-5,D,277.1,5,8.711,2,2.93,190,144.03,-80.13721291,25.9118621,0,0,1,N,1.725175,70,70,11,106,106,143.108,0,9999.99,3.92,4.047,2,9,26.8,0,26.79999924,33.99,1537.46595,2/13/21,14:43:12,25.19,51.71,33.99,1.14,8.05,-61.9,-3.2,-1.9,-2022,88.5,6.01,12.9,
25.91191342,-80.13725678,04:28.9,2/13/21,8,2.782,149.54,-7.060548918,1.06,155.4,145.67,3.45,8.9,30,0,3.87,3.87,62,62,338.7,14.9,-4.1,D,336.1,5,7.199,2,2.86,186,142.45,-80.13721291,25.9118621,0,0,1,N,1.624669,77,77,11,117,117,143.7968,0,9999.99,3.89,4.017,2,9,26.7,0,26.70000076,33.99,1537.23779,2/13/21,14:43:13,25.19,51.71,33.99,1.021,8.05,-61.8,-5.3,-4.9,-2664,88.6,6.01,13,
25.91190186,-80.13724886,04:29.9,2/13/21,8,2.619,150.24,-7.060548918,1.06,155,145.28,4.3,8.2,30.1,0,3.9,3.9,62,62,338.7,14.9,-4.1,D,336.1,5,5.698,2,2.8,184,140.88,-80.13721291,25.9118621,0,0,1,N,1.451579,83,83,11,126,126,144.9923,0,9999.99,3.92,4.047,2,9,26.7,0,26.70000076,34,1537.24846,2/13/21,14:43:14,25.19,51.73,34,0.999,8.08,-63.9,-3.7,-2.8,-4340,88.6,6.02,12.8,
25.91189124,-80.13724283,04:30.9,2/13/21,8,2.477,151.59,-7.060548918,1.06,156.4,146.62,1.44,5.59,30.1,0,3.9,3.9,62,62,338.7,14.9,-4.1,D,336.1,5,4.411,2,2.68,183,137.28,-80.13721291,25.9118621,0,0,1,N,1.391666,66,66,11,122,122,145.409,0,9999.99,3.93,4.057,2,9,26.7,0,26.70000076,34,1537.24846,2/13/21,14:43:15,25.18,51.73,34,1.011,8.07,-63,-4.4,1,-972,88.6,6.02,12.9,
25.91188219,-80.13723757,04:31.9,2/13/21,8,2.199,152.59,-7.060548918,1.06,157.4,147.59,2.85,3.85,30.1,0,3.87,3.87,62,62,338.7,14.9,-4.1,D,336.1,6,22.605,2,2.55,183,191.22,-80.13728154,25.91168279,0,0,1,N,3.174026,74,74,11,250,250,180.8678,0,9999.99,3.9,4.027,2,9,26.7,0,26.70000076,34.02,1537.26979,2/13/21,14:43:16,25.17,51.74,34.02,1.143,8.05,-62.1,-4.3,2.5,-2225,88.7,6.02,12.9,
25.91187189,-80.13723248,04:32.9,2/13/21,8,2.215,149.4,-7.060548918,1.06,163.6,153.58,2.14,8.1,30.1,0,3.93,3.93,62,50,338.6,14.9,-3.4,D,413.4,6,21.592,2,2.44,182,193.14,-80.13728154,25.91168279,0,0,1,N,2.305175,70,70,11,247,247,183.9832,0,9999.99,3.95,4.077,2,9,26.7,0,26.70000076,34.02,1537.26979,2/13/21,14:43:17,25.16,51.74,34.02,0.972,8.08,-63.7,-4.5,3,2647,88.7,6.03,12.9,
25.91186423,-80.13722792,04:33.9,2/13/21,8,1.861,144.29,-7.060548918,1.06,173.4,163.19,1.84,-0.71,30.1,0,3.92,3.92,62,50,338.6,14.9,-3.4,D,413.4,6,20.876,2,2.25,181,194.89,-80.13728154,25.91168279,0,0,1,N,1.585206,67,67,11,227,227,187.7815,0,9999.99,3.94,4.067,2,9,26.7,0,26.70000076,34.03,1537.28046,2/13/21,14:43:18,25.16,51.77,34.03,1.046,8.1,-64.6,-3.6,-3.3,561,88.8,6.03,12.7,
25.91185734,-80.13722487,04:34.9,2/13/21,8,1.792,149.53,-7.060548918,1.06,183.4,173.18,2.6,-0.31,30.1,0,3.9,3.9,62,47,338.6,14.9,-3.1,D,443.4,6,20.22,2,2.08,181,196.28,-80.13728154,25.91168279,0,0,1,N,1.01921,73,73,11,201,201,191.7366,0,9999.99,3.92,4.047,2,9,26.7,0,26.70000076,34.05,1537.30179,2/13/21,14:43:19,25.16,51.79,34.05,0.996,8.08,-63.4,-3.7,-3.1,-3225,88.8,6.03,12.9,
25.91184897,-80.13722367,04:35.9,2/13/21,8,1.976,159.22,-7.060548918,1.06,189.3,179.15,3.47,4.74,30.1,0,3.86,3.86,62,47,338.6,14.9,-3.1,D,443.4,6,19.363,2,1.98,181,197.39,-80.13728154,25.91168279,0,0,1,N,0.5806625,72,72,11,187,187,194.8456,0,9999.99,3.89,4.017,2,9,26.7,0,26.70000076,34.06,1537.31246,2/13/21,14:43:20,25.16,51.8,34.06,0.973,8.07,-63.3,-3.8,1,-1156,88.9,6.03,12.9,
25.91184087,-80.13722577,04:36.9,2/13/21,8,1.791,159.22,-7.060548918,1.06,197.8,187.86,2.11,-0.99,30.1,0,3.88,3.88,62,47,338.6,14.9,-3.1,D,443.4,6,18.442,2,1.93,181,197.61,-80.13728154,25.91168279,0,0,1,N,0.4726735,70,70,11,158,158,195.6155,0,9999.99,3.91,4.037,2,9,26.7,0,26.70000076,34.03,1537.28046,2/13/21,14:43:21,25.16,51.76,34.03,1.094,8.09,-64.1,-5,-2.7,-1952,89,6.05,12.9,
25.91183356,-80.13722608,04:37.9,2/13/21,8,1.678,168.9,-7.060548918,1.06,204.5,194.79,0.99,1.16,30.1,0,3.85,3.85,62,45,338.6,14.9,-3,D,458.5,6,17.659,2,1.94,181,198.31,-80.13728154,25.91168279,0,0,1,N,0.2244845,63,63,11,137,137,197.3897,0,9999.99,3.87,3.997,2,9,26.7,0,26.70000076,34.03,1537.28046,2/13/21,14:43:22,25.15,51.76,34.03,0.995,8.11,-65.3,-4,0.9,-2160,89.1,6.05,12.9,
25.91182446,-80.13722771,04:38.9,2/13/21,8,2.152,178.8,-7.060548918,1.06,207.5,197.91,0.37,2.92,30,0,3.83,3.83,62,45,338.6,14.9,-3,D,458.5,6,16.647,2,1.97,181,198.87,-80.13728154,25.91168279,0,0,1,N,4.12E-02,59,59,11,130,130,198.7018,0,9999.99,3.84,3.967,2,9,26.7,0,26.70000076,34.04,1537.29113,2/13/21,14:43:23,25.15,51.77,34.04,0.993,8.08,-63.4,-4,3.3,-2177,89.1,6.05,12.9,
25.91181472,-80.13723127,04:39.9,2/13/21,8,2.227,190.41,-7.060548918,1.06,206.1,196.45,0.98,1.18,30.1,0,3.83,3.83,62,45,338.6,14.9,-3,D,458.5,6,15.507,2,1.98,181,198.92,-80.13728154,25.91168279,0,0,1,N,2.86E-02,62,62,11,135,135,198.7921,0,9999.99,3.84,3.967,2,9,26.7,0,26.70000076,34.03,1537.28046,2/13/21,14:43:24,25.15,51.76,34.03,1.043,8.07,-63.3,-4.9,-1.8,-2891,89.2,6.06,12.9,
25.91180652,-80.13723637,04:40.9,2/13/21,8,1.877,198.14,-7.060548918,1.06,206.3,196.66,1.26,9.1,30.1,0,3.77,3.77,62,45,338.6,14.9,-3,D,458.5,6,14.481,2,1.99,181,198.18,-80.13728154,25.91168279,0,0,1,N,0.2091219,64,64,11,118,118,197.4995,0,9999.99,3.78,3.907,2,9,26.7,0,26.70000076,34.04,1537.29113,2/13/21,14:43:25,25.15,51.78,34.04,1.067,8.09,-64.2,-3.5,-4.9,156,89.3,6.06,12.9,
25.91179806,-80.13724086,04:41.9,2/13/21,8,2.159,205.22,-7.060548918,1.06,206.7,197.08,0.69,5.61,30.1,0,3.78,3.78,62,46,338.5,14.9,-3,D,455.4,6,13.448,2,2.03,181,197.61,-80.13728154,25.91168279,0,0,1,N,0.33634,60,60,11,130,130,196.5894,0,9999.99,3.79,3.917,2,9,26.7,0,26.70000076,34.03,1537.28046,2/13/21,14:43:26,25.15,51.76,34.03,1.099,8.1,-65,-4.1,-3.9,-3931,89.3,6.07,12.9,
25.91178869,-80.1372461,04:42.9,2/13/21,8,2.098,205.58,-7.060548918,1.06,206.1,196.45,1.23,7.08,30.1,0,3.72,3.72,62,46,338.5,14.9,-3,D,455.4,6,12.297,2,2.06,181,196.76,-80.13728154,25.91168279,0,0,1,N,0.4905967,64,64,11,123,123,195.4877,0,9999.99,3.73,3.857,2,9,26.7,0,26.70000076,34.03,1537.28046,2/13/21,14:43:27,25.15,51.75,34.03,1.081,8.08,-63.5,-3.4,-2.2,-1021,89.3,6.07,12.9,
25.91177889,-80.13725039,04:43.9,2/13/21,8,2.152,207.54,-7.060548918,1.06,206.5,196.87,1.32,3.3,30.1,0,3.73,3.73,62,46,338.5,14.9,-3,D,455.4,6,11.131,2,2.07,181,196.25,-80.13728154,25.91168279,0,0,1,N,0.5453542,63,63,11,121,121,195.0971,0,9999.99,3.73,3.857,2,9,26.7,0,26.70000076,34,1537.24846,2/13/21,14:43:28,25.14,51.72,34,1.058,8.07,-63.1,-3.1,-2.6,-1900,89.4,6.08,12.9,
25.91176953,-80.13725415,04:44.9,2/13/21,8,2.164,205.24,-7.060548918,1.06,204.9,195.21,0.4,6.08,30.1,0,3.66,3.66,62,46,338.5,14.9,-3.1,D,453.8,6,10.026,2,2.08,181,195.86,-80.13728154,25.91168279,0,0,1,N,0.5531977,61,61,11,111,111,195.0411,0,9999.99,3.67,3.797,2,9,26.7,0,26.70000076,34.03,1537.28046,2/13/21,14:43:29,25.13,51.76,34.03,1.081,8.09,-64,-3.4,-0.9,-3399,89.4,6.08,12.8,
25.91175974,-80.13725703,04:45.9,2/13/21,8,2.114,202.49,-7.060548918,1.06,204.6,194.89,1.2,9.4,30.2,0,3.63,3.63,62,47,338.5,14.9,-3.1,D,446,6,8.901,2,2.13,181,195.98,-80.13728154,25.91168279,0,0,1,N,0.4825611,64,64,11,130,130,195.545,0,9999.99,3.64,3.767,2,9,26.6,0,26.70000076,34.02,1537.26979,2/13/21,14:43:30,25.13,51.75,34.02,1.1,8.1,-64.7,-4,-3,-1700,89.4,6.08,12.8,
25.91175061,-80.13726086,04:46.9,2/13/21,8,1.948,201.93,-7.060548918,1.06,206.5,196.87,-0.1,2.18,30.2,0,3.61,3.61,62,47,338.5,14.9,-3.1,D,446,6,7.821,2,2.12,181,195.34,-80.13728154,25.91168279,0,0,1,N,0.5094667,56,56,11,121,121,195.3529,0,9999.99,3.62,3.747,2,9,26.6,0,26.60000038,34.02,1537.04097,2/13/21,14:43:31,25.13,51.75,34.02,1.064,8.07,-63.2,-4.6,-1.6,-3858,89.5,6.08,12.9,
25.91174053,-80.13726364,04:47.9,2/13/21,8,2.215,197.68,-7.060548918,1.06,204.6,194.89,0.77,4.94,30.2,0,3.56,3.56,62,47,338.5,14.9,-3.1,D,446,6,6.666,2,2.13,181,195.58,-80.13728154,25.91168279,0,0,1,N,0.412239,62,62,11,132,132,196.0473,0,9999.99,3.56,3.687,2,9,26.6,0,26.60000038,34,1537.01962,2/13/21,14:43:32,25.13,51.72,34,1.111,8.07,-63,-4.1,-2.6,-5791,89.5,6.08,12.9,
25.9117316,-80.13726701,04:48.9,2/13/21,8,2.276,198.4,-7.060548918,1.06,205.3,195.62,0.67,5.5,30.2,0,3.52,3.52,62,46,338.5,14.9,-3,D,454.5,6,5.62,2,2.13,181,194.99,-80.13728154,25.91168279,0,0,1,N,0.4038735,61,61,11,129,129,196.1068,0,9999.99,3.53,3.657,2,9,26.6,0,26.60000038,33.98,1536.99827,2/13/21,14:43:33,25.12,51.7,33.98,1.018,8.08,-63.8,-4,-3.4,-1949,89.6,6.09,12.9,
25.91172177,-80.13727089,04:49.9,2/13/21,8,1.885,199.13,-7.060548918,1.06,203,193.23,1.14,2.35,30.1,0,3.46,3.46,62,46,338.5,14.9,-3,D,454.5,7,26.016,2,2.15,180,141.78,-80.13710996,25.91153796,0,0,1,N,3.992981,64,64,11,5,5,153.3724,0,9999.99,3.47,3.597,2,9,26.6,0,26.60000038,33.99,1537.00895,2/13/21,14:43:34,25.11,51.7,33.99,1.103,8.1,-64.7,-3.4,-5.6,-2002,89.5,6.09,12.7,
25.91171198,-80.13727399,04:50.9,2/13/21,8,1.93,199.72,-7.060548918,1.06,194.3,184.26,0.96,0.72,30.2,0,3.47,3.47,62,46,338.5,14.9,-3,D,454.5,7,25.369,2,2.15,180,139.71,-80.13710996,25.91153796,0,0,1,N,3.00241,63,63,11,5,5,149.4856,0,9999.99,3.47,3.597,2,9,26.6,0,26.60000038,34,1537.01962,2/13/21,14:43:36,25.1,51.72,34,1.065,8.07,-62.8,-3.1,-3.7,-3018,89.5,6.09,12.9,
25.91170297,-80.13727615,04:52.0,2/13/21,8,2.089,205.53,-7.060548918,1.06,187.1,176.92,2.4,5.4,30.2,0,3.42,3.42,62,46,338.5,14.9,-3,D,454.5,7,24.757,2,2.12,180,137.83,-80.13710996,25.91153796,0,0,1,N,2.096808,71,71,11,5,5,145.4982,0,9999.99,3.43,3.557,2,9,26.6,0,26.60000038,34,1537.01962,2/13/21,14:43:36,25.1,51.72,34,1.065,8.07,-62.8,-3.1,-3.7,-3018,89.5,6.09,12.9,
25.91169467,-80.1372752,04:53.0,2/13/21,8,2.138,196.94,-7.060548918,1.06,173.7,163.49,2.27,6.54,30.2,0,3.41,3.41,62,48,338.4,14.9,-3.2,D,434,7,24.016,2,2.09,180,136.52,-80.13710996,25.91153796,0,0,1,N,1.458056,68,68,11,30,30,142.6892,0,9999.99,3.42,3.547,2,9,26.6,0,26.60000038,34,1537.01962,2/13/21,14:43:38,25.1,51.72,34,1.07,8.1,-64.7,-4.2,-2,-2603,89.6,6.09,12.8,
25.91168564,-80.13727372,04:54.0,2/13/21,8,2.048,190.35,-7.060548918,1.06,167.3,157.19,1.82,14.2,30.2,0,3.38,3.38,62,48,338.4,14.9,-3.2,D,434,7,23.193,2,2.07,180,135.08,-80.13710996,25.91153796,0,0,1,N,0.8077638,68,68,11,54,54,138.9469,0,9999.99,3.4,3.527,2,9,26.6,0,26.60000038,34,1537.01962,2/13/21,14:43:38,25.1,51.72,34,1.07,8.1,-64.7,-4.2,-2,-2603,89.6,6.09,12.8,
25.91167611,-80.13727154,04:55.0,2/13/21,8,1.941,177.04,-7.060548918,1.06,160.3,150.38,1.64,1.11,30.2,0,3.4,3.4,62,48,338.4,14.9,-3.2,D,434,7,22.297,2,2.03,180,133.55,-80.13710996,25.91153796,0,0,1,N,0.1754972,67,67,11,63,63,134.4378,0,9999.99,3.41,3.538563,2,9,26.6,0,26.60000038,34.02,1537.04097,2/13/21,14:43:39,25.1,51.75,34.02,0.933,8.07,-63.3,-4.4,-5.1,-2951,89.6,6.09,13,
25.91166809,-80.13726736,04:56.0,2/13/21,8,2.049,167.54,-7.060548918,1.06,153.2,143.56,1.81,7.12,30.1,0,3.36,3.36,62,45,338.4,14.9,-3,D,457.8,7,21.382,2,2.02,180,132.59,-80.13710996,25.91153796,0,0,1,N,0.2006718,67,67,11,78,78,131.744,0,9999.99,3.38,3.507,2,9,26.6,0,26.60000038,34.01,1537.0303,2/13/21,14:43:41,25.1,51.74,34.01,1.024,8.09,-64.1,-3.8,-1.8,-37,89.5,6.08,12.9,
25.9116572,-80.1372634,04:57.0,2/13/21,8,2.365,161.76,-7.060548918,1.06,150.1,140.61,0.54,3.41,30.2,0,3.39,3.39,62,45,338.4,14.9,-3,D,457.8,7,20.281,2,2.07,180,130.82,-80.13710996,25.91153796,0,0,1,N,0.8209238,64,64,11,75,75,127.322,0,9999.99,3.41,3.537,2,9,26.6,0,26.60000038,34.01,1537.0303,2/13/21,14:43:41,25.1,51.74,34.01,1.024,8.09,-64.1,-3.8,-1.8,-37,89.5,6.08,12.9,
25.9116474,-80.1372568,04:58.0,2/13/21,8,2.196,156.96,-7.060548918,1.06,145.7,136.44,1.34,3.94,30.2,0,3.42,3.42,62,45,338.4,14.9,-3,D,457.8,7,19.073,2,2.08,180,129.65,-80.13710996,25.91153796,0,0,1,N,1.171369,65,65,11,81,81,124.8512,0,9999.99,3.42,3.547,2,9,26.6,0,26.60000038,34.02,1537.04097,2/13/21,14:43:42,25.1,51.74,34.02,1.015,8.1,-64.7,-2.8,-3.2,-4627,89.5,6.08,12.8,
25.91163912,-80.13725166,04:59.0,2/13/21,8,2.096,151.08,-7.060548918,1.06,143.6,134.47,1.14,1.7,30.2,0,3.42,3.42,62,45,338.4,14.9,-3,D,457.8,7,18.093,2,2.13,180,128.44,-80.13710996,25.91153796,0,0,1,N,1.493997,64,64,11,80,80,122.6033,0,9999.99,3.43,3.557,2,9,26.6,0,26.60000038,34.03,1537.05165,2/13/21,14:43:43,25.1,51.75,34.03,1.105,8.08,-63.7,-3.2,-2,-3760,89.5,6.09,12.9,
25.9116313,-80.13724422,05:00.0,2/13/21,8,2.249,144.17,-7.060548918,1.06,139,130.15,0.93,6.82,30.3,0,3.44,3.44,62,45,338.3,14.9,-3,D,457.1,7,16.972,2,2.16,180,127.7,-80.13710996,25.91153796,0,0,1,N,1.629597,61,61,11,90,90,121.6674,0,9999.99,3.45,3.577,2,9,26.6,0,26.60000038,34.03,1537.05165,2/13/21,14:43:45,25.1,51.76,34.03,1.021,8.09,-64.3,-3,-3,-1092,89.5,6.08,12.9,
25.91162517,-80.13723833,05:01.0,2/13/21,8,1.706,140.59,-7.060548918,1.06,136.3,127.63,0.81,8.8,30.2,0,3.46,3.46,62,45,338.3,14.9,-3,D,457.1,7,15.82,2,2.16,180,127.22,-80.13710996,25.91153796,0,0,1,N,1.651814,60,60,11,98,98,121.5147,0,9999.99,3.47,3.597,2,9,26.6,0,26.60000038,34.03,1537.05165,2/13/21,14:43:45,25.1,51.76,34.03,1.021,8.09,-64.3,-3,-3,-1092,89.5,6.08,12.9,
25.91161867,-80.13722939,05:02.0,2/13/21,8,1.706,140.59,-7.060548918,1.06,138.1,129.31,-0.01,-0.7,30.1,0,3.5,3.5,62,45,338.3,14.9,-3,D,457.1,7,14.941,2,2.13,180,126.92,-80.13710996,25.91153796,0,0,1,N,1.637017,57,57,11,96,96,121.6163,0,9999.99,3.51,3.637,2,9,26.6,0,26.60000038,34.05,1537.073,2/13/21,14:43:46,25.09,51.79,34.05,1.146,8.1,-64.9,-3.6,-2.4,-2004,89.5,6.08,12.8,
25.91161324,-80.13722268,05:03.0,2/13/21,8,1.967,133.77,-7.060548918,1.06,136,127.35,1.21,1.26,30.2,0,3.53,3.53,62,45,338.3,14.9,-3,D,462.6,7,14.042,2,2.11,180,126.59,-80.13710996,25.91153796,0,0,1,N,1.622691,66,66,11,104,104,121.7148,0,9999.99,3.53,3.657,2,9,26.6,0,26.60000038,34.08,1537.10502,2/13/21,14:43:48,25.09,51.82,34.08,1.054,8.09,-64.1,-3.2,-4.1,-3907,89.6,6.09,12.9,
25.91160751,-80.13721436,05:04.0,2/13/21,8,2.11,130.56,-7.060548918,1.06,134.7,126.13,1.54,3.27,30.2,0,3.55,3.55,62,45,338.3,14.9,-3,D,462.6,7,12.994,2,2.1,180,126.52,-80.13710996,25.91153796,0,0,1,N,1.519777,65,65,11,112,112,122.4244,0,9999.99,3.56,3.687,2,9,26.6,0,26.60000038,34.08,1537.10502,2/13/21,14:43:48,25.09,51.82,34.08,1.054,8.09,-64.1,-3.2,-4.1,-3907,89.6,6.09,12.9,
25.91160004,-80.13720453,05:05.0,2/13/21,8,2.23,132.91,-7.060548918,1.06,136,127.35,0.5,1.88,30.2,0,3.58,3.58,62,45,338.3,14.9,-3,D,462.6,7,11.709,2,2.14,180,126.12,-80.13710996,25.91153796,0,0,1,N,1.450261,60,60,11,109,109,122.9057,0,9999.99,3.59,3.717,2,9,26.6,0,26.60000038,34.08,1537.10502,2/13/21,14:43:49,25.09,51.83,34.08,1.028,8.1,-64.7,-2.5,-3.8,-3885,89.7,6.09,12.9,
25.91159083,-80.13719717,05:06.0,2/13/21,8,2.199,135.21,-7.060548918,1.06,135.3,126.69,0.47,-0.01,30.2,0,3.59,3.59,62,45,338.3,14.9,-3,D,462.6,7,10.573,2,2.16,180,124.66,-80.13710996,25.91153796,0,0,1,N,1.579693,60,60,11,108,108,122.0111,0,9999.99,3.59,3.717,2,9,26.6,0,26.60000038,34.09,1537.1157,2/13/21,14:43:51,25.09,51.84,34.09,1.01,8.1,-64.6,-3.3,-1.1,-2704,89.7,6.1,12.8,
25.91158233,-80.13718883,05:07.0,2/13/21,8,2.281,133.04,-7.060548918,1.06,136.1,127.44,0.96,1.3,30.2,0,3.62,3.62,62,44,338.3,14.9,-2.9,D,474.2,7,9.407,2,2.13,180,123.44,-80.13710996,25.91153796,0,0,1,N,1.602301,61,61,11,102,102,121.855,0,9999.99,3.63,3.757,2,9,26.6,0,26.60000038,34.09,1537.1157,2/13/21,14:43:51,25.09,51.84,34.09,1.01,8.1,-64.6,-3.3,-1.1,-2704,89.7,6.1,12.8,
25.91157416,-80.13717991,05:08.1,2/13/21,8,2.196,132.16,-7.060548918,1.06,136.9,128.19,1.21,0.84,30.3,0,3.65,3.65,62,44,338.3,14.9,-2.9,D,474.2,7,8.072,2,2.12,180,119.91,-80.13710996,25.91153796,0,0,1,N,1.727591,64,64,11,95,95,120.0746,0,9999.99,3.66,3.787,2,9,26.6,0,26.60000038,34.09,1537.1157,2/13/21,14:43:52,25.09,51.84,34.09,1.065,8.1,-64.6,-3.7,-2.2,-1308,89.8,6.1,12.9,
25.91156643,-80.13717123,05:09.1,2/13/21,8,2.431,133.88,-7.060548918,1.06,134.3,125.76,1.37,1.66,30.3,0,3.69,3.69,62,44,338.3,14.9,-2.9,D,474.2,7,6.897,2,2.14,180,117.32,-80.13710996,25.91153796,0,0,1,N,1.762355,65,65,11,103,103,119.7992,0,9999.99,3.7,3.827,2,9,26.6,0,26.60000038,34.12,1537.14772,2/13/21,14:43:53,25.09,51.87,34.12,1.005,8.11,-65.2,-3.8,-1.5,-914,89.8,6.1,12.8,
25.91156055,-80.13716327,05:10.1,2/13/21,8,1.952,131.92,-7.060548918,1.06,135.8,127.16,0.91,2.8,30.2,0,3.7,3.7,62,44,338.2,14.9,-2.9,D,473.4,7,5.894,2,2.14,180,115.23,-80.13710996,25.91153796,0,0,1,N,1.806542,62,62,11,100,100,120.3192,0,9999.99,3.71,3.837,2,9,26.6,0,26.60000038,34.11,1537.13705,2/13/21,14:43:55,25.09,51.87,34.11,1.03,8.1,-64.8,-3.3,-3.8,-1738,90.1,6.13,13,
25.91155533,-80.1371565,05:11.1,2/13/21,8,2.127,131.35,-7.060548918,1.06,134.4,125.85,0.74,-0.99,30.2,0,3.72,3.72,62,44,338.2,14.9,-2.9,D,473.4,8,32.563,2,2.13,179,69.22,-80.13685068,25.91165865,0,0,1,N,3.838538,61,61,11,5,5,79.85457,0,9999.99,3.73,3.857,2,9,26.5,0,26.60000038,34.11,1537.13705,2/13/21,14:43:55,25.09,51.87,34.11,1.03,8.1,-64.8,-3.3,-3.8,-1738,90.1,6.13,13,
25.91154795,-80.13714798,05:12.1,2/13/21,8,1.995,133.62,-7.060548918,1.06,128.1,120,0.51,2.56,30.2,0,3.75,3.75,62,44,338.2,14.9,-2.9,D,473.4,8,32.182,2,2.12,179,67.51,-80.13685068,25.91165865,0,0,1,N,2.905657,60,60,11,5,5,75.93957,0,9999.99,3.76,3.887,2,9,26.6,0,26.60000038,34.12,1537.14772,2/13/21,14:43:56,25.08,51.88,34.12,1.066,8.1,-64.8,-2.2,-5.9,-3666,90.2,6.13,12.9,
25.91154187,-80.13714009,05:13.1,2/13/21,8,1.907,133.91,-7.060548918,1.06,119.7,112.22,2.03,6.6,30.2,0,3.8,3.8,62,44,338.2,14.9,-2.9,D,473.4,8,31.725,2,2.09,179,65.84,-80.13685068,25.91165865,0,0,1,N,1.969733,69,69,11,5,5,71.88847,0,9999.99,3.8,3.927,2,9,26.6,0,26.60000038,34.14,1537.16907,2/13/21,14:43:57,25.08,51.9,34.14,1.021,8.11,-65.3,-3.5,-5.9,-1291,90.3,6.14,12.9,
25.91153941,-80.13713005,05:14.1,2/13/21,8,2.045,121.51,-7.060548918,1.06,110,103.25,2.17,0.72,30.2,0,3.85,3.85,62,44,338.2,14.9,-3,D,468.6,8,30.928,2,2.05,179,64.61,-80.13685068,25.91165865,0,0,1,N,1.123293,70,70,11,5,5,68.86452,0,9999.99,3.87,3.997,2,9,26.5,0,26.5,34.12,1536.9183,2/13/21,14:43:58,25.08,51.88,34.12,0.974,8.12,-65.9,-3.5,-6.3,-3641,90.4,6.14,12.7,
25.91153428,-80.13711923,05:15.1,2/13/21,8,1.918,115.25,-7.060548918,1.06,99.1,93.12,2.7,2.34,30.2,0,3.9,3.9,62,44,338.2,14.9,-3,D,468.6,8,30.211,2,1.97,179,62.76,-80.13685068,25.91165865,0,0,1,N,0.5504293,73,73,11,5,5,63.35525,0,9999.99,3.92,4.047,2,9,26.5,0,26.5,34.14,1536.93966,2/13/21,14:44:00,25.08,51.9,34.14,1.027,8.1,-65.1,-3.7,-4.3,-5399,90.6,6.16,12.9,
25.911533,-80.13711014,05:16.2,2/13/21,8,1.789,101.21,-7.060548918,1.06,87.6,82.32,3.43,-0.06,30.2,0,3.93,3.93,62,44,338.2,14.9,-3,D,468.6,8,29.473,2,1.89,179,61.7,-80.13685068,25.91165865,0,0,1,N,0.3260525,78,78,11,36,36,59.69865,0,9999.99,3.96,4.087,2,9,26.5,0,26.5,34.14,1536.93966,2/13/21,14:44:00,25.08,51.9,34.14,1.027,8.1,-65.1,-3.7,-4.3,-5399,90.6,6.16,12.9,
25.91153034,-80.13709768,05:17.2,2/13/21,8,1.831,91.6,-7.060548918,1.06,77.8,72.99,3.39,2.73,30.2,0,3.96,3.96,62,44,338.1,14.9,-2.9,D,473.9,8,28.529,2,1.89,179,59.99,-80.13685068,25.91165865,0,0,1,N,0.6985271,77,77,11,51,51,53.90455,0,9999.99,3.99,4.117,2,9,26.5,0,26.5,34.14,1536.93966,2/13/21,14:44:01,25.08,51.91,34.14,0.971,8.11,-65.5,-3.1,0.5,-4254,90.7,6.16,13,
25.91153387,-80.13708854,05:18.2,2/13/21,8,1.788,82.63,-7.060548918,1.06,70.1,65.57,1.67,-3.66,30.2,0,3.99,3.99,62,44,338.1,14.9,-2.9,D,473.9,8,27.541,2,1.86,180,59.75,-80.13685068,25.91165865,0,0,1,N,1.40266,67,67,11,76,76,52.82932,0,9999.99,4,4.127,2,9,26.5,0,26.5,34.15,1536.95034,2/13/21,14:44:02,25.09,51.92,34.15,0.98,8.13,-66.4,-3.5,-3.4,-5478,90.9,6.18,12.8,
25.91153776,-80.13707973,05:19.2,2/13/21,8,1.929,76.4,-7.060548918,1.06,68.3,63.82,0.7,6.78,30.2,0,4.03,4.03,62,44,338.1,14.9,-2.9,D,473.9,8,26.561,2,1.86,180,59.6,-80.13685068,25.91165865,0,0,1,N,1.427438,62,62,11,90,90,52.64537,0,9999.99,4.04,4.167,2,9,26.5,0,26.5,34.16,1536.96103,2/13/21,14:44:03,25.09,51.93,34.16,1.035,8.1,-65,-3.8,-2,-1472,90.9,6.18,12.9,
25.91154152,-80.13707074,05:20.2,2/13/21,8,1.987,73.76,-7.060548918,1.06,64.5,60.11,1.15,2.49,30.2,0,4.06,4.06,62,44,338.1,14.9,-2.9,D,473.9,8,25.575,2,1.92,180,59.39,-80.13685068,25.91165865,0,0,1,N,1.419749,62,62,11,93,93,52.35704,0,9999.99,4.07,4.197,2,9,26.5,0,26.5,34.17,1536.97171,2/13/21,14:44:05,25.11,51.95,34.17,1.036,8.12,-65.7,-2.8,0.2,-291,91,6.18,13,
25.91154735,-80.13705971,05:21.2,2/13/21,8,2.293,65.82,-7.060548918,1.06,63.4,59.04,0.94,0.2,30.2,0,4.1,4.1,62,45,338.1,14.9,-3,D,461.4,8,24.295,2,2.03,180,59.38,-80.13685068,25.91165865,0,0,1,N,1.398207,67,67,11,111,111,52.72369,0,9999.99,4.11,4.237,2,9,26.5,0,26.5,34.17,1536.97171,2/13/21,14:44:05,25.11,51.95,34.17,1.036,8.12,-65.7,-2.8,0.2,-291,91,6.18,13,
25.91155358,-80.13705052,05:22.2,2/13/21,8,2.158,58.95,-7.060548918,1.06,63.4,59.04,1.22,0.24,30.3,0,4.11,4.11,62,45,338.1,14.9,-3,D,461.4,8,23.151,2,2.09,180,59.69,-80.13685068,25.91165865,0,0,1,N,1.197557,64,64,11,107,107,54.12411,0,9999.99,4.12,4.247,2,9,26.5,0,26.5,34.17,1536.97171,2/13/21,14:44:06,25.12,51.94,34.17,1.06,8.14,-67.1,-2.9,-0.4,-3756,91.1,6.19,12.8,
25.91155977,-80.13704118,05:23.3,2/13/21,8,2.173,58.25,-7.060548918,1.06,62.6,58.25,0.73,2.58,30.3,0,4.14,4.14,62,45,338.1,14.9,-3,D,461.4,8,21.998,2,2.13,180,60.01,-80.13685068,25.91165865,0,0,1,N,1.017733,61,61,11,116,116,55.38791,0,9999.99,4.15,4.277,2,9,26.5,0,26.5,34.17,1536.97171,2/13/21,14:44:08,25.13,51.95,34.17,1.003,8.1,-64.8,-2.7,2.1,-546,91.3,6.2,12.9,
