Latitude,Longitude,Time,Date,Number of Sats,GPS Speed (Kn),GPS True Heading,GPS Magnetic Variation,HDOP,C Magnetic Heading,C True Heading,Pitch Angle,Roll Angle,C Inside Temp (c),DFS Depth (m),DTB Height (m),Total Water Column (m),Batt Percent,Power Watts,Watt-Hours,Batt Volts,Batt Ampers,Batt State,Time to Empty,Current Step,Dist To Next (m),Next Speed (kn),Vehicle Speed (kn),Motor Speed CMD,Next Heading,Next Long,Next Lat,Next Depth (m),Depth Goal (m),Vehicle State,Error State,Distance to Track (m),Fin Pitch R,Fin Pitch L,Pitch Goal,Fin Yaw T,Fin Yaw B,Yaw Goal,Fin Roll,DVL-Depth (m),DVL -Altitude (m),DVL -Water Column (m),DVL-FixType,DVL-FixQuality,DVL-Temperature,Conductivity (mmhos/cm),Temperature (c),Salinity (ppt),Sound Speed (m/s),Date m/d/y   ,Time hh:mm:ss,Temp C,SpCond mS/cm,Sal ppt,Depth feet,pH,pH mV,Turbid+ NTU,Chl ug/L,BGA-PC cells/mL,ODOsat %,ODO mg/L,Battery volts,ROSEM Command Type
25.91267667,-80.137943,23:19.8,6/9/21,3,0.222,164.88,-7.09151097,3.78,95.2,89.45,1.38,-4.09,26.3,0.06,0.83,0.89,91,21,498.8,16.1,-1.3,D,1569,0,12,1,0,128,50.45,-80.13785049,25.91274538,0,0,1,N,10.94494,65,65,11,5,5,346.2446,0,9999.99,0.84,0.9669999,2,9,28.5,0,28.5,45.51,1553.40074,6/9/21,10:00:55,28.71,67.05,45.51,1.172,8.37,-81.5,-3.8,-6.6,-3032,80.8,4.85,12.6,
25.9126755,-80.13794283,23:20.8,6/9/21,3,0.088,164.88,-7.09151097,3.78,95.3,89.54,1.15,-5.52,26.3,0.06,0.84,0.9,91,22,498.8,16.1,-1.3,D,1509.6,0,12.07,1,0,128,49.93,-80.13785049,25.91274538,0,0,1,N,11.05371,64,64,11,5,5,346.6463,0,9999.99,0.85,0.977,0,0,28.5,0,28.5,45.51,1553.40074,6/9/21,10:00:55,28.71,67.05,45.51,1.172,8.37,-81.5,-3.8,-6.6,-3032,80.8,4.85,12.6,
25.91267331,-80.13794266,23:21.8,6/9/21,3,0.14,164.88,-7.09151097,3.78,94.6,88.88,1.35,-3.62,26.2,0.03,0.83,0.86,91,22,498.8,16.1,-1.3,D,1509.6,1,13.104,1,0.12,160,96.97,-80.13781261,25.91265901,0,0,1,N,11.50791,65,65,11,185,185,103.2776,0,9999.99,0.84,0.9669999,0,0,28.5,0,28.5,45.5,1553.38884,6/9/21,10:00:56,28.71,67.04,45.5,1.176,8.37,-81.5,-3.3,-0.2,-1713,80.7,4.85,12.4,
25.91267417,-80.13794114,23:22.8,6/9/21,3,0.145,164.88,-7.09151097,3.78,93.6,87.95,1.71,-0.32,26.3,0.01,0.83,0.84,91,22,498.8,16.1,-1.3,D,1509.6,1,12.965,1,0.18,160,97.47,-80.13781261,25.91265901,0,0,1,N,11.34441,67,67,11,190,190,103.6628,0,9999.99,0.84,0.9669999,2,9,28.5,0,28.5,45.5,1553.38508,6/9/21,10:00:57,28.71,67.03,45.5,1.165,8.37,-81.5,-3.4,-2.6,-1960,80.7,4.85,12.6,
25.91267514,-80.13793974,23:23.8,6/9/21,3,0.082,164.88,-7.09151097,3.78,94.8,89.07,1.28,-1.54,26.3,0.01,0.82,0.84,91,22,498.8,16.1,-1.3,D,1509.6,1,12.841,1,0.21,160,98.03,-80.13781261,25.91265901,0,0,1,N,11.17902,65,65,11,187,187,104.0605,0,9999.99,0.84,0.9669999,2,9,28.5,0,28.5,45.51,1553.39491,6/9/21,10:00:58,28.71,67.05,45.51,1.179,8.37,-81.5,-2.8,-3.9,-1996,80.7,4.85,12.6,
25.91267594,-80.1379375,23:24.8,6/9/21,3,0.499,164.88,-7.09151097,3.78,96.1,90.29,1.68,-1.58,26.3,0.01,0.83,0.84,91,28,498.8,16.1,-1.7,D,1184.9,1,12.632,1,0.2,160,98.57,-80.13781261,25.91265901,0,0,1,N,10.94093,67,67,11,184,184,104.6456,0,9999.99,0.84,0.9669999,0,0,28.5,0,28.5,45.55,1553.43704,6/9/21,10:01:00,28.71,67.11,45.55,1.18,8.37,-81.5,-4.2,-3.5,-1933,80.6,4.84,12.4,
25.91267763,-80.13793237,23:25.8,6/9/21,3,0.943,164.88,-7.09151097,3.78,98.6,92.63,1.54,-1.68,26.4,0,0.88,0.88,91,28,498.8,16.1,-1.7,D,1184.9,1,12.155,1,0.54,160,99.81,-80.13781261,25.91265901,0,0,1,N,10.41671,66,66,11,180,180,105.9949,0,9999.99,0.89,1.017,2,9,28.5,0,28.5,45.55,1553.43704,6/9/21,10:01:00,28.71,67.11,45.55,1.18,8.37,-81.5,-4.2,-3.5,-1933,80.6,4.84,12.4,
25.91267746,-80.13792738,23:26.8,6/9/21,3,1.009,164.88,-7.09151097,3.78,101.3,95.14,1.38,-2.36,26.4,0,0.93,0.93,91,28,498.8,16.1,-1.7,D,1184.9,1,11.661,1,0.56,160,100.13,-80.13781261,25.91265901,0,0,1,N,9.956526,65,65,11,175,175,107.2522,0,9999.99,0.94,1.067,0,0,28.5,0,28.5,45.55,1553.43659,6/9/21,10:01:01,28.69,67.11,45.55,1.18,8.37,-81.6,-2.3,-6.1,-1660,80.6,4.84,12.5,
25.91267747,-80.13792104,23:27.8,6/9/21,3,0.974,164.88,-7.09151097,3.78,104.4,98.03,1.62,-2.12,26.4,0,1.05,1.05,91,27,498.8,16.1,-1.7,D,1209.6,1,11.037,1,0.75,160,100.72,-80.13781261,25.91265901,0,0,1,N,9.373346,67,67,11,171,171,108.9503,0,9999.99,1.06,1.187,2,9,28.5,0,28.5,45.47,1553.35197,6/9/21,10:01:03,28.69,67,45.47,1.191,8.37,-81.5,-2.8,-1.9,-2996,80.6,4.85,12.5,
25.91267712,-80.13791464,23:28.8,6/9/21,3,1.1,164.88,-7.09151097,3.78,107.6,101,1.47,-1.86,26.4,0,1.09,1.09,91,27,498.8,16.1,-1.7,D,1209.6,1,10.401,1,0.9,160,101.16,-80.13781261,25.91265901,0,0,1,N,8.803779,66,66,11,166,166,110.7324,0,9999.99,1.1,1.227,2,9,28.5,0,28.5,45.47,1553.35197,6/9/21,10:01:03,28.69,67,45.47,1.191,8.37,-81.5,-2.8,-1.9,-2996,80.6,4.85,12.5,
25.91267641,-80.13790911,23:29.8,6/9/21,3,1.099,164.88,-7.09151097,3.78,111,104.15,1.44,-1.99,26.5,0,1.12,1.12,91,27,498.8,16.1,-1.7,D,1209.6,1,9.844,1,0.99,160,101.34,-80.13781261,25.91265901,0,0,1,N,8.321117,67,67,11,163,163,112.3431,0,9999.99,1.13,1.257,2,9,28.5,0,28.5,45.45,1553.33083,6/9/21,10:01:04,28.68,66.97,45.45,1.184,8.37,-81.5,-3.9,-4.5,-2418,80.6,4.85,12.4,
25.91267442,-80.13790299,23:30.9,6/9/21,3,1.136,164.88,-7.09151097,3.78,114.1,107.02,1.58,-1.31,26.5,0,1.18,1.18,91,27,498.8,16.1,-1.7,D,1209.6,1,9.2,1,1.08,160,100.73,-80.13781261,25.91265901,0,0,1,N,7.826755,66,66,11,155,155,114.097,0,9999.99,1.19,1.317,2,9,28.5,0,28.5,45.5,1553.38351,6/9/21,10:01:05,28.65,67.04,45.5,1.177,8.37,-81.4,-4.1,-3.2,-941,80.5,4.84,12.5,
25.91267191,-80.13789682,23:31.9,6/9/21,3,1.301,164.88,-7.09151097,3.78,117.8,110.44,1.41,-2.26,26.5,0.01,1.33,1.33,91,28,498.8,16.1,-1.7,D,1193.6,1,8.543,1,1.16,160,99.67,-80.13781261,25.91265901,0,0,1,N,7.362946,65,65,11,149,149,115.8443,0,9999.99,1.34,1.467,2,9,28.5,0,28.5,45.56,1553.44698,6/9/21,10:01:07,28.6,67.1,45.56,1.175,8.36,-81.1,-4.8,-6,-4073,80.5,4.84,12.5,
25.91266892,-80.1378874,23:32.9,6/9/21,3,2.312,164.88,-7.09151097,3.78,120.4,112.84,1.1,-1.69,26.5,0.01,1.46,1.47,91,28,498.8,16.1,-1.7,D,1193.6,1,7.561,1,1.18,160,98.38,-80.13781261,25.91265901,0,0,1,N,6.607253,65,65,11,153,153,118.9167,0,9999.99,1.47,1.597,2,9,28.5,0,28.5,45.56,1553.44698,6/9/21,10:01:07,28.6,67.1,45.56,1.175,8.36,-81.1,-4.8,-6,-4073,80.5,4.84,12.5,
25.91266721,-80.1378804,23:33.9,6/9/21,3,0.93,164.88,-7.09151097,3.78,122.4,114.69,1.21,-1.19,26.6,0.01,1.5,1.5,91,28,498.8,16.1,-1.7,D,1193.6,1,6.841,1,1.17,160,97.66,-80.13781261,25.91265901,0,0,1,N,6.017886,65,65,11,156,156,121.5164,0,9999.99,1.51,1.637,2,9,28.5,0,28.5,45.56,1553.44744,6/9/21,10:01:08,28.58,67.11,45.56,1.179,8.36,-81.2,-3.4,-3.5,-2023,80.4,4.84,12.5,
25.9126654,-80.1378749,23:34.9,6/9/21,3,0.505,164.88,-7.09151097,3.78,124.2,116.36,1.67,-1.96,26.5,0,1.43,1.43,91,27,498.8,16.1,-1.6,D,1234.7,1,6.27,1,1.2,160,96.51,-80.13781261,25.91265901,0,0,1,N,5.579407,67,67,11,158,158,123.5771,0,9999.99,1.44,1.567,2,9,28.5,0,28.5,45.6,1553.48938,6/9/21,10:01:10,28.56,67.16,45.6,1.2,8.36,-81.2,-4.2,0.2,410,80.2,4.83,12.6,
25.91266395,-80.13787154,23:35.9,6/9/21,3,0.367,164.88,-7.09151097,3.78,126.1,118.12,1.21,-3.47,26.6,0,1.44,1.44,91,27,498.8,16.1,-1.6,D,1234.7,2,16.257,1,1.23,160,101.35,-80.13771217,25.91263518,0,0,1,N,0.9532869,64,64,11,56,56,100.3882,0,9999.99,1.45,1.577,2,9,28.5,0,28.5,45.61,1553.49981,6/9/21,10:01:11,28.56,67.17,45.61,1.181,8.36,-81.1,-2.8,-4.2,-2513,80.1,4.82,12.4,
25.91266165,-80.1378672,23:36.9,6/9/21,3,1.578,164.88,-7.09151097,3.78,124.5,116.64,0.98,-1.36,26.5,0,1.44,1.44,91,27,498.8,16.1,-1.6,D,1234.7,2,15.782,1,1.27,159,100.75,-80.13771217,25.91263518,0,0,1,N,1.092405,63,63,11,58,58,99.57494,0,9999.99,1.45,1.577,2,9,28.5,0,28.5,45.61,1553.49981,6/9/21,10:01:11,28.56,67.17,45.61,1.181,8.36,-81.1,-2.8,-4.2,-2513,80.1,4.82,12.4,
25.91265892,-80.13786125,23:37.9,6/9/21,3,1.877,164.88,-7.09151097,3.78,121.5,113.86,1.05,-1.78,26.5,0,1.52,1.52,91,27,498.8,16.1,-1.6,D,1234.7,2,15.142,1,1.27,159,100.04,-80.13771217,25.91263518,0,0,1,N,1.238768,64,64,11,63,63,98.59477,0,9999.99,1.53,1.657,2,9,28.5,0,28.5,45.6,1553.48905,6/9/21,10:01:12,28.57,67.16,45.6,1.166,8.37,-81.5,-3.5,-4,-1758,80,4.82,12.5,
25.91265557,-80.13784935,23:38.9,6/9/21,3,2.449,144.29,-7.09151097,3.78,117.4,110.07,1.38,-0.07,26.6,0,1.72,1.72,91,26,498.7,16.1,-1.6,D,1254.8,2,13.907,1,1.24,159,99.38,-80.13771217,25.91263518,0,0,1,N,1.301684,65,65,11,77,77,97.6367,0,9999.99,1.73,1.857,2,9,28.5,0,28.5,45.59,1553.4785,6/9/21,10:01:14,28.57,67.14,45.59,1.177,8.36,-81.4,-3.8,-0.5,-1355,79.8,4.8,12.5,
25.91265383,-80.13784337,23:39.9,6/9/21,0,2.449,144.29,-7.09151097,99.99,113.9,106.83,0.99,-0.35,26.6,0,1.92,1.92,91,26,498.7,16.1,-1.6,D,1254.8,2,13.284,1,1.27,159,98.98,-80.13771217,25.91263518,0,0,1,N,1.339033,63,63,11,88,88,97.08697,0,9999.99,1.93,2.057,2,9,28.5,0,28.5,45.58,1553.46795,6/9/21,10:01:15,28.57,67.13,45.58,1.17,8.36,-81.3,-5.1,-6.1,-5209,79.8,4.8,12.5,
25.91265247,-80.13783637,23:40.9,6/9/21,0,2.449,144.29,-7.09151097,99.99,110.5,103.69,1.3,0.37,26.7,0,2.09,2.09,91,26,498.7,16.1,-1.6,D,1254.8,2,12.57,1,1.27,158,98.8,-80.13771217,25.91263518,0,0,1,N,1.314575,65,65,11,103,103,97.58901,0,9999.99,2.1,2.227,2,9,28.5,0,28.5,45.56,1553.44701,6/9/21,10:01:16,28.57,67.11,45.56,1.174,8.36,-81.4,-4,-8.8,-134,79.8,4.8,12.3,
25.91265133,-80.13782977,23:41.9,6/9/21,0,2.449,144.29,-7.09151097,99.99,108.2,101.55,1.26,-1.38,26.7,0,2.32,2.32,91,26,498.7,16.1,-1.6,D,1255.5,2,11.898,1,1.29,158,98.68,-80.13771217,25.91263518,0,0,1,N,1.269721,65,65,11,110,110,97.30578,0,9999.99,2.33,2.457,2,9,28.5,0,28.5,45.54,1553.42586,6/9/21,10:01:17,28.57,67.08,45.54,1.181,8.36,-81.3,-4,-1.3,-3154,79.8,4.8,12.5,
25.91265032,-80.13782329,23:42.9,6/9/21,0,2.449,144.29,-7.09151097,99.99,106.7,100.16,1.25,-0.72,26.6,0,2.58,2.58,91,26,498.7,16.1,-1.6,D,1255.5,2,11.241,1,1.3,158,98.61,-80.13771217,25.91263518,0,0,1,N,1.213869,65,65,11,115,115,97.05928,0,9999.99,2.59,2.717,2,9,28.5,0,28.5,45.54,1553.42586,6/9/21,10:01:17,28.57,67.08,45.54,1.181,8.36,-81.3,-4,-1.3,-3154,79.8,4.8,12.5,
25.91264942,-80.13781674,23:43.9,6/9/21,0,2.449,144.29,-7.09151097,99.99,105.2,98.77,1.04,-0.41,26.6,0,2.69,2.69,91,26,498.7,16.1,-1.6,D,1255.5,2,10.577,1,1.32,157,98.61,-80.13771217,25.91263518,0,0,1,N,1.146864,63,63,11,119,119,96.85217,0,9999.99,2.7,2.827,2,9,28.5,0,28.5,45.55,1553.43647,6/9/21,10:01:18,28.57,67.1,45.55,1.177,8.36,-81.3,-3.7,-4.1,-1323,79.7,4.8,12.5,
25.9126487,-80.13781004,23:44.9,6/9/21,3,2.449,144.29,-7.09151097,3.78,104.4,98.03,1.23,-0.55,26.7,0,2.8,2.8,91,26,498.7,16.1,-1.6,D,1255.5,2,9.903,1,1.29,157,98.73,-80.13771217,25.91263518,0,0,1,N,1.055149,64,64,11,124,124,97.25838,0,9999.99,2.81,2.937,2,9,28.5,0,28.5,45.57,1553.45752,6/9/21,10:01:19,28.56,67.12,45.57,1.178,8.36,-81.4,-4.2,0.2,837,79.6,4.79,12.5,
25.91264807,-80.13780336,23:45.9,6/9/21,3,2.449,144.29,-7.09151097,3.79,103.3,97.01,1.34,-1.14,26.7,0,2.81,2.81,91,26,498.7,16.1,-1.6,D,1274.8,2,9.232,1,1.25,157,98.93,-80.13771217,25.91263518,0,0,1,N,0.9525046,65,65,11,131,131,97.98538,0,9999.99,2.82,2.947,2,9,28.5,0,28.5,45.59,1553.47858,6/9/21,10:01:20,28.57,67.14,45.59,1.188,8.37,-81.6,-3.1,-3.2,-3248,79.6,4.79,12.3,
25.9126476,-80.13779665,23:46.9,6/9/21,3,2.449,144.29,-7.09151097,3.79,103.3,97.01,1.08,-1.63,26.7,0,2.78,2.78,91,26,498.7,16.1,-1.6,D,1274.8,2,8.562,1,1.27,157,99.28,-80.13771217,25.91263518,0,0,1,N,0.8331541,63,63,11,134,134,98.83054,0,9999.99,2.79,2.917,2,9,28.5,0,28.5,45.57,1553.45738,6/9/21,10:01:22,28.59,67.12,45.57,1.185,8.37,-81.8,-3.2,0.1,-2036,79.6,4.79,12.5,
25.91264707,-80.1377901,23:47.9,6/9/21,3,2.449,144.29,-7.09151097,3.79,102.8,96.54,1.37,-2.84,26.6,0,2.99,2.99,91,26,498.7,16.1,-1.6,D,1274.8,2,7.906,1,1.22,156,99.63,-80.13771217,25.91263518,0,0,1,N,0.7211137,65,65,11,139,139,99.62571,0,9999.99,3,3.127,2,9,28.5,0,28.5,45.54,1553.42567,6/9/21,10:01:23,28.59,67.08,45.54,1.181,8.37,-81.9,-4.5,2.7,-2014,79.6,4.79,12.6,
25.91264646,-80.13778429,23:49.0,6/9/21,3,2.449,144.29,-7.09151097,3.79,102.9,96.63,1.31,-3.9,26.7,0,2.99,2.99,91,26,498.7,16.1,-1.6,D,1274.8,2,7.321,1,1.2,156,99.86,-80.13771217,25.91263518,0,0,1,N,0.6361138,65,65,11,141,141,100.2303,0,9999.99,3,3.127,2,9,28.5,0,28.5,45.54,1553.42567,6/9/21,10:01:23,28.59,67.08,45.54,1.181,8.37,-81.9,-4.5,2.7,-2014,79.6,4.79,12.6,
25.91265683,-80.13779017,23:49.9,6/9/21,3,1.594,144.29,-7.09151097,3.79,103.9,97.56,1.19,-1.44,26.7,0,3.16,3.16,91,26,498.7,16.1,-1.6,D,1285.7,2,6.713,1,1.2,156,100.07,-80.13771217,25.91263518,0,0,1,N,0.558956,64,64,11,141,141,100.7799,0,9999.99,3.17,3.297,2,9,28.5,0,28.5,45.54,1553.42591,6/9/21,10:01:24,28.59,67.08,45.54,1.189,8.37,-81.7,-3.6,0.3,105,79.7,4.79,12.4,
25.91265917,-80.13779183,23:50.9,6/9/21,3,1.582,144.29,-7.09151097,3.79,105.3,98.86,1.16,-2.17,26.7,0,3.22,3.22,91,26,498.7,16.1,-1.6,D,1285.7,2,7.556,1,1.22,156,107.84,-80.13771217,25.91263518,0,0,1,N,0.3964922,65,65,11,163,163,107.6142,0,9999.99,3.23,3.357,2,9,28.5,0,28.5,45.49,1553.37289,6/9/21,10:01:26,28.58,67.01,45.49,1.215,8.36,-81.4,-3.2,-2.5,-3054,79.7,4.8,12.5,
25.91265783,-80.13778033,23:52.0,6/9/21,3,1.136,144.29,-7.09151097,3.79,106.6,100.07,1.41,-1.93,26.7,0,3.27,3.27,91,26,498.7,16.1,-1.6,D,1285.7,2,7.803,1,1.16,156,109.12,-80.13771217,25.91263518,0,0,1,N,0.5856512,65,65,11,163,163,108.964,0,9999.99,3.28,3.407,2,9,28.5,0,28.5,45.49,1553.37289,6/9/21,10:01:26,28.58,67.01,45.49,1.215,8.36,-81.4,-3.2,-2.5,-3054,79.7,4.8,12.5,
25.91265654,-80.13777735,23:53.0,6/9/21,3,1.295,144.29,-7.09151097,3.79,108.8,102.11,1.41,-1.7,26.8,0,3.3,3.3,91,25,498.7,16.1,-1.5,D,1316.6,2,6.938,1,1.2,156,110.02,-80.13771217,25.91263518,0,0,1,N,0.7322128,65,65,11,156,156,109.2889,0,9999.99,3.31,3.437,2,9,28.5,0,28.5,45.5,1553.38348,6/9/21,10:01:27,28.57,67.03,45.5,1.196,8.37,-81.5,-3.8,-0.9,-2436,79.6,4.79,12.7,
25.91265335,-80.13777021,23:54.0,6/9/21,3,1.228,144.29,-7.09151097,3.79,110.8,103.96,1.44,-2.85,26.8,0,3.33,3.33,91,25,498.7,16.1,-1.5,D,1316.6,3,15.541,1,1.16,156,77.82,-80.13761832,25.91268284,0,0,1,N,4.896378,66,66,11,46,46,83.60382,0,9999.99,3.34,3.467,2,9,28.5,0,28.5,45.51,1553.39418,6/9/21,10:01:29,28.57,67.05,45.51,1.182,8.37,-81.6,-3.3,1.2,-2845,79.6,4.79,12.5,
25.9126495,-80.13776543,23:55.0,6/9/21,3,1.396,144.29,-7.09151097,3.79,110.6,103.78,1.42,-5.61,26.8,0,3.35,3.35,91,25,498.7,16.1,-1.5,D,1316.6,3,15.174,1,1.18,156,75.86,-80.13761832,25.91268284,0,0,1,N,4.23899,66,66,11,37,37,81.16002,0,9999.99,3.36,3.487,2,9,28.5,0,28.5,45.51,1553.39409,6/9/21,10:01:30,28.57,67.05,45.51,1.181,8.37,-81.7,-4.2,-3.7,-3352,79.5,4.79,12.6,
25.91264557,-80.13775951,23:56.0,6/9/21,3,1.349,144.29,-7.09151097,3.79,106.8,100.26,1.3,-2.43,26.8,0,3.36,3.36,91,25,498.7,16.1,-1.5,D,1316.6,3,14.717,1,1.18,155,73.64,-80.13761832,25.91268284,0,0,1,N,3.664912,65,65,11,37,37,78.3343,0,9999.99,3.37,3.497,2,9,28.5,0,28.5,45.51,1553.39397,6/9/21,10:01:31,28.58,67.05,45.51,1.182,8.37,-81.8,-4.1,-5.6,-2639,79.6,4.79,12.5,
25.91264372,-80.1377532,23:57.0,6/9/21,3,0.964,144.29,-7.09151097,3.79,102.5,96.26,1.4,-2.45,26.8,0,3.38,3.38,91,26,498.6,16.1,-1.6,D,1283.2,3,14.174,1,1.16,155,72.13,-80.13761832,25.91268284,0,0,1,N,2.881583,65,65,11,47,47,76.33398,0,9999.99,3.39,3.517,2,9,28.5,0,28.5,45.51,1553.39397,6/9/21,10:01:31,28.58,67.05,45.51,1.182,8.37,-81.8,-4.1,-5.6,-2639,79.6,4.79,12.5,
25.91264281,-80.1377482,23:58.0,6/9/21,3,1.083,144.29,-7.09151097,3.79,98.3,92.35,1.56,-0.8,26.9,0,3.41,3.41,91,26,498.6,16.1,-1.6,D,1283.2,3,13.731,1,1.14,155,71.09,-80.13761832,25.91268284,0,0,1,N,2.565814,66,66,11,58,58,74.98347,0,9999.99,3.42,3.547,2,9,28.5,0,28.5,45.51,1553.39418,6/9/21,10:01:33,28.59,67.05,45.51,1.175,8.37,-81.7,-4,-3.8,-2758,79.5,4.79,12.4,
25.91264269,-80.13774293,23:59.0,6/9/21,3,1.146,144.29,-7.09151097,3.79,93.8,88.13,1.75,-0.73,26.9,0,3.42,3.43,91,26,498.6,16.1,-1.6,D,1283.2,3,13.238,1,1.15,155,70.29,-80.13761832,25.91268284,0,0,1,N,2.253662,67,67,11,70,70,73.94586,0,9999.99,3.44,3.567,2,9,28.5,0,28.5,45.52,1553.40458,6/9/21,10:01:34,28.6,67.06,45.52,1.164,8.37,-81.8,-3.3,-1.8,-1685,79.5,4.79,12.5,
25.9126435,-80.137738,24:00.0,6/9/21,3,1.245,144.29,-7.09151097,3.79,89.3,83.9,1.74,-2.1,26.9,0,3.44,3.45,91,25,498.6,16.1,-1.5,D,1298.4,3,12.723,1,1.15,155,69.65,-80.13761832,25.91268284,0,0,1,N,2.037825,67,67,11,78,78,71.9899,0,9999.99,3.46,3.587,2,9,28.5,0,28.5,45.52,1553.40458,6/9/21,10:01:34,28.6,67.06,45.52,1.164,8.37,-81.8,-3.3,-1.8,-1685,79.5,4.79,12.5,
25.91264433,-80.137732,24:01.0,6/9/21,3,1.072,144.29,-7.09151097,3.79,86.1,80.87,1.5,-1.89,26.9,0,3.46,3.46,91,25,498.6,16.1,-1.5,D,1298.4,3,12.164,1,1.13,155,69.33,-80.13761832,25.91268284,0,0,1,N,1.880545,66,66,11,89,89,71.76997,0,9999.99,3.47,3.597,2,9,28.5,0,28.5,45.51,1553.39429,6/9/21,10:01:35,28.61,67.05,45.51,1.178,8.37,-82,-5.5,-2.2,-2610,79.5,4.78,12.5,
25.91264531,-80.13772529,24:02.0,6/9/21,3,1.004,144.29,-7.09151097,3.79,82.9,77.84,1.76,-2.37,26.9,0,3.48,3.48,91,25,498.6,16.1,-1.5,D,1298.4,3,11.484,1,1.13,155,68.69,-80.13761832,25.91268284,0,0,1,N,1.702643,67,67,11,98,98,71.31408,0,9999.99,3.49,3.617,2,9,28.5,0,28.5,45.52,1553.40473,6/9/21,10:01:37,28.62,67.06,45.52,1.165,8.38,-82.2,-3.7,-5.1,-2998,79.5,4.78,12.6,
25.91264657,-80.13771973,24:03.0,6/9/21,4,1.004,144.29,-7.09151097,3.42,81.9,76.88,1.34,-1.22,26.9,0,3.48,3.48,91,25,498.6,16.1,-1.5,D,1298.4,3,10.915,1,1.13,155,68.31,-80.13761832,25.91268284,0,0,1,N,1.491439,65,65,11,103,103,70.96464,0,9999.99,3.49,3.617,2,9,28.5,0,28.5,45.52,1553.40473,6/9/21,10:01:37,28.62,67.06,45.52,1.165,8.38,-82.2,-3.7,-5.1,-2998,79.5,4.78,12.6,
25.91264803,-80.13771356,24:04.0,6/9/21,4,1.004,144.29,-7.09151097,3.42,80.4,75.45,1.34,-0.75,26.9,0.01,3.49,3.5,91,26,498.6,16.1,-1.6,D,1287.1,3,10.282,1,1.15,155,67.89,-80.13761832,25.91268284,0,0,1,N,1.328514,65,65,11,105,105,69.97829,0,9999.99,3.5,3.627,2,9,28.5,0,28.5,45.53,1553.41534,6/9/21,10:01:38,28.63,67.07,45.53,1.171,8.38,-82.3,-3.7,-4.6,-3669,79.6,4.79,12.6,
25.91264948,-80.13770804,24:05.0,6/9/21,4,1.004,144.29,-7.09151097,3.41,79,74.11,1.42,-1.61,26.9,0.01,3.5,3.5,91,26,498.6,16.1,-1.6,D,1287.1,3,9.711,1,1.16,155,67.54,-80.13761832,25.91268284,0,0,1,N,1.197319,66,66,11,107,107,69.06462,0,9999.99,3.51,3.637,2,9,28.5,0,28.5,45.51,1553.39476,6/9/21,10:01:40,28.65,67.05,45.51,1.187,8.38,-82.4,-3.1,-4.9,-1774,79.7,4.79,12.5,
25.91265115,-80.13770238,24:06.0,6/9/21,4,1.004,144.29,-7.09151097,3.41,77.7,72.87,1.32,-0.05,26.9,0,3.51,3.51,91,26,498.6,16.1,-1.6,D,1287.1,3,9.116,1,1.16,155,67.26,-80.13761832,25.91268284,0,0,1,N,1.079485,65,65,11,108,108,68.2365,0,9999.99,3.52,3.647,2,9,28.5,0,28.5,45.51,1553.39476,6/9/21,10:01:40,28.65,67.05,45.51,1.187,8.38,-82.4,-3.1,-4.9,-1774,79.7,4.79,12.5,
25.91265302,-80.1376966,24:07.0,6/9/21,4,1.004,144.29,-7.09151097,3.41,75.8,71.04,1.47,-1.28,26.9,0,3.51,3.51,91,25,498.6,16.1,-1.6,D,1294.2,3,8.502,1,1.16,155,67.04,-80.13761832,25.91268284,0,0,1,N,0.9704499,66,66,11,113,113,67.46705,0,9999.99,3.52,3.647,2,9,28.5,0,28.5,45.52,1553.40477,6/9/21,10:01:41,28.65,67.06,45.52,1.168,8.38,-82.5,-3.3,-1.3,-1338,79.8,4.8,12.6,
25.91265505,-80.13769097,24:07.0,6/9/21,4,1.004,144.29,-7.09151097,3.41,74.6,69.89,1.49,-2.23,27,0,3.49,3.49,91,25,498.6,16.1,-1.6,D,1294.2,3,7.896,1,1.14,154,66.96,-80.13761832,25.91268284,0,0,1,N,0.8915427,66,66,11,115,115,66.90914,0,9999.99,3.5,3.627,2,9,28.5,0,28.5,45.52,1553.40474,6/9/21,10:01:42,28.66,67.06,45.52,1.172,8.38,-82.4,-4.6,-5.4,-1253,79.9,4.8,12.4,
25.91265707,-80.13768552,24:08.0,6/9/21,4,1.004,144.29,-7.09151097,3.41,73.5,68.83,1.47,-0.89,26.9,0,3.5,3.5,91,25,498.6,16.1,-1.6,D,1294.2,3,7.306,1,1.16,154,66.9,-80.13761832,25.91268284,0,0,1,N,0.816819,66,66,11,117,117,66.38074,0,9999.99,3.51,3.637,2,9,28.5,0,28.5,45.52,1553.40455,6/9/21,10:01:44,28.68,67.06,45.52,1.164,8.39,-82.7,-3.6,-2.8,-2559,80.1,4.81,12.4,
25.91269773,-80.1376924,24:10.0,6/9/21,4,1.095,144.29,-7.09151097,3.41,72.9,68.25,1.47,-1.91,26.9,0,3.5,3.5,91,25,498.6,16.1,-1.6,D,1294.2,3,7.592,1,1.17,154,102.6,-80.13761832,25.91268284,0,0,1,N,0.7536966,66,66,11,226,226,93.01037,0,9999.99,3.51,3.637,2,9,28.5,0,28.5,45.52,1553.40455,6/9/21,10:01:44,28.68,67.06,45.52,1.164,8.39,-82.7,-3.6,-2.8,-2559,80.1,4.81,12.4,
25.91270021,-80.13768705,24:11.0,6/9/21,4,1.147,144.29,-7.09151097,3.41,74.2,69.5,1.13,1.83,27,0,3.49,3.49,91,25,498.6,16.1,-1.5,D,1337.5,3,7.14,1,1.17,154,105.7,-80.13761832,25.91268284,0,0,1,N,5.02963,64,64,11,222,222,92.92892,0,9999.99,3.5,3.627,2,9,28.5,0,28.5,45.52,1553.40465,6/9/21,10:01:45,28.69,67.06,45.52,1.166,8.39,-82.9,-3.8,-1.2,-2375,80.1,4.82,12.6,
25.91270577,-80.13768179,24:12.0,6/9/21,4,1.486,144.29,-7.09151097,3.41,76.2,71.43,1.83,-3.35,27,0,3.5,3.5,91,25,498.6,16.1,-1.5,D,1337.5,3,6.841,1,1.14,154,111.88,-80.13761832,25.91268284,0,0,1,N,5.354261,68,68,11,219,219,94.34285,0,9999.99,3.51,3.637,2,9,28.5,0,28.5,45.52,1553.405,6/9/21,10:01:47,28.7,67.07,45.52,1.18,8.39,-83.2,-4.8,-4.1,-3038,80.2,4.82,12.5,
25.91270885,-80.1376763,24:13.0,6/9/21,4,1.246,144.29,-7.09151097,3.41,80.7,75.74,2.03,-1.68,27.1,0,3.48,3.48,91,25,498.6,16.1,-1.5,D,1337.5,3,6.481,1,1.1,154,116.5,-80.13761832,25.91268284,0,0,1,N,5.387223,69,69,11,202,202,94.50304,0,9999.99,3.5,3.627,2,9,28.5,0,28.5,45.57,1553.45746,6/9/21,10:01:48,28.71,67.12,45.57,1.151,8.4,-83.3,-5.1,-2.5,-2462,80.4,4.83,12.3,
25.91271128,-80.13767207,24:14.1,6/9/21,4,1.021,144.29,-7.09151097,3.41,85.6,80.4,1.61,-3.55,27.1,0,3.46,3.47,91,25,498.5,16.1,-1.5,D,1330.6,4,9.638,1,1.08,154,45.36,-80.1376035,25.91277218,0,0,1,N,5.73724,68,68,11,5,5,44.33808,0,9999.99,3.48,3.607,2,9,28.5,0,28.5,45.56,1553.44697,6/9/21,10:01:49,28.73,67.11,45.56,1.17,8.4,-83.5,-4.7,-3.5,-2192,80.5,4.83,12.5,
25.91271065,-80.13766601,24:15.0,6/9/21,4,0.943,144.29,-7.09151097,3.4,84.9,79.74,1.35,-5.27,27.1,0,3.49,3.49,91,25,498.5,16.1,-1.5,D,1330.6,4,9.268,1,1.06,154,42.42,-80.1376035,25.91277218,0,0,1,N,5.325546,65,65,11,5,5,41.93851,0,9999.99,3.5,3.627,2,9,28.5,0,28.5,45.57,1553.45755,6/9/21,10:01:50,28.73,67.13,45.57,1.189,8.4,-83.7,-4,-2.5,-2782,80.6,4.84,12.5,
25.91271115,-80.13766087,24:16.1,6/9/21,4,1.043,144.29,-7.09151097,3.4,82.5,77.46,1.25,-2.51,27.1,0,3.45,3.45,91,25,498.5,16.1,-1.5,D,1330.6,4,8.887,1,1.01,154,40.22,-80.1376035,25.91277218,0,0,1,N,4.741153,65,65,11,5,5,39.11234,0,9999.99,3.46,3.587,2,9,28.5,0,28.5,45.58,1553.46799,6/9/21,10:01:51,28.75,67.14,45.58,1.182,8.41,-84,-4.3,0.2,-1367,80.6,4.84,12.5,
25.91271319,-80.13765609,24:17.1,6/9/21,4,1.038,144.29,-7.09151097,3.4,77.8,72.97,1.25,-3.29,27.1,0,3.44,3.44,91,25,498.5,16.1,-1.5,D,1330.6,4,8.408,1,1.02,154,38.73,-80.1376035,25.91277218,0,0,1,N,4.284959,65,65,11,5,5,36.65738,0,9999.99,3.45,3.577,2,9,28.5,0,28.5,45.61,1553.49969,6/9/21,10:01:52,28.75,67.18,45.61,1.17,8.41,-84.3,-3.9,-0.8,866,80.8,4.85,12.4,
25.91271391,-80.13765146,24:18.1,6/9/21,4,0.951,144.29,-7.09151097,3.4,73.9,69.21,1.61,-0.56,27.2,0,3.41,3.41,91,25,498.5,16.1,-1.5,D,1324.6,4,8.062,1,1.01,154,36.51,-80.1376035,25.91277218,0,0,1,N,3.836586,67,67,11,5,5,34.10514,0,9999.99,3.42,3.547,2,9,28.5,0,28.5,45.58,1553.46803,6/9/21,10:01:53,28.77,67.15,45.58,1.168,8.41,-84.4,-4,-1,-4861,80.9,4.86,12.6,
25.91271312,-80.13764644,24:19.1,6/9/21,4,0.972,144.29,-7.09151097,3.4,68.7,64.18,1.72,1.05,27.1,0,3.39,3.4,91,25,498.5,16.1,-1.5,D,1324.6,4,7.846,1,1.01,154,33.18,-80.1376035,25.91277218,0,0,1,N,3.438802,67,67,11,5,5,31.17805,0,9999.99,3.41,3.537,2,9,28.5,0,28.5,45.56,1553.44694,6/9/21,10:01:54,28.76,67.12,45.56,1.163,8.42,-84.6,-4.2,-4.7,-3355,81.1,4.87,12.5,
25.91271751,-80.13764314,24:20.1,6/9/21,4,1.039,144.29,-7.09151097,3.4,63.2,58.81,1.72,-0.24,27.2,0,3.35,3.36,91,25,498.5,16.1,-1.5,D,1324.6,4,7.257,1,1.01,154,33.11,-80.1376035,25.91277218,0,0,1,N,2.9402,67,67,11,9,9,29.4251,0,9999.99,3.37,3.497,2,9,28.5,0,28.5,45.55,1553.43639,6/9/21,10:01:55,28.76,67.11,45.55,1.167,8.42,-84.7,-5.1,-1.5,-4019,81.3,4.88,12.6,
25.91271904,-80.13763782,24:21.1,6/9/21,4,1.116,144.29,-7.09151097,3.4,55.9,51.62,1.54,-2.78,27.2,0,3.31,3.32,91,25,498.5,16.1,-1.5,D,1310.3,4,6.834,1,1.03,154,30.15,-80.1376035,25.91277218,0,0,1,N,2.558728,66,66,11,25,25,26.22275,0,9999.99,3.33,3.457,2,9,28.5,0,28.5,45.51,1553.39445,6/9/21,10:01:56,28.75,67.05,45.51,1.17,8.42,-84.5,-4.9,-2.3,-668,81.5,4.89,12.5,
25.91272388,-80.13763365,24:22.1,6/9/21,4,1.224,144.29,-7.09151097,3.4,51.5,47.25,2.02,-1.77,27.2,0,3.24,3.24,91,25,498.5,16.1,-1.5,D,1310.3,4,6.159,1,1.07,154,29.32,-80.1376035,25.91277218,0,0,1,N,2.227268,69,69,11,34,34,24.04187,0,9999.99,3.26,3.387,2,9,28.5,0,28.5,45.47,1553.35186,6/9/21,10:01:57,28.73,66.99,45.47,1.179,8.41,-84.2,-3.8,-7.3,-2765,81.7,4.91,12.5,
25.91272962,-80.13763066,24:23.2,6/9/21,4,0.971,144.29,-7.09151097,3.4,45.5,41.25,2.06,-3.19,27.2,0,3.18,3.19,91,25,498.5,16.1,-1.5,D,1310.3,4,5.456,1,1.05,154,29.85,-80.1376035,25.91277218,0,0,1,N,2.021408,69,69,11,47,47,22.66703,0,9999.99,3.2,3.327,2,9,28.5,0,28.5,45.49,1553.37299,6/9/21,10:01:58,28.71,67.03,45.49,1.156,8.41,-84.2,-5.5,-0.1,-1895,81.7,4.91,12.5,
25.91273518,-80.1376278,24:24.2,6/9/21,4,1.058,144.29,-7.09151097,3.4,40.7,36.42,1.77,-2.85,27.2,0,3.14,3.14,91,25,498.5,16.1,-1.5,D,1310.3,5,10.752,1,1.03,154,314.91,-80.13770394,25.91280345,0,0,1,N,4.739737,68,68,11,5,5,319.7411,0,9999.99,3.15,3.277,2,9,28.5,0,28.5,45.49,1553.37308,6/9/21,10:01:59,28.69,67.02,45.49,1.155,8.41,-84,-4.5,-6,-2589,81.7,4.91,12.6,
25.91273988,-80.13762544,24:25.2,6/9/21,4,1.166,144.29,-7.09151097,3.4,37.6,33.29,1.75,-4.52,27.2,0,3.03,3.03,91,25,498.5,16.1,-1.5,D,1307.8,5,10.564,1,1,154,312,-80.13770394,25.91280345,0,0,1,N,4.166849,67,67,11,5,5,316.5992,0,9999.99,3.04,3.167,2,9,28.5,0,28.5,45.46,1553.34121,6/9/21,10:02:00,28.67,66.98,45.46,1.166,8.41,-83.9,-4,-2.7,-2218,81.9,4.92,12.4,
25.91274524,-80.13762289,24:26.2,6/9/21,4,1.202,144.29,-7.09151097,3.4,31.8,27.41,2.07,-2.93,27.2,0,3.01,3.01,91,25,498.5,16.1,-1.5,D,1307.8,5,10.373,1,1.04,154,308.61,-80.13770394,25.91280345,0,0,1,N,3.531653,68,68,11,5,5,312.9063,0,9999.99,3.02,3.147,2,9,28.5,0,28.5,45.46,1553.34132,6/9/21,10:02:01,28.65,66.99,45.46,1.162,8.4,-83.8,-4.8,-5.9,-2261,81.9,4.93,12.4,
25.91275145,-80.13762099,24:27.2,6/9/21,4,1.175,144.29,-7.09151097,3.39,29.5,25.07,1.68,-0.12,27.1,0,2.83,2.83,91,25,498.5,16.1,-1.5,D,1307.8,5,10.112,1,1.04,154,304.88,-80.13770394,25.91280345,0,0,1,N,2.817505,67,67,11,5,5,308.4955,0,9999.99,2.84,2.967,2,9,28.5,0,28.5,45.47,1553.35212,6/9/21,10:02:02,28.63,66.99,45.47,1.158,8.4,-83.8,-5.6,-0.3,-3670,81.9,4.93,12.5,
25.91275568,-80.13761883,24:28.2,6/9/21,4,0.884,144.29,-7.09151097,3.39,24.4,19.87,1.29,-0.31,27.1,0.01,2.7,2.71,91,25,498.5,16.1,-1.5,D,1307.8,5,10.033,1,1.04,154,301.97,-80.13770394,25.91280345,0,0,1,N,2.294297,65,65,11,5,5,305.0926,0,9999.99,2.72,2.847,2,9,28.5,0,28.5,45.48,1553.36295,6/9/21,10:02:03,28.62,67,45.48,1.164,8.4,-83.8,-4,-4.5,-3952,82,4.93,12.6,
25.91276075,-80.13761757,24:29.2,6/9/21,4,0.917,144.29,-7.09151097,3.39,17.1,12.41,1.9,-4.7,27.2,0.01,2.54,2.55,91,25,498.4,16.1,-1.5,D,1313.5,5,9.857,1,1.09,154,298.79,-80.13770394,25.91280345,0,0,1,N,1.72198,68,68,11,5,5,301.2406,0,9999.99,2.56,2.687,2,9,28.5,0,28.5,45.47,1553.35232,6/9/21,10:02:04,28.62,67,45.47,1.169,8.4,-83.7,-3.8,-2.4,-3395,82,4.94,12.5,
25.91276421,-80.13761592,24:30.2,6/9/21,4,1.191,144.29,-7.09151097,3.39,12.2,7.4,2.14,-2.65,27.2,0,2.39,2.4,91,25,498.4,16.1,-1.5,D,1313.5,5,9.825,1,1.06,154,296.37,-80.13770394,25.91280345,0,0,1,N,1.311449,70,70,11,5,5,298.4002,0,9999.99,2.41,2.537,2,9,28.5,0,28.5,45.46,1553.34146,6/9/21,10:02:05,28.61,66.98,45.46,1.203,8.4,-83.5,-3.6,0.5,-3756,81.9,4.93,12.6,
25.9127683,-80.13761453,24:31.2,6/9/21,4,1.198,26.07,-7.09151097,3.39,8.4,3.51,2.13,0.99,27.2,0,2.25,2.26,91,25,498.4,16.1,-1.5,D,1313.5,5,9.759,1,1.05,154,293.61,-80.13770394,25.91280345,0,0,1,N,0.8434049,69,69,11,5,5,295.1094,0,9999.99,2.27,2.397,2,9,28.5,0,28.5,45.45,1553.33104,6/9/21,10:02:06,28.6,66.97,45.45,1.172,8.4,-83.6,-4.1,-3.9,-1424,81.9,4.93,12.5,
25.91277473,-80.13761387,24:32.2,6/9/21,4,0.863,14.6,-7.09151097,3.39,2.8,357.78,1.41,-0.64,27.3,0.01,2.15,2.15,91,25,498.4,16.1,-1.5,D,1318.5,5,9.557,1,1.05,154,289.52,-80.13770394,25.91280345,0,0,1,N,0.1262937,65,65,11,5,5,289.9967,0,9999.99,2.16,2.287,2,9,28.5,0,28.5,45.47,1553.35217,6/9/21,10:02:07,28.6,66.99,45.47,1.15,8.4,-83.4,-5.6,-4.5,-2964,81.8,4.93,12.5,
25.91275763,-80.13760442,24:33.2,6/9/21,6,0.889,359.08,-7.09151097,2.02,355.7,350.52,1.87,-2.89,27.3,0.01,2.05,2.06,91,25,498.4,16.1,-1.5,D,1318.5,5,11.181,1,1,154,297.1,-80.13770394,25.91280345,0,0,1,N,1.613692,68,68,11,5,5,299.7937,0,9999.99,2.07,2.197,2,9,28.5,0,28.5,45.47,1553.35228,6/9/21,10:02:08,28.6,67,45.47,1.193,8.4,-83.4,-3.2,-1.8,-1324,81.8,4.92,12.4,
25.91275378,-80.13760168,24:34.2,6/9/21,6,1.155,355.22,-7.09151097,2.02,349,343.68,2.14,-1.19,27.3,0,1.92,1.93,91,25,498.4,16.1,-1.5,D,1318.5,5,11.623,1,0.99,154,298.37,-80.13770394,25.91280345,0,0,1,N,1.92643,70,70,11,5,5,301.1861,0,9999.99,1.94,2.067,2,9,28.5,0,28.5,45.47,1553.35214,6/9/21,10:02:09,28.6,66.99,45.47,1.182,8.4,-83.4,-4.8,-4,-1544,81.9,4.93,12.4,
25.91275411,-80.13760109,24:35.2,6/9/21,6,1.162,350.38,-7.09151097,2.02,343.7,338.28,2.11,-1.46,27.3,0,1.97,1.97,91,25,498.4,16.1,-1.5,D,1318.5,5,11.659,1,1,154,298.07,-80.13770394,25.91280345,0,0,1,N,1.862559,71,71,11,5,5,300.7344,0,9999.99,1.99,2.117,2,9,28.5,0,28.5,45.47,1553.35208,6/9/21,10:02:10,28.6,66.99,45.47,1.151,8.4,-83.5,-4.4,-4.9,-2030,81.8,4.92,12.4,
25.9127574,-80.13760237,24:36.2,6/9/21,6,0.925,345.37,-7.09151097,2.02,337,331.47,1.99,-1.07,27.3,0,1.95,1.96,91,25,498.4,16.1,-1.5,D,1313.4,5,11.376,1,1.01,154,296.75,-80.13770394,25.91280345,0,0,1,N,1.554409,69,69,11,5,5,299.1377,0,9999.99,1.97,2.097,2,9,28.5,0,28.5,45.46,1553.34154,6/9/21,10:02:11,28.61,66.98,45.46,1.189,8.4,-83.5,-4.2,-1.6,-3292,81.8,4.92,12.4,
25.91276195,-80.13760503,24:37.2,6/9/21,6,0.898,345.37,-7.09151097,2.02,330.9,325.28,1.9,-0.8,27.3,0.01,2.01,2.02,91,25,498.4,16.1,-1.5,D,1313.4,5,10.916,1,0.99,154,295.01,-80.13770394,25.91280345,0,0,1,N,1.164285,68,68,11,10,10,297.054,0,9999.99,2.03,2.157,2,9,28.5,0,28.5,45.46,1553.34155,6/9/21,10:02:12,28.61,66.97,45.46,1.189,8.4,-83.5,-5.6,-0.5,-1899,81.8,4.93,12.4,
25.91276658,-80.13760861,24:38.2,6/9/21,6,1.137,335.42,-7.09151097,2.02,326.2,320.52,2.01,-1.42,27.3,0,2.08,2.09,91,25,498.4,16.1,-1.5,D,1313.4,5,10.378,1,1.01,154,293.27,-80.13770394,25.91280345,0,0,1,N,0.7933393,69,69,11,24,24,294.7564,0,9999.99,2.1,2.227,2,9,28.5,0,28.5,45.45,1553.33097,6/9/21,10:02:13,28.61,66.96,45.45,1.151,8.4,-83.6,-4.9,-4.9,-2183,81.8,4.93,12.5,
25.91277024,-80.13761173,24:39.2,6/9/21,6,1.058,329.38,-7.09151097,2.02,319.2,313.44,1.61,0.33,27.3,0,2.12,2.12,91,25,498.4,16.1,-1.5,D,1321.7,5,9.934,1,1.01,154,291.82,-80.13770394,25.91280345,0,0,1,N,0.4968351,67,67,11,40,40,292.6444,0,9999.99,2.14,2.267,2,9,28.5,0,28.5,45.46,1553.34133,6/9/21,10:02:14,28.61,66.98,45.46,1.17,8.4,-83.5,-4.5,-2.8,-2534,81.9,4.93,12.5,
25.91277443,-80.13761572,24:40.2,6/9/21,6,0.905,329.38,-7.09151097,2.02,313.3,307.48,1.79,0.12,27.4,0,2.26,2.27,91,25,498.4,16.1,-1.5,D,1321.7,5,9.394,1,1.02,154,290.09,-80.13770394,25.91280345,0,0,1,N,0.1836437,68,68,11,59,59,290.4073,0,9999.99,2.28,2.407,2,9,28.5,0,28.5,45.47,1553.35188,6/9/21,10:02:15,28.61,67,45.47,1.175,8.4,-83.6,-6,0.1,-2648,81.9,4.93,12.7,
25.91277878,-80.13762018,24:41.2,6/9/21,6,0.927,329.38,-7.09151097,2.02,307.2,301.31,1.67,-1.5,27.3,0,2.39,2.39,91,25,498.4,16.1,-1.5,D,1321.7,5,8.815,1,1.03,154,288.13,-80.13770394,25.91280345,0,0,1,N,0.1342259,67,67,11,74,74,288.1312,0,9999.99,2.4,2.527,2,9,28.5,0,28.5,45.5,1553.38358,6/9/21,10:02:16,28.63,67.03,45.5,1.162,8.4,-83.5,-4.2,-1.5,-2121,81.9,4.93,12.4,
25.91278293,-80.13762468,24:42.2,6/9/21,6,1.135,321.88,-7.09151097,2.02,303.9,297.97,1.49,-0.63,27.3,0,2.47,2.48,91,25,498.4,16.1,-1.5,D,1321.7,5,8.249,1,1.03,154,286.06,-80.13770394,25.91280345,0,0,1,N,0.4272197,66,66,11,79,79,286.0356,0,9999.99,2.49,2.617,2,9,28.5,0,28.5,45.48,1553.3626,6/9/21,10:02:17,28.65,67.01,45.48,1.183,8.4,-83.8,-4.2,-6.8,-3111,81.8,4.92,12.5,
25.91278691,-80.13762987,24:43.2,6/9/21,6,1.229,311.86,-7.09151097,2.02,300.1,294.12,1.56,-0.62,27.3,0,2.63,2.64,91,25,498.4,16.1,-1.5,D,1315.8,5,7.633,1,1.04,154,283.94,-80.13770394,25.91280345,0,0,1,N,0.6763617,67,67,11,83,83,284.2596,0,9999.99,2.65,2.777,2,9,28.5,0,28.5,45.47,1553.35212,6/9/21,10:02:18,28.66,66.99,45.47,1.169,8.4,-83.8,-4.5,0,-675,81.9,4.92,12.5,
25.9127908,-80.1376355,24:44.2,6/9/21,6,1.059,311.86,-7.09151097,2.02,298.2,292.2,1.28,-0.1,27.4,0,2.8,2.8,91,25,498.4,16.1,-1.5,D,1315.8,5,6.988,1,1.06,154,281.61,-80.13770394,25.91280345,0,0,1,N,0.9021829,65,65,11,86,86,282.6572,0,9999.99,2.81,2.937,2,9,28.5,0,28.5,45.5,1553.38349,6/9/21,10:02:19,28.66,67.03,45.5,1.174,8.41,-83.9,-4.9,-1.8,-1516,81.9,4.93,12.5,
25.9127952,-80.13764107,24:45.2,6/9/21,6,1.001,311.86,-7.09151097,2.02,295.6,289.56,1.53,-0.3,27.4,0,2.85,2.85,91,25,498.4,16.1,-1.5,D,1315.8,5,6.354,1,1.07,154,278.3,-80.13770394,25.91280345,0,0,1,N,1.186105,66,66,11,91,91,280.6587,0,9999.99,2.86,2.987,2,9,28.5,0,28.5,45.45,1553.3306,6/9/21,10:02:20,28.69,66.98,45.45,1.189,8.41,-83.9,-4.6,-0.8,-2340,81.9,4.93,12.4,
25.91279857,-80.13764604,24:46.2,6/9/21,6,1.06,311.86,-7.09151097,2.02,292.7,286.61,1.44,-4.16,27.4,0,2.92,2.92,91,25,498.3,16.1,-1.5,D,1308.3,6,20.53,1,1.08,154,258.5,-80.13784719,25.91276176,0,0,1,N,2.335888,66,66,11,29,29,262.1101,0,9999.99,2.93,3.057,2,9,28.5,0,28.5,45.4,1553.27779,6/9/21,10:02:21,28.7,66.91,45.4,1.165,8.41,-84,-4.7,0.7,-2546,82,4.93,12.5,
25.91280096,-80.13765118,24:47.2,6/9/21,6,1.193,311.86,-7.09151097,2.03,286.8,280.6,1.48,0.51,27.3,0,2.98,2.98,91,25,498.3,16.1,-1.5,D,1308.3,6,20.083,1,1.08,154,257.47,-80.13784719,25.91276176,0,0,1,N,1.924644,66,66,11,45,45,260.6175,0,9999.99,2.99,3.117,2,9,28.5,0,28.5,45.39,1553.26735,6/9/21,10:02:22,28.7,66.89,45.39,1.169,8.4,-83.8,-4.7,-5.7,-1266,82.1,4.93,12.5,
25.91280315,-80.13765643,24:48.2,6/9/21,6,1.079,311.86,-7.09151097,2.03,282.5,276.21,2.05,0.69,27.4,0,3.02,3.02,91,25,498.3,16.1,-1.5,D,1308.3,6,19.626,1,1.1,154,256.44,-80.13784719,25.91276176,0,0,1,N,1.527238,69,69,11,59,59,259.0945,0,9999.99,3.04,3.167,2,9,28.5,0,28.5,45.36,1553.23561,6/9/21,10:02:23,28.7,66.86,45.36,1.169,8.4,-83.5,-4.2,-1.1,-3104,82.1,4.94,12.7,
25.91280575,-80.13766148,24:49.2,6/9/21,6,0.934,311.86,-7.09151097,2.03,276.5,270.05,2,1.38,27.4,0,3.05,3.05,91,25,498.3,16.1,-1.5,D,1308.3,6,19.207,1,1.07,154,255.25,-80.13784719,25.91276176,0,0,1,N,1.085854,69,69,11,76,76,257.2377,0,9999.99,3.07,3.197,2,9,28.5,0,28.5,45.35,1553.22507,6/9/21,10:02:24,28.69,66.84,45.35,1.172,8.4,-83.4,-4.9,-6.3,-3164,82.1,4.94,12.3,
25.91280749,-80.13766745,24:50.2,6/9/21,6,1.006,311.86,-7.09151097,2.03,272.5,265.94,1.61,0.3,27.4,0,3.09,3.09,91,25,498.3,16.1,-1.5,D,1314,6,18.683,1,1.06,154,254.21,-80.13784719,25.91276176,0,0,1,N,0.7137986,67,67,11,86,86,255.6181,0,9999.99,3.1,3.227,2,9,28.5,0,28.5,45.35,1553.22517,6/9/21,10:02:25,28.69,66.84,45.35,1.17,8.4,-83.4,-4.2,-1.2,-4427,82,4.93,12.7,
25.91280825,-80.13767334,24:51.2,6/9/21,6,1.134,311.86,-7.09151097,2.03,269.5,262.84,1.38,-0.83,27.4,0,3.14,3.14,91,25,498.3,16.1,-1.5,D,1314,6,18.14,1,1.04,154,253.44,-80.13784719,25.91276176,0,0,1,N,0.4513258,66,66,11,89,89,254.4196,0,9999.99,3.15,3.277,2,9,28.5,0,28.5,45.36,1553.23602,6/9/21,10:02:26,28.68,66.85,45.36,1.168,8.4,-83.3,-5.7,-1.1,-2570,82,4.93,12.5,
25.91280861,-80.13767883,24:52.2,6/9/21,6,1.06,311.86,-7.09151097,2.03,267.6,260.87,1.67,0.94,27.4,0,3.16,3.16,91,25,498.3,16.1,-1.5,D,1314,6,17.626,1,1.05,154,252.81,-80.13784719,25.91276176,0,0,1,N,0.2396837,67,67,11,99,99,253.377,0,9999.99,3.17,3.297,2,9,28.5,0,28.5,45.31,1553.18311,6/9/21,10:02:27,28.68,66.8,45.31,1.182,8.4,-83.3,-4.9,-0.8,-1878,82,4.94,12.6,
25.91280855,-80.13768422,24:53.2,6/9/21,6,1.013,311.86,-7.09151097,2.03,265.4,258.6,1.56,0.94,27.4,0,3.2,3.2,91,25,498.3,16.1,-1.5,D,1335.9,6,17.11,1,1.04,154,252.3,-80.13784719,25.91276176,0,0,1,N,7.57E-02,66,66,11,103,103,252.5038,0,9999.99,3.21,3.337,2,9,28.5,0,28.5,45.31,1553.18274,6/9/21,10:02:28,28.67,66.79,45.31,1.18,8.39,-83.1,-4.5,-3.8,-2755,82,4.94,12.4,
25.91280862,-80.13769007,24:54.2,6/9/21,6,0.997,311.86,-7.09151097,2.03,262.9,256,1.52,0.46,27.4,0,3.22,3.22,91,25,498.3,16.1,-1.5,D,1335.9,6,16.555,1,1.06,154,251.66,-80.13784719,25.91276176,0,0,1,N,0.1131783,66,66,11,109,109,251.3867,0,9999.99,3.23,3.357,2,9,28.5,0,28.5,45.31,1553.1827,6/9/21,10:02:29,28.66,66.79,45.31,1.176,8.39,-83,-5.3,0.5,-3145,82,4.94,12.5,
25.91280855,-80.1376959,24:55.2,6/9/21,6,1.152,311.86,-7.09151097,2.03,261.6,254.65,1.68,0.35,27.5,0,3.24,3.24,91,25,498.3,16.1,-1.5,D,1335.9,6,16.001,1,1.07,154,251.03,-80.13784719,25.91276176,0,0,1,N,0.288152,67,67,11,109,109,250.2252,0,9999.99,3.25,3.377,2,9,28.5,0,28.5,45.27,1553.14045,6/9/21,10:02:30,28.65,66.74,45.27,1.175,8.39,-82.7,-4.4,-4,-3296,82,4.94,12.5,
25.91280866,-80.13770198,24:56.2,6/9/21,6,1.15,311.86,-7.09151097,2.03,260.3,253.3,1.59,-0.58,27.4,0,3.26,3.26,91,25,498.3,16.1,-1.5,D,1335.9,6,15.431,1,1.07,154,250.25,-80.13784719,25.91276176,0,0,1,N,0.4891491,67,67,11,109,109,248.7366,0,9999.99,3.27,3.397,2,9,28.5,0,28.5,45.27,1553.14063,6/9/21,10:02:31,28.64,66.73,45.27,1.178,8.38,-82.6,-3.4,-0.2,346,82.1,4.94,12.4,
25.91280824,-80.13770741,24:57.2,6/9/21,6,1.016,311.86,-7.09151097,2.03,260,252.99,1.35,-2.37,27.4,0,3.28,3.28,91,25,498.3,16.1,-1.5,D,1320.6,6,14.905,1,1.07,154,249.71,-80.13784719,25.91276176,0,0,1,N,0.6111082,65,65,11,106,106,247.6935,0,9999.99,3.29,3.417,2,9,28.5,0,28.5,45.28,1553.15108,6/9/21,10:02:32,28.62,66.75,45.28,1.181,8.38,-82.4,-5.9,-1,1237,82,4.94,12.5,
25.91280699,-80.1377125,24:58.2,6/9/21,6,1.116,311.86,-7.09151097,2.03,258.9,251.84,1.31,-0.96,27.4,0,3.29,3.29,91,25,498.3,16.1,-1.5,D,1320.6,6,14.38,1,1.08,154,249.53,-80.13784719,25.91276176,0,0,1,N,0.6359845,65,65,11,107,107,247.525,0,9999.99,3.3,3.427,2,9,28.5,0,28.5,45.28,1553.15104,6/9/21,10:02:33,28.62,66.75,45.28,1.174,8.38,-82.4,-3.7,0,-2492,82,4.94,12.7,
25.91280476,-80.13771824,24:59.2,6/9/21,6,1.091,311.86,-7.09151097,2.03,258.8,251.74,1.38,-0.66,27.4,0,3.3,3.3,91,25,498.3,16.1,-1.5,D,1318.9,6,13.755,1,1.05,154,249.66,-80.13784719,25.91276176,0,0,1,N,0.5792531,65,65,11,113,113,247.9289,0,9999.99,3.31,3.437,2,9,28.5,0,28.5,45.23,1553.09829,6/9/21,10:02:34,28.61,66.69,45.23,1.188,8.38,-82.2,-4.6,-0.9,-4366,81.8,4.93,12.5,
25.91280383,-80.13772353,25:00.2,6/9/21,6,1.104,311.86,-7.09151097,2.03,257.6,250.49,1.48,-1.2,27.4,0,3.31,3.31,91,25,498.3,16.1,-1.5,D,1318.9,6,13.223,1,1.06,154,249.28,-80.13784719,25.91276176,0,0,1,N,0.643096,66,66,11,115,115,247.4741,0,9999.99,3.32,3.447,2,9,28.5,0,28.5,45.2,1553.06687,6/9/21,10:02:35,28.59,66.64,45.2,1.17,8.38,-82,-4.5,-2,-1682,81.8,4.93,12.6,
25.91280243,-80.13772984,25:01.3,6/9/21,6,1.068,311.86,-7.09151097,2.03,255.6,248.4,1.48,0.53,27.5,0,3.33,3.33,91,25,498.3,16.1,-1.5,D,1318.9,6,12.577,1,1.07,154,248.93,-80.13784719,25.91276176,0,0,1,N,0.6915331,66,66,11,120,120,247.1295,0,9999.99,3.34,3.467,2,9,28.5,0,28.5,45.19,1553.05631,6/9/21,10:02:36,28.57,66.63,45.19,1.173,8.37,-81.9,-2.8,-5.6,-1526,81.7,4.93,12.6,
25.91280118,-80.13773494,25:02.3,6/9/21,6,1.078,311.86,-7.09151097,2.03,255.7,248.5,1.24,-1.26,27.5,0,3.35,3.35,91,25,498.2,16.1,-1.5,D,1336.7,6,12.052,1,1.07,154,248.67,-80.13784719,25.91276176,0,0,1,N,0.7171535,64,64,11,121,121,246.9478,0,9999.99,3.36,3.487,2,9,28.5,0,28.5,45.18,1553.04543,6/9/21,10:02:37,28.55,66.62,45.18,1.183,8.37,-81.7,-4.9,-1.5,-2194,81.5,4.92,12.5,
25.91279868,-80.1377398,25:03.3,6/9/21,7,1.106,311.86,-7.09151097,1.72,256.2,249.02,1.33,-2.4,27.5,0,3.38,3.38,91,25,498.2,16.1,-1.5,D,1336.7,6,11.499,1,1.09,154,249.08,-80.13784719,25.91276176,0,0,1,N,0.6010223,66,66,11,122,122,247.7738,0,9999.99,3.39,3.517,2,9,28.5,0,28.5,45.19,1553.05603,6/9/21,10:02:38,28.54,66.63,45.19,1.184,8.37,-81.5,-3.4,-2.9,-2521,81.4,4.91,12.5,
25.9127957,-80.13774519,25:04.3,6/9/21,7,1.097,311.86,-7.09151097,1.72,255.7,248.5,1.41,-1.76,27.5,0,3.41,3.41,91,25,498.2,16.1,-1.5,D,1336.7,6,10.878,1,1.12,154,249.7,-80.13784719,25.91276176,0,0,1,N,0.4525589,66,66,11,130,130,248.8327,0,9999.99,3.42,3.547,2,9,28.5,0,28.5,45.21,1553.07717,6/9/21,10:02:40,28.52,66.65,45.21,1.173,8.36,-81.3,-3.2,-3.8,-2196,81.1,4.9,12.4,
25.91279462,-80.13775154,25:05.3,6/9/21,7,1.071,311.86,-7.09151097,1.72,255.9,248.71,1.51,-2.7,27.5,0,3.44,3.44,91,25,498.2,16.1,-1.5,D,1336.7,6,10.24,1,1.23,154,249.1,-80.13784719,25.91276176,0,0,1,N,0.5252614,66,66,11,125,125,248.3139,0,9999.99,3.45,3.577,2,9,28.5,0,28.5,45.21,1553.07733,6/9/21,10:02:41,28.52,66.65,45.21,1.177,8.36,-81.3,-4.9,-2.7,-3484,81,4.89,12.5,
25.91279256,-80.13775711,25:06.3,6/9/21,7,1.075,311.86,-7.09151097,1.72,254.9,247.67,1.38,-0.44,27.5,0,3.47,3.47,91,25,498.2,16.1,-1.5,D,1335.8,6,9.639,1,1.19,154,249.19,-80.13784719,25.91276176,0,0,1,N,0.482731,65,65,11,131,131,248.6173,0,9999.99,3.48,3.607,2,9,28.5,0,28.5,45.22,1553.08776,6/9/21,10:02:42,28.52,66.66,45.22,1.177,8.36,-81.3,-4.9,-3.4,-1035,80.9,4.88,12.5,
25.91279111,-80.13776278,25:07.3,6/9/21,7,1.112,279.47,-7.09151097,1.72,255.5,248.29,1.45,-1.21,27.5,0,3.5,3.5,91,25,498.2,16.1,-1.5,D,1335.8,6,9.051,1,1.15,154,248.86,-80.13784719,25.91276176,0,0,1,N,0.5059751,66,66,11,128,128,248.4514,0,9999.99,3.51,3.637,2,9,28.5,0,28.5,45.22,1553.08776,6/9/21,10:02:42,28.52,66.66,45.22,1.177,8.36,-81.3,-4.9,-3.4,-1035,80.9,4.88,12.5,
25.91279025,-80.13776881,25:08.3,6/9/21,7,1.104,279.47,-7.09151097,1.72,255.3,248.08,1.53,-0.14,27.5,0,3.51,3.51,91,25,498.2,16.1,-1.5,D,1335.8,6,8.455,1,1.12,154,248,-80.13784719,25.91276176,0,0,1,N,0.6011126,66,66,11,126,126,247.7733,0,9999.99,3.52,3.647,2,9,28.5,0,28.5,45.23,1553.09825,6/9/21,10:02:43,28.52,66.68,45.23,1.178,8.36,-81.3,-4.4,1.3,-4659,80.8,4.88,12.5,
25.91278838,-80.13777471,25:09.4,6/9/21,8,1.217,268.45,-7.09151097,1.49,255.5,248.29,1.57,-0.75,27.5,0,3.55,3.55,91,24,498.2,16.1,-1.5,D,1349.5,6,7.83,1,1.13,153,247.79,-80.13784719,25.91276176,0,0,1,N,0.5884562,66,66,11,125,125,247.8635,0,9999.99,3.56,3.687,2,9,28.5,0,28.5,45.21,1553.07728,6/9/21,10:02:45,28.52,66.65,45.21,1.17,8.36,-81.4,-4.4,-3.5,-1642,80.5,4.86,12.5,
25.9127871,-80.13778029,25:10.4,6/9/21,8,1.081,265.56,-7.09151097,1.49,256.3,249.13,1.32,-1.06,27.5,0,3.57,3.57,91,24,498.2,16.1,-1.5,D,1349.5,6,7.26,1,1.09,153,247.16,-80.13784719,25.91276176,0,0,1,N,0.6237695,66,66,11,121,121,247.6118,0,9999.99,3.58,3.707,2,9,28.5,0,28.5,45.21,1553.07728,6/9/21,10:02:45,28.52,66.65,45.21,1.17,8.36,-81.4,-4.4,-3.5,-1642,80.5,4.86,12.5,
25.91278525,-80.13778584,25:11.4,6/9/21,8,1.007,251,-7.09151097,1.49,255.8,248.61,1.24,-0.44,27.6,0,3.55,3.55,91,24,498.2,16.1,-1.5,D,1349.5,6,6.669,1,1.11,153,246.94,-80.13784719,25.91276176,0,0,1,N,0.5988775,64,64,11,124,124,247.7893,0,9999.99,3.56,3.687,2,9,28.5,0,28.5,45.19,1553.05595,6/9/21,10:02:47,28.51,66.63,45.19,1.175,8.36,-81,-2.8,-3.7,-1982,80.3,4.85,12.6,
25.91278386,-80.13779079,25:12.4,6/9/21,8,1.055,252.51,-7.09151097,1.49,256.2,249.02,1.36,0.21,27.5,0,3.55,3.55,91,24,498.2,16.1,-1.5,D,1349.5,6,6.154,1,1.08,153,246.46,-80.13784719,25.91276176,0,0,1,N,0.6042543,65,65,11,123,123,247.7509,0,9999.99,3.56,3.687,2,9,28.5,0,28.5,45.19,1553.05595,6/9/21,10:02:47,28.51,66.63,45.19,1.175,8.36,-81,-2.8,-3.7,-1982,80.3,4.85,12.6,
25.91278188,-80.13779591,25:13.4,6/9/21,8,1.111,254.19,-7.09151097,1.49,256.4,249.23,1.47,-1.22,27.5,0,3.54,3.54,91,24,498.2,16.1,-1.5,D,1355.7,6,5.596,1,1.05,153,246.43,-80.13784719,25.91276176,0,0,1,N,0.5517504,66,66,11,123,123,248.1246,0,9999.99,3.55,3.677,2,9,28.5,0,28.5,45.2,1553.06656,6/9/21,10:02:48,28.51,66.64,45.2,1.175,8.36,-81,-3.7,-0.4,-3063,80.1,4.84,12.4,
25.9127792,-80.13780197,25:14.4,6/9/21,8,1.036,254.08,-7.09151097,1.49,256.7,249.55,1.58,-1.51,27.6,0,3.45,3.45,91,24,498.2,16.1,-1.5,D,1355.7,7,4.921,1,1.07,128,246.8,-80.13784719,25.91276176,0,0,6,N,0.545203,66,66,11,116,116,246.8335,0,9999.99,3.46,3.587,2,9,28.5,0,28.5,45.19,1553.05609,6/9/21,10:02:50,28.51,66.63,45.19,1.189,8.36,-81,-4.1,-2.6,-4063,79.8,4.82,12.5,
25.91277804,-80.13780721,25:15.4,6/9/21,8,1.031,251.73,-7.09151097,1.49,255.8,248.61,1.19,-5.8,27.6,0,3.46,3.46,91,24,498.2,16.1,-1.5,D,1355.7,7,4.39,1,1.06,128,245.64,-80.13784719,25.91276176,0,0,6,N,0.545203,64,64,11,115,115,245.6803,0,9999.99,3.47,3.597,2,9,28.5,0,28.5,45.19,1553.05609,6/9/21,10:02:50,28.51,66.63,45.19,1.189,8.36,-81,-4.1,-2.6,-4063,79.8,4.82,12.5,
25.91277721,-80.13781233,25:16.4,6/9/21,8,0.906,251.73,-7.09151097,1.49,255,247.77,1.49,-1.46,27.6,0,3.37,3.37,91,21,498.2,16.1,-1.3,D,1542.1,7,3.887,1,1.04,128,243.77,-80.13784719,25.91276176,0,0,6,N,0.545203,66,66,11,111,111,243.8265,0,9999.99,3.38,3.507,2,9,28.5,0,28.5,45.2,1553.06654,6/9/21,10:02:51,28.5,66.65,45.2,1.176,8.36,-81.1,-3.7,-3.6,-3177,79.8,4.82,12.5,
25.91277622,-80.13781692,25:17.4,6/9/21,8,0.96,254.74,-7.09151097,1.49,254.7,247.46,1.35,-2.56,27.6,0,3.42,3.42,91,21,498.2,16.1,-1.3,D,1542.1,7,3.427,1,0.97,128,242.02,-80.13784719,25.91276176,0,0,6,N,0.545203,65,65,11,106,106,242.1021,0,9999.99,3.43,3.557,2,9,28.5,0,28.5,45.2,1553.06679,6/9/21,10:02:53,28.5,66.65,45.2,1.187,8.36,-80.9,-4.2,-4.2,-2673,79.4,4.8,12.5,
25.912775,-80.13782089,25:18.4,6/9/21,7,0.884,254.74,-7.09151097,1.52,254,246.73,1.23,-2.91,27.6,0,3.36,3.36,91,21,498.2,16.1,-1.3,D,1542.1,7,3.014,1,0.9,128,240.75,-80.13784719,25.91276176,0,0,6,N,0.545203,64,64,11,101,101,240.8835,0,9999.99,3.37,3.497,2,9,28.5,0,28.5,45.2,1553.06679,6/9/21,10:02:53,28.5,66.65,45.2,1.187,8.36,-80.9,-4.2,-4.2,-2673,79.4,4.8,12.5,
25.91277466,-80.13782485,25:19.4,6/9/21,7,0.592,254.74,-7.09151097,1.59,253.6,246.31,1.37,-2.21,27.6,0,3.27,3.27,91,21,498.2,16.1,-1.3,D,1542.1,7,2.655,1,0.84,128,237.31,-80.13784719,25.91276176,0,0,6,N,0.545203,65,65,11,92,92,237.4767,0,9999.99,3.28,3.407,2,9,28.5,0,28.5,45.19,1553.05616,6/9/21,10:02:54,28.5,66.63,45.19,1.171,8.36,-80.9,-5.5,-5,-1927,79.3,4.79,12.5,
25.91277381,-80.13782806,25:20.4,6/9/21,7,0.58,254.74,-7.09151097,1.52,252.2,244.84,1.34,-2.23,27.6,0,3.14,3.14,91,21,498.1,16.1,-1.3,D,1586.9,7,2.335,1,0.77,128,234.98,-80.13784719,25.91276176,0,0,6,N,0.545203,65,65,11,88,88,235.1416,0,9999.99,3.15,3.277,2,9,28.5,0,28.5,45.19,1553.05635,6/9/21,10:02:56,28.5,66.63,45.19,1.171,8.35,-80.8,-4,-0.4,-2328,79,4.77,12.4,
25.91277271,-80.13783146,25:21.4,6/9/21,7,0.693,254.74,-7.09151097,1.52,251.6,244.22,1.34,-3.71,27.6,0,3.12,3.12,91,21,498.1,16.1,-1.3,D,1586.9,7,1.989,1,0.69,128,232.27,-80.13784719,25.91276176,0,0,6,N,0.545203,65,65,11,80,80,232.503,0,9999.99,3.13,3.257,2,9,28.5,0,28.5,45.19,1553.05635,6/9/21,10:02:56,28.5,66.63,45.19,1.171,8.35,-80.8,-4,-0.4,-2328,79,4.77,12.4,
25.91277222,-80.1378335,25:22.4,6/9/21,7,0.592,254.74,-7.09151097,1.52,250,242.54,1.44,-4.43,27.6,0,3.08,3.08,91,21,498.1,16.1,-1.3,D,1586.9,7,1.796,1,0.64,128,229.65,-80.13784719,25.91276176,0,0,6,N,0.545203,66,66,11,75,75,229.9145,0,9999.99,3.09,3.217,2,9,28.5,0,28.5,45.2,1553.06671,6/9/21,10:02:57,28.5,66.64,45.2,1.175,8.36,-80.9,-4,-3.6,-3944,78.9,4.77,12.6,
25.91277188,-80.13783632,25:23.4,6/9/21,7,0.552,254.74,-7.09151097,1.52,248.5,240.97,1.23,-3.22,27.6,0,2.99,2.99,91,21,498.1,16.1,-1.3,D,1586.9,7,1.566,1,0.6,128,224,-80.13784719,25.91276176,0,0,6,N,0.545203,64,64,11,60,60,224.3172,0,9999.99,3,3.127,2,9,28.5,0,28.5,45.18,1553.04566,6/9/21,10:02:59,28.5,66.62,45.18,1.169,8.36,-80.9,-4.1,-2.4,-2554,78.7,4.75,12.6,
25.91277053,-80.13783865,25:24.4,6/9/21,7,0.406,254.74,-7.09151097,1.52,246.9,239.29,1.4,-4.64,27.6,0,2.97,2.97,91,21,498.1,16.1,-1.3,D,1584.4,7,1.295,1,0.57,128,221.19,-80.13784719,25.91276176,0,0,6,N,0.545203,65,65,11,56,56,221.5429,0,9999.99,2.98,3.107,2,9,28.5,0,28.5,45.18,1553.04566,6/9/21,10:02:59,28.5,66.62,45.18,1.169,8.36,-80.9,-4.1,-2.4,-2554,78.7,4.75,12.6,
25.91276973,-80.1378409,25:25.4,6/9/21,7,0.498,254.74,-7.09151097,1.52,244.7,236.98,1.34,-5.06,27.6,0,2.92,2.92,91,21,498.1,16.1,-1.3,D,1584.4,7,1.087,1,0.54,128,215.36,-80.13784719,25.91276176,0,0,6,N,0.545203,64,64,11,39,39,215.902,0,9999.99,2.93,3.057,2,9,28.5,0,28.5,45.18,1553.0454,6/9/21,10:03:00,28.5,66.61,45.18,1.169,8.36,-80.9,-4,-8.8,-2773,78.6,4.75,12.5,
25.9127694,-80.13784288,25:26.4,6/9/21,7,0.589,254.74,-7.09151097,1.52,243.5,235.72,1.33,-3.82,27.7,0,2.87,2.87,91,21,498.1,16.1,-1.3,D,1584.4,7,0.954,1,0.49,128,206.88,-80.13784719,25.91276176,0,0,6,N,0.545203,65,65,11,15,15,207.5959,0,9999.99,2.88,3.007,2,9,28.5,0,28.5,45.18,1553.04559,6/9/21,10:03:02,28.5,66.61,45.18,1.174,8.35,-80.6,-3.3,-4.8,-3533,78.3,4.73,12.6,
25.91276858,-80.13784556,25:27.4,6/9/21,7,0.575,254.74,-7.09151097,1.52,241.5,233.61,1.29,-4.11,27.7,0,2.83,2.83,91,21,498.1,16.1,-1.3,D,1543,7,0.777,1,0.47,128,192.1,-80.13784719,25.91276176,0,0,6,N,0.545203,64,64,11,5,5,193.3322,0,9999.99,2.84,2.967,2,9,28.5,0,28.5,45.18,1553.04559,6/9/21,10:03:02,28.5,66.61,45.18,1.174,8.35,-80.6,-3.3,-4.8,-3533,78.3,4.73,12.6,
25.91276827,-80.13784741,25:28.4,6/9/21,8,0.285,254.74,-7.09151097,1.52,239,230.98,1.4,-4.09,27.7,0,2.8,2.8,91,21,498.1,16.1,-1.3,D,1543,7,0.723,1,0.43,128,178.25,-80.13784719,25.91276176,0,0,6,N,0.545203,65,65,11,5,5,179.697,0,9999.99,2.81,2.937,2,9,28.5,0,28.5,45.18,1553.04552,6/9/21,10:03:03,28.5,66.61,45.18,1.178,8.35,-80.7,-3.5,-2.8,-1599,78.1,4.72,12.5,
25.91276694,-80.13784915,25:29.4,6/9/21,8,0.341,254.74,-7.09151097,1.52,236.7,228.56,1.39,-1.46,27.8,0,2.75,2.75,91,21,498.1,16.1,-1.3,D,1543,7,0.608,1,0.41,128,161.18,-80.13784719,25.91276176,0,0,6,N,0.545203,65,65,11,5,5,163.0921,0,9999.99,2.76,2.887,2,9,28.5,0,28.5,45.18,1553.04549,6/9/21,10:03:05,28.5,66.61,45.18,1.173,8.35,-80.6,-4.6,-3.3,-1803,78,4.71,12.6,
25.91276565,-80.13785026,25:30.4,6/9/21,8,0.407,254.74,-7.09151097,1.52,234.1,225.82,1.27,-3.18,27.8,0,2.71,2.71,91,21,498.1,16.1,-1.3,D,1543,7,0.529,1,0.37,128,144.64,-80.13784719,25.91276176,0,0,6,N,0.545203,65,65,11,5,5,147.1442,0,9999.99,2.72,2.847,2,9,28.5,0,28.5,45.18,1553.04549,6/9/21,10:03:05,28.5,66.61,45.18,1.173,8.35,-80.6,-4.6,-3.3,-1803,78,4.71,12.6,
25.91276467,-80.13785118,25:31.5,6/9/21,8,0.317,254.74,-7.09151097,1.49,234.1,225.82,1.54,-5.44,27.7,0,2.7,2.7,91,21,498.1,16.1,-1.3,D,1594,7,0.52,1,0.36,128,129.05,-80.13784719,25.91276176,0,0,6,N,0.545203,66,66,11,5,5,131.2797,0,9999.99,2.71,2.837,2,9,28.5,0,28.5,45.17,1553.03482,6/9/21,10:03:06,28.51,66.61,45.17,1.172,8.35,-80.5,-3.5,-3.3,-2185,78,4.71,12.5,
25.91276387,-80.13785265,25:32.4,6/9/21,8,0.291,254.74,-7.09151097,1.49,230.8,222.34,1.54,-3.54,27.7,0,2.7,2.7,91,21,498.1,16.1,-1.3,D,1594,7,0.6,1,0.33,128,113.21,-80.13784719,25.91276176,0,0,6,N,0.545203,66,66,11,5,5,114.9235,0,9999.99,2.71,2.837,2,9,28.5,0,28.5,45.17,1553.03524,6/9/21,10:03:08,28.51,66.6,45.17,1.162,8.35,-80.7,-4.8,-2.4,-3104,77.7,4.69,12.3,
25.91276372,-80.13785457,25:33.5,6/9/21,9,0.335,254.74,-7.09151097,1.49,229.9,221.39,1.36,-4.9,27.7,0,2.67,2.67,91,21,498.1,16.1,-1.3,D,1594,7,0.765,1,0.31,128,106.44,-80.13784719,25.91276176,0,0,6,N,0.545203,65,65,11,5,5,107.6605,0,9999.99,2.68,2.807,2,9,28.5,0,28.5,45.17,1553.03524,6/9/21,10:03:08,28.51,66.6,45.17,1.162,8.35,-80.7,-4.8,-2.4,-3104,77.7,4.69,12.3,
25.91276305,-80.13785616,25:34.4,6/9/21,9,0.324,254.74,-7.09151097,1.49,227.6,218.97,1.36,-4.33,27.7,0,2.64,2.64,91,20,498.1,16.1,-1.2,D,1615.1,7,0.906,1,0.3,128,99.1,-80.13784719,25.91276176,0,0,6,N,0.545203,65,65,11,5,5,100.0556,0,9999.99,2.65,2.777,2,9,28.5,0,28.5,45.17,1553.03491,6/9/21,10:03:09,28.51,66.6,45.17,1.175,8.35,-80.7,-3.7,-2.3,-4413,77.6,4.69,12.6,
25.91276222,-80.13785733,25:35.5,6/9/21,9,0.278,254.74,-7.09151097,1.49,224.1,215.28,1.26,-1.73,27.8,0,2.64,2.64,91,20,498.1,16.1,-1.2,D,1615.1,7,1.014,1,0.29,128,92.91,-80.13784719,25.91276176,0,0,6,N,0.545203,65,65,11,5,5,93.81227,0,9999.99,2.65,2.777,2,9,28.5,0,28.5,45.17,1553.03502,6/9/21,10:03:11,28.51,66.6,45.17,1.17,8.35,-80.8,-4.5,-5.8,-751,77.5,4.68,12.6,
25.91276147,-80.13785846,25:36.4,6/9/21,9,0.232,254.74,-7.09151097,1.49,224.2,215.39,1.36,-4.47,27.7,0,2.64,2.64,91,20,498.1,16.1,-1.2,D,1615.1,7,1.123,1,0.27,128,88.34,-80.13784719,25.91276176,0,0,6,N,0.545203,65,65,11,5,5,88.93891,0,9999.99,2.65,2.777,2,9,28.5,0,28.5,45.17,1553.03502,6/9/21,10:03:11,28.51,66.6,45.17,1.17,8.35,-80.8,-4.5,-5.8,-751,77.5,4.68,12.6,
25.91276112,-80.13785976,25:37.5,6/9/21,9,0.21,254.74,-7.09151097,1.49,222.2,213.28,1.08,-3.82,27.7,0,2.63,2.63,91,20,498.1,16.1,-1.2,D,1615.1,7,1.259,1,0.26,128,86.76,-80.13784719,25.91276176,0,0,6,N,0.545203,63,63,11,5,5,87.28198,0,9999.99,2.64,2.767,2,9,28.5,0,28.5,45.17,1553.03508,6/9/21,10:03:12,28.52,66.6,45.17,1.172,8.36,-80.8,-2.9,-2.6,-2898,77.4,4.67,12.4,
25.9127615,-80.13786137,25:38.4,6/9/21,9,0.273,254.74,-7.09151097,1.49,220,210.97,1.35,-3.4,27.7,0.01,2.63,2.63,91,20,498,16.1,-1.2,D,1608.7,7,1.418,1,0.24,128,88.82,-80.13784719,25.91276176,0,0,6,N,0.545203,65,65,11,5,5,89.27165,0,9999.99,2.64,2.767,2,9,28.5,0,28.5,45.15,1553.01416,6/9/21,10:03:14,28.52,66.58,45.15,1.168,8.35,-80.7,-3.6,-1.1,-449,77.3,4.67,12.5,
25.9127605,-80.13786195,25:39.5,6/9/21,9,0.237,254.74,-7.09151097,1.52,219.5,210.44,1.35,-3.54,27.8,0.01,2.61,2.61,91,20,498,16.1,-1.2,D,1608.7,7,1.48,1,0.22,128,84.6,-80.13784719,25.91276176,0,0,6,N,0.545203,65,65,11,5,5,85.00298,0,9999.99,2.62,2.747,2,9,28.5,0,28.5,45.15,1553.01416,6/9/21,10:03:14,28.52,66.58,45.15,1.168,8.35,-80.7,-3.6,-1.1,-449,77.3,4.67,12.5,
25.91276019,-80.13786291,25:40.4,6/9/21,9,0.184,254.74,-7.09151097,1.52,216.9,207.71,1.36,-3.94,27.7,0,2.62,2.62,91,20,498,16.1,-1.2,D,1608.7,7,1.58,1,0.2,128,83.67,-80.13784719,25.91276176,0,0,6,N,0.545203,65,65,11,5,5,84.07255,0,9999.99,2.63,2.757,2,9,28.5,0,28.5,45.16,1553.02448,6/9/21,10:03:15,28.52,66.59,45.16,1.165,8.36,-80.8,-3.1,-7,-3420,77.3,4.67,12.5,
25.91276003,-80.13786369,25:41.4,6/9/21,9,0.17,254.74,-7.09151097,1.52,215.4,206.14,1.25,-3.38,27.7,0,2.62,2.62,91,21,498,16.1,-1.3,D,1574.5,7,1.658,1,0.2,128,83.36,-80.13784719,25.91276176,0,0,6,N,0.545203,65,65,11,5,5,83.70449,0,9999.99,2.63,2.757,2,9,28.5,0,28.5,45.15,1553.01402,6/9/21,10:03:17,28.52,66.58,45.15,1.174,8.36,-80.8,-4,-4.9,-2539,77.2,4.66,12.5,
25.91275959,-80.13786435,25:42.4,6/9/21,9,0.18,254.74,-7.09151097,1.52,212.8,203.42,1.17,-3.48,27.7,0,2.61,2.61,91,21,498,16.1,-1.3,D,1574.5,7,1.732,1,0.17,128,81.98,-80.13784719,25.91276176,0,0,6,N,0.545203,65,65,11,5,5,82.25983,0,9999.99,2.62,2.747,0,0,28.5,0,28.5,45.15,1553.01402,6/9/21,10:03:17,28.52,66.58,45.15,1.174,8.36,-80.8,-4,-4.9,-2539,77.2,4.66,12.5,
25.91275877,-80.1378648,25:43.4,6/9/21,9,0.203,254.74,-7.09151097,1.52,210.7,201.22,1.38,-3.43,27.8,0,2.64,2.64,91,21,498,16.1,-1.3,D,1574.5,7,1.794,1,0.16,128,79.31,-80.13784719,25.91276176,0,0,6,N,0.545203,65,65,11,5,5,79.57241,0,9999.99,2.65,2.777,2,9,28.5,0,28.5,45.15,1553.01393,6/9/21,10:03:18,28.52,66.58,45.15,1.163,8.35,-80.8,-4,-3.9,-805,77.3,4.66,12.7,
25.91275748,-80.13786462,25:44.5,6/9/21,9,0.155,254.74,-7.09151097,1.52,209.8,200.28,1.43,-3.52,27.8,0,2.65,2.65,91,21,498,16.1,-1.3,D,1574.5,7,1.806,1,0.15,128,74.73,-80.13784719,25.91276176,0,0,6,N,0.545203,66,66,11,5,5,74.94994,0,9999.99,2.66,2.787,2,9,28.5,0,28.5,45.14,1553.00343,6/9/21,10:03:20,28.53,66.57,45.14,1.179,8.35,-80.8,-4.3,1.2,-3754,77.3,4.67,12.4,
25.91275663,-80.13786525,25:45.4,6/9/21,9,0.164,254.74,-7.09151097,1.52,207.1,197.46,1.06,-3.95,27.8,0,2.65,2.65,91,21,498,16.1,-1.3,D,1584,7,1.896,1,0.14,128,72.49,-80.13784719,25.91276176,0,0,6,N,0.545203,63,63,11,5,5,72.73569,0,9999.99,2.66,2.787,2,9,28.5,0,28.5,45.14,1553.00343,6/9/21,10:03:20,28.53,66.57,45.14,1.179,8.35,-80.8,-4.3,1.2,-3754,77.3,4.67,12.4,
25.91275565,-80.13786556,25:46.5,6/9/21,9,0.132,254.74,-7.09151097,1.49,204.8,195.07,1.28,-4.5,27.8,0.01,2.66,2.67,91,21,498,16.1,-1.3,D,1584,7,1.959,1,0.14,128,69.71,-80.13784719,25.91276176,0,0,6,N,0.545203,64,64,11,5,5,69.91023,0,9999.99,2.67,2.797,2,9,28.5,0,28.5,45.14,1553.00374,6/9/21,10:03:21,28.53,66.57,45.14,1.175,8.35,-80.8,-3.8,-0.3,-1661,77.2,4.66,12.5,
25.91275469,-80.13786603,25:47.5,6/9/21,9,0.206,254.74,-7.09151097,1.49,203.4,193.62,1.7,-3.31,27.8,0,2.68,2.68,91,21,498,16.1,-1.3,D,1584,7,2.043,1,0.14,128,67.37,-80.13784719,25.91276176,0,0,6,N,0.545203,67,67,11,5,5,67.49948,0,9999.99,2.69,2.817,2,9,28.5,0,28.5,45.14,1553.00365,6/9/21,10:03:23,28.53,66.57,45.14,1.168,8.35,-80.7,-3.3,-3.5,-1542,77,4.65,12.5,
25.9127536,-80.13786569,25:48.5,6/9/21,9,0.154,254.74,-7.09151097,1.49,201.4,191.54,1.18,-4.45,27.8,0,2.68,2.68,91,20,498,16.1,-1.2,D,1595,7,2.06,1,0.16,128,63.87,-80.13784719,25.91276176,0,0,6,N,0.545203,64,64,11,5,5,64.08688,0,9999.99,2.69,2.817,2,9,28.5,0,28.5,45.14,1553.00365,6/9/21,10:03:23,28.53,66.57,45.14,1.168,8.35,-80.7,-3.3,-3.5,-1542,77,4.65,12.5,
25.91275298,-80.13786635,25:49.5,6/9/21,9,0.165,254.74,-7.09151097,1.52,199.4,189.48,1.18,-4.59,27.8,0,2.68,2.68,91,20,498,16.1,-1.2,D,1595,7,2.15,1,0.14,128,63.01,-80.13784719,25.91276176,0,0,6,N,0.545203,64,64,11,5,5,63.18976,0,9999.99,2.69,2.817,2,9,28.5,0,28.5,45.14,1553.00328,6/9/21,10:03:24,28.53,66.57,45.14,1.182,8.36,-80.8,-4.6,0,-2894,77,4.65,12.4,
25.91275277,-80.13786697,25:50.5,6/9/21,9,0.05,254.74,-7.09151097,1.52,197.8,187.83,1.45,-3.7,27.8,0,2.69,2.69,91,20,498,16.1,-1.2,D,1595,7,2.216,1,0.15,128,63.2,-80.13784719,25.91276176,0,0,6,N,0.545203,66,66,11,5,5,63.43449,0,9999.99,2.7,2.827,0,0,28.5,0,28.5,45.14,1553.00322,6/9/21,10:03:26,28.53,66.56,45.14,1.17,8.36,-80.9,-4,-2.9,-5570,76.9,4.64,12.5,
25.91275208,-80.13786728,25:51.5,6/9/21,9,0.179,254.74,-7.09151097,1.49,195.4,185.36,1.14,-3.39,27.8,0,2.7,2.7,91,20,498,16.1,-1.2,D,1595,7,2.28,1,0.17,128,61.81,-80.13784719,25.91276176,0,0,6,N,0.545203,64,64,11,5,5,62.03559,0,9999.99,2.71,2.837,2,9,28.5,0,28.5,45.14,1553.00322,6/9/21,10:03:26,28.53,66.56,45.14,1.17,8.36,-80.9,-4,-2.9,-5570,76.9,4.64,12.5,
25.91275131,-80.13786747,25:52.5,6/9/21,9,0.069,254.74,-7.09151097,1.49,195.4,185.36,1.24,-4.66,27.9,0,2.71,2.71,91,20,498,16.1,-1.2,D,1604.8,7,2.337,1,0.14,128,60.2,-80.13784719,25.91276176,0,0,6,N,0.545203,64,64,11,5,5,60.36928,0,9999.99,2.72,2.847,2,9,28.5,0,28.5,45.14,1553.00341,6/9/21,10:03:27,28.53,66.56,45.14,1.189,8.36,-80.8,-2.9,-3.5,-1644,76.9,4.64,12.7,
25.91275103,-80.13786798,25:53.5,6/9/21,9,0.121,254.74,-7.09151097,1.49,193.4,183.31,1.53,-4.53,27.8,0,2.71,2.71,91,20,498,16.1,-1.2,D,1604.8,7,2.396,1,0.12,128,60.16,-80.13784719,25.91276176,0,0,6,N,0.545203,66,66,11,5,5,60.30082,0,9999.99,2.72,2.847,2,9,28.5,0,28.5,45.14,1553.00326,6/9/21,10:03:29,28.53,66.56,45.14,1.17,8.35,-80.7,-3.5,0.8,-4117,76.9,4.64,12.5,
25.91274993,-80.13786794,25:54.5,6/9/21,9,0.123,254.74,-7.09151097,1.49,192.4,182.28,1.17,-4.19,27.8,0,2.7,2.7,91,20,498,16.1,-1.2,D,1604.8,7,2.457,1,0.09,128,57.64,-80.13784719,25.91276176,0,0,6,N,0.545203,63,63,11,5,5,57.75367,0,9999.99,2.71,2.837,2,9,28.5,0,28.5,45.14,1553.00326,6/9/21,10:03:29,28.53,66.56,45.14,1.17,8.35,-80.7,-3.5,0.8,-4117,76.9,4.64,12.5,
25.91274959,-80.13786826,25:55.5,6/9/21,9,0.108,254.74,-7.09151097,1.49,190.6,180.45,1.2,-4.32,27.8,0,2.71,2.71,91,20,498,16.1,-1.2,D,1604.8,7,2.505,1,0.1,128,57.29,-80.13784719,25.91276176,0,0,6,N,0.545203,64,64,11,5,5,57.42803,0,9999.99,2.72,2.847,2,9,28.5,0,28.5,45.15,1553.01407,6/9/21,10:03:30,28.53,66.57,45.15,1.177,8.35,-80.8,-3.9,-2.8,-1888,76.8,4.64,12.5,
25.91274903,-80.13786851,25:56.5,6/9/21,9,0.114,254.74,-7.09151097,1.49,189.6,179.43,1.19,-4.67,27.8,0,2.71,2.71,91,21,497.9,16.1,-1.3,D,1575.4,7,2.558,1,0.08,128,56.43,-80.13784719,25.91276176,0,0,6,N,0.545203,65,65,11,5,5,56.52422,0,9999.99,2.72,2.847,2,9,28.5,0,28.5,45.14,1553.00351,6/9/21,10:03:32,28.53,66.56,45.14,1.156,8.36,-81,-4.8,-2.3,-1770,76.8,4.64,12.5,
25.91274868,-80.13786903,25:57.5,6/9/21,8,0.066,254.74,-7.09151097,1.52,187.8,177.6,1.31,-4.32,27.8,0,2.7,2.7,91,21,497.9,16.1,-1.3,D,1575.4,7,2.626,1,0.08,128,56.34,-80.13784719,25.91276176,0,0,6,N,0.545203,65,65,11,5,5,56.43112,0,9999.99,2.71,2.837,2,9,28.5,0,28.5,45.14,1553.00351,6/9/21,10:03:32,28.53,66.56,45.14,1.156,8.36,-81,-4.8,-2.3,-1770,76.8,4.64,12.5,
25.91274765,-80.13786872,25:58.5,6/9/21,8,0.304,254.74,-7.09151097,1.52,186.6,176.38,1.33,-3.9,27.8,0,2.69,2.69,91,21,497.9,16.1,-1.3,D,1575.4,7,2.665,1,0.08,128,53.92,-80.13784719,25.91276176,0,0,6,N,0.545203,66,66,11,5,5,54.01729,0,9999.99,2.7,2.827,2,9,28.5,0,28.5,45.13,1552.99281,6/9/21,10:03:33,28.54,66.56,45.13,1.168,8.36,-80.9,-4.1,-4.3,-4257,76.9,4.64,12.4,
25.91274665,-80.13786841,25:59.5,6/9/21,8,0.136,254.74,-7.09151097,1.52,185.1,174.86,1.21,-4.11,27.8,0,2.69,2.69,91,20,497.9,16.1,-1.2,D,1598.5,7,2.707,1,0.08,128,51.63,-80.13784719,25.91276176,0,0,6,N,0.545203,64,64,11,5,5,51.72013,0,9999.99,2.7,2.827,2,9,28.5,0,28.5,45.13,1552.99291,6/9/21,10:03:35,28.54,66.55,45.13,1.179,8.36,-80.9,-4.1,-5,-1329,76.9,4.64,12.6,
