Latitude,Longitude,Time,Date,Number of Sats,GPS Speed (Kn),GPS True Heading,GPS Magnetic Variation,HDOP,C Magnetic Heading,C True Heading,Pitch Angle,Roll Angle,C Inside Temp (c),DFS Depth (m),DTB Height (m),Total Water Column (m),Batt Percent,Power Watts,Watt-Hours,Batt Volts,Batt Ampers,Batt State,Time to Empty,Current Step,Dist To Next (m),Next Speed (kn),Vehicle Speed (kn),Motor Speed CMD,Next Heading,Next Long,Next Lat,Next Depth (m),Depth Goal (m),Vehicle State,Error State,Distance to Track (m),Fin Pitch R,Fin Pitch L,Pitch Goal,Fin Yaw T,Fin Yaw B,Yaw Goal,Fin Roll,DVL-Depth (m),DVL -Altitude (m),DVL -Water Column (m),DVL-FixType,DVL-FixQuality,DVL-Temperature,Conductivity (mmhos/cm),Temperature (c),Salinity (ppt),Sound Speed (m/s),Date m/d/y   ,Time hh:mm:ss,Temp C,SpCond mS/cm,Sal ppt,Depth feet,pH,pH mV,Turbid+ NTU,Chl ug/L,BGA-PC cells/mL,ODOsat %,ODO mg/L,Battery volts,ROSEM Command Type
25.9127575,-80.1378755,54:20.5,6/9/21,6,0.219,0,-7.091561231,2.81,159,149.1,1.33,-3.7,28,0.01,2.59,2.6,91,21,496.4,16.1,-1.3,D,1538.1,0,4.997,2,0,128,116.09,-80.13783063,25.91273774,0,0,1,N,1.42E-02,65,65,11,250,250,282.6302,0,9999.99,2.6,2.727,2,9,29.1,0,29.10000038,44.24,1553.29656,6/9/21,10:31:54,29.15,65.43,44.24,1.238,8.39,-83,-4.1,0.8,-1987,77.3,4.64,12.5,
25.91275867,-80.13787667,54:21.6,6/9/21,6,0.127,0,-7.091561231,2.8,160,150.06,1.04,-3.67,28,0.01,2.59,2.6,91,22,496.4,16.1,-1.3,D,1498.9,0,5.036,2,0,128,116.57,-80.13783063,25.91273774,0,0,1,N,2.83E-02,64,64,11,250,250,282.2205,0,9999.99,2.6,2.727,2,9,29.1,0,29.10000038,44.21,1553.2647,6/9/21,10:31:56,29.16,65.39,44.21,1.241,8.39,-83.1,-3.5,-3.7,-2311,77.3,4.64,12.4,
25.91275817,-80.1378775,54:22.6,6/9/21,6,0.213,0,-7.091561231,1.66,158.2,148.32,2.65,1.29,28,0.01,2.58,2.59,91,22,496.4,16.1,-1.3,D,1498.9,1,14.944,2,0.01,174,142.53,-80.13778584,25.91265197,0,0,1,N,3.185844,73,73,11,88,88,138.5107,0,9999.99,2.59,2.717,2,9,29.1,0,29.10000038,44.21,1553.2647,6/9/21,10:31:56,29.16,65.39,44.21,1.241,8.39,-83.1,-3.5,-3.7,-2311,77.3,4.64,12.4,
25.9127565,-80.13787717,54:23.6,6/9/21,6,0.802,155.57,-7.091561231,1.66,160.1,150.16,1.8,-2.19,28,0.01,2.6,2.61,91,22,496.4,16.1,-1.3,D,1498.9,1,14.928,2,0.07,174,142.16,-80.13778584,25.91265197,0,0,1,N,3.278274,68,68,11,78,78,138.0249,0,9999.99,2.62,2.747,0,0,29.1,0,29.10000038,44.2,1553.25418,6/9/21,10:31:57,29.16,65.38,44.2,1.279,8.4,-83.5,-4.5,-2.7,-2398,77.4,4.65,12.6,
25.91275417,-80.13788,54:24.6,6/9/21,6,1.185,160.79,-7.091561231,1.66,162,151.99,1.46,0.74,28,0.01,2.59,2.6,91,38,496.4,16.1,-2.3,D,865.9,1,14.664,2,0.33,174,141.76,-80.13778584,25.91265197,0,0,1,N,3.319292,66,66,11,69,69,137.4974,0,9999.99,2.6,2.727,2,9,29.1,0,29.10000038,44.21,1553.26482,6/9/21,10:31:59,29.15,65.39,44.21,1.271,8.38,-82.6,-4.7,-0.8,-3625,77.2,4.64,12.6,
25.91274967,-80.13788183,54:25.6,6/9/21,6,1.493,162.49,-7.091561231,1.66,162.3,152.29,1.05,-1.94,28,0.01,2.58,2.59,91,38,496.4,16.1,-2.3,D,865.9,1,14.516,2,0.68,174,140.12,-80.13778584,25.91265197,0,0,1,N,3.689523,63,63,11,59,59,135.3813,0,9999.99,2.6,2.727,2,9,29.1,0,29.10000038,44.16,1553.21173,6/9/21,10:32:00,29.15,65.33,44.16,1.267,8.37,-81.7,-4.1,-5,-2404,77.2,4.64,12.4,
25.9127435,-80.1378805,54:26.6,6/9/21,6,1.608,161.41,-7.091561231,1.66,160.6,150.64,1.38,0.4,28,0,2.51,2.52,91,38,496.4,16.1,-2.3,D,865.9,1,14.074,2,1,174,138.13,-80.13778584,25.91265197,0,0,1,N,4.049304,64,64,11,51,51,132.8124,0,9999.99,2.52,2.647,2,9,29.1,0,29.10000038,44.14,1553.19045,6/9/21,10:32:01,29.11,65.29,44.14,1.295,8.39,-83.1,-3.1,-4.8,-3000,77.2,4.64,12.6,
25.91273621,-80.13787875,54:27.6,6/9/21,6,1.777,160.4,-7.091561231,1.66,157.4,147.56,0.96,1.58,28,0,2.49,2.49,91,38,496.4,16.1,-2.3,D,865.9,1,13.195,2,1.25,174,135.23,-80.13778584,25.91265197,0,0,1,N,4.188632,63,63,11,54,54,129.3185,0,9999.99,2.5,2.627,2,9,29.1,0,29.10000038,44.16,1553.21143,6/9/21,10:32:02,29.08,65.33,44.16,1.268,8.39,-83.1,-4,-1.6,-1530,77.2,4.65,12.6,
25.91273183,-80.13788017,54:28.6,6/9/21,6,1.782,154.97,-7.091561231,1.66,153.3,143.63,1.58,3.79,28,0,2.5,2.5,91,39,496.4,16,-2.4,D,835.7,1,12.49,2,1.48,174,134.63,-80.13778584,25.91265197,0,0,1,N,4.332901,66,66,11,73,73,130.1643,0,9999.99,2.51,2.637,2,9,29.1,0,29.10000038,44.16,1553.2114,6/9/21,10:32:03,29.07,65.33,44.16,1.328,8.4,-83.5,-4.1,-2.1,-1096,77.2,4.65,12.6,
25.91272583,-80.13787867,54:29.6,6/9/21,6,1.879,153.72,-7.091561231,1.66,148.4,138.97,1.64,4.22,28,0,2.61,2.61,91,39,496.4,16,-2.4,D,835.7,1,12.225,2,1.64,174,132.77,-80.13778584,25.91265197,0,0,1,N,4.617098,66,66,11,76,76,127.6659,0,9999.99,2.62,2.747,2,9,29.1,0,29.10000038,44.15,1553.20091,6/9/21,10:32:04,29.05,65.31,44.15,1.298,8.38,-82.5,-4.4,-5.4,-3339,77.2,4.65,12.4,
25.91271817,-80.137873,54:30.6,6/9/21,6,1.931,150.09,-7.091561231,1.66,145.2,135.94,1.92,5.04,28,0,2.61,2.61,91,39,496.4,16,-2.4,D,835.7,1,11.537,2,1.72,174,131.08,-80.13778584,25.91265197,0,0,1,N,4.683658,68,68,11,80,80,124.9531,0,9999.99,2.62,2.747,2,9,29.1,0,29.10000038,44.12,1553.16948,6/9/21,10:32:05,29.03,65.27,44.12,1.294,8.38,-82.4,-4.1,-2.5,-793,77.2,4.65,12.7,
25.912711,-80.1378665,54:31.6,6/9/21,6,1.907,143.56,-7.091561231,1.66,142.8,133.68,1.69,3.19,28.1,0,2.81,2.82,91,38,496.3,16,-2.3,D,861.8,1,10.512,2,1.78,174,129.81,-80.13778584,25.91265197,0,0,1,N,4.488892,67,67,11,94,94,125.5383,0,9999.99,2.83,2.957,2,9,29.1,0,29.10000038,44.12,1553.16964,6/9/21,10:32:06,28.99,65.26,44.12,1.256,8.37,-82,-3.9,-2.4,-1080,77.2,4.66,12.7,
25.91270433,-80.1378595,54:32.6,6/9/21,6,1.935,139.2,-7.091561231,1.66,140.7,131.71,1.53,5.02,28.1,0,2.81,2.82,91,38,496.3,16,-2.3,D,861.8,1,9.476,2,1.82,174,128.8,-80.13778584,25.91265197,0,0,1,N,4.19988,66,66,11,109,109,127.1397,0,9999.99,2.83,2.957,2,9,29.1,0,29.10000038,44.18,1553.23272,6/9/21,10:32:07,28.96,65.34,44.18,1.289,8.38,-82.1,-4.2,-3.1,-2913,77.2,4.65,12.8,
25.91269737,-80.13785186,54:33.6,6/9/21,6,1.909,139.55,-7.091561231,1.66,139.4,130.49,1.44,4.46,28.1,0,2.81,2.82,91,38,496.3,16,-2.3,D,861.8,1,8.311,2,1.89,174,127.4,-80.13778584,25.91265197,0,0,1,N,3.81691,66,66,11,121,121,129.0585,0,9999.99,2.83,2.957,2,9,29.1,0,29.10000038,44.18,1553.23238,6/9/21,10:32:08,28.96,65.35,44.18,1.3,8.36,-81.5,-4.3,-1.2,-2814,77.2,4.65,12.5,
25.91269167,-80.13784533,54:34.6,6/9/21,6,1.935,138.1,-7.091561231,1.66,138.8,129.93,1.25,3.97,28.2,0,2.94,2.94,91,38,496.3,16,-2.3,D,861.8,1,7.378,2,1.92,174,127.06,-80.13778584,25.91265197,0,0,1,N,3.492189,65,65,11,132,132,131.2567,0,9999.99,2.95,3.077,2,9,29.1,0,29.10000038,44.15,1553.20075,6/9/21,10:32:09,28.95,65.31,44.15,1.272,8.35,-80.7,-4.6,-4.6,-2190,77.2,4.65,12.6,
25.91268533,-80.1378385,54:35.6,6/9/21,6,1.894,135.29,-7.091561231,1.66,139.5,130.59,1.14,4.34,28.1,0,3.03,3.03,91,38,496.3,16,-2.3,D,868.6,1,6.423,2,1.91,174,126.12,-80.13778584,25.91265197,0,0,1,N,3.137292,64,64,11,138,138,133.4269,0,9999.99,3.04,3.167,2,9,29.1,0,29.10000038,44.13,1553.17972,6/9/21,10:32:10,28.91,65.28,44.13,1.3,8.38,-82.3,-4.4,0.3,-3127,77.1,4.65,12.7,
25.91267868,-80.13783086,54:36.6,6/9/21,6,1.899,133.62,-7.091561231,1.65,140.4,131.43,1.1,2.88,28.1,0,3.04,3.04,91,38,496.3,16,-2.3,D,868.6,1,5.395,2,1.91,174,123.41,-80.13778584,25.91265197,0,0,1,N,2.822764,64,64,11,142,142,135.1965,0,9999.99,3.05,3.177,2,9,29.1,0,29.10000038,44.16,1553.21129,6/9/21,10:32:11,28.89,65.31,44.16,1.296,8.38,-82.3,-3.2,-1,-4008,77.2,4.66,12.6,
25.91267292,-80.13782376,54:37.6,6/9/21,6,1.903,133.52,-7.091561231,1.65,141.8,132.74,0.92,2.65,28.1,0,2.97,2.97,91,38,496.3,16,-2.3,D,868.6,2,15.585,2,1.91,174,121.57,-80.137691,25.91259955,0,0,1,N,2.47847,63,63,11,118,118,130.5567,0,9999.99,2.98,3.107,2,9,29.1,0,29.10000038,44.15,1553.20076,6/9/21,10:32:12,28.88,65.3,44.15,1.288,8.39,-82.9,-4,-4.8,-3483,77.1,4.66,12.5,
25.91266684,-80.13781705,54:38.6,6/9/21,6,1.936,136.43,-7.091561231,1.65,142.4,133.31,1.4,-1.36,28.1,0,3.13,3.13,91,38,496.3,16,-2.3,D,873.3,2,14.66,2,1.92,174,120.69,-80.137691,25.91259955,0,0,1,N,0.1705956,65,65,11,76,76,120.4754,0,9999.99,3.14,3.267,2,9,29.1,0,29.10000038,44.16,1553.21127,6/9/21,10:32:13,28.87,65.31,44.16,1.291,8.37,-81.7,-3.4,-2.2,-2088,77,4.65,12.6,
25.91266039,-80.13781034,54:39.6,6/9/21,6,1.987,137.81,-7.091561231,1.65,139.7,130.78,0.87,4.58,28,0,3.15,3.15,91,38,496.3,16,-2.3,D,873.3,2,13.719,2,1.9,174,119.54,-80.137691,25.91259955,0,0,1,N,0.3627804,62,62,11,78,78,118.8472,0,9999.99,3.16,3.287,2,9,29.1,0,29.10000038,44.17,1553.2218,6/9/21,10:32:14,28.87,65.33,44.17,1.295,8.37,-81.6,-4.1,-6,-3679,77.1,4.65,12.7,
25.91265375,-80.13780331,54:40.6,6/9/21,6,1.995,135.13,-7.091561231,1.65,136.4,127.69,1.43,2.78,28.1,0,3.2,3.2,91,38,496.3,16,-2.3,D,873.3,2,12.748,2,1.91,174,118.22,-80.137691,25.91259955,0,0,1,N,0.5873054,66,66,11,86,86,117.3462,0,9999.99,3.21,3.337,2,9,29.1,0,29.10000038,44.18,1553.23233,6/9/21,10:32:15,28.87,65.35,44.18,1.332,8.37,-81.7,-3.9,-3.9,-1021,77.1,4.66,12.6,
25.91264728,-80.13779569,54:41.7,6/9/21,6,1.922,134.05,-7.091561231,1.65,133.9,125.36,1.43,4.13,28.1,0,3.24,3.24,91,38,496.3,16,-2.3,D,873.3,2,11.739,2,1.93,174,116.88,-80.137691,25.91259955,0,0,1,N,0.8169731,66,66,11,87,87,115.4618,0,9999.99,3.25,3.377,2,9,29.1,0,29.10000038,44.16,1553.21135,6/9/21,10:32:16,28.87,65.31,44.16,1.274,8.36,-81.4,-4.2,-0.1,-934,77,4.65,12.4,
25.91264139,-80.13778795,54:42.7,6/9/21,6,1.962,132.4,-7.091561231,1.65,131.1,122.76,1.19,3.08,28.1,0,3.25,3.25,91,38,496.3,16,-2.3,D,862,2,10.755,2,1.94,174,115.63,-80.137691,25.91259955,0,0,1,N,0.9893142,64,64,11,90,90,113.8165,0,9999.99,3.26,3.387,2,9,29.1,0,29.10000038,44.16,1553.21137,6/9/21,10:32:17,28.86,65.31,44.16,1.295,8.35,-80.7,-4.7,-2,-1527,77,4.65,12.6,
25.91263632,-80.13777957,54:43.7,6/9/21,6,1.94,128.32,-7.091561231,1.65,129.5,121.27,1.51,3.35,28.1,0,3.27,3.27,91,38,496.3,16,-2.3,D,862,2,9.756,2,1.95,174,114.78,-80.137691,25.91259955,0,0,1,N,1.122061,66,66,11,94,94,113.3728,0,9999.99,3.28,3.407,2,9,29.1,0,29.10000038,44.14,1553.19025,6/9/21,10:32:18,28.83,65.28,44.14,1.298,8.37,-81.7,-4.2,-3,-2358,77,4.65,12.6,
25.91263133,-80.13777267,54:44.7,6/9/21,7,1.872,126.71,-7.091561231,1.65,127.3,119.23,1,3.9,28.1,0,3.31,3.31,91,38,496.3,16,-2.3,D,862,2,8.774,2,1.95,174,114.18,-80.137691,25.91259955,0,0,1,N,1.13418,63,63,11,104,104,113.5009,0,9999.99,3.32,3.447,2,9,29.1,0,29.10000038,44.15,1553.2008,6/9/21,10:32:19,28.81,65.3,44.15,1.299,8.37,-81.8,-3.7,-7.4,-1490,76.9,4.65,12.6,
25.912626,-80.137764,54:45.7,6/9/21,7,2.009,123.64,-7.091561231,1.65,125.9,117.93,1.34,3.16,28.1,0,3.35,3.35,91,38,496.2,16,-2.4,D,853.4,2,7.897,2,1.96,174,112.84,-80.137691,25.91259955,0,0,1,N,1.208866,65,65,11,107,107,112.9782,0,9999.99,3.36,3.487,2,9,29.1,0,29.10000038,44.16,1553.2113,6/9/21,10:32:20,28.8,65.31,44.16,1.308,8.38,-82.2,-3.8,-8,-1235,76.9,4.65,12.6,
25.91262133,-80.13775333,54:46.7,6/9/21,6,2.059,122.57,-7.091561231,1.65,124.6,116.73,0.91,2.24,28.2,0,3.37,3.37,91,38,496.2,16,-2.4,D,853.4,2,6.843,2,1.99,174,111.24,-80.137691,25.91259955,0,0,1,N,1.240368,62,62,11,109,109,112.7578,0,9999.99,3.38,3.507,2,9,29,0,29,44.18,1553.02675,6/9/21,10:32:21,28.78,65.33,44.18,1.332,8.36,-81.4,-4.1,-3.9,-3029,76.9,4.65,12.6,
25.91261656,-80.137743,54:47.7,6/9/21,7,1.99,121.33,-7.091561231,1.65,124.5,116.64,1.17,3.1,28.2,0,3.38,3.38,91,38,496.2,16,-2.4,D,853.4,2,5.534,2,1.99,174,109.99,-80.137691,25.91259955,0,0,1,N,1.114627,64,64,11,115,115,113.5862,0,9999.99,3.39,3.517,2,9,29,0,29,44.2,1553.04781,6/9/21,10:32:22,28.77,65.36,44.2,1.308,8.36,-81.4,-4.6,-6.2,-2509,76.8,4.64,12.6,
25.9126115,-80.13773403,54:48.7,6/9/21,7,2.095,119.32,-7.091561231,1.65,123.5,115.71,0.82,2,28.2,0,3.34,3.34,91,38,496.2,16,-2.4,D,853.4,3,14.036,2,1.97,174,67.84,-80.13760406,25.91265912,0,0,1,N,3.817506,62,62,11,5,5,73.71735,0,9999.99,3.35,3.477,2,9,29,0,29,44.19,1553.03729,6/9/21,10:32:23,28.77,65.35,44.19,1.284,8.36,-81.1,-3.2,-5.1,-3223,76.8,4.64,12.6,
25.91260694,-80.13772548,54:49.7,6/9/21,7,1.919,120.48,-7.091561231,1.65,118.6,111.18,0.71,-3.24,28.1,0,3.43,3.43,91,38,496.2,16,-2.3,D,866.2,3,13.459,2,1.97,174,64.46,-80.13760406,25.91265912,0,0,1,N,2.888201,61,61,11,5,5,69.31501,0,9999.99,3.44,3.567,2,9,29,0,29,44.23,1553.07933,6/9/21,10:32:24,28.76,65.39,44.23,1.315,8.36,-81.4,-5,-4.8,-377,76.8,4.64,12.5,
25.91260343,-80.13771711,54:50.7,6/9/21,7,1.879,117.78,-7.091561231,1.65,110.2,103.41,2.45,3.17,28.2,0,3.46,3.46,91,38,496.2,16,-2.3,D,866.2,3,12.891,2,1.95,174,61.29,-80.13760406,25.91265912,0,0,1,N,2.052145,69,69,11,5,5,63.95226,0,9999.99,3.47,3.597,2,9,29,0,29,44.2,1553.04784,6/9/21,10:32:25,28.75,65.37,44.2,1.28,8.35,-80.8,-3.2,-3.6,-2946,76.8,4.65,12.6,
25.9126015,-80.13770933,54:51.7,6/9/21,7,1.796,112.96,-7.091561231,1.65,100.6,94.49,2.85,1.67,28.3,0.01,3.47,3.48,91,38,496.2,16,-2.3,D,866.2,3,12.123,2,1.92,174,58.53,-80.13760406,25.91265912,0,0,1,N,1.302424,74,74,11,5,5,60.60961,0,9999.99,3.49,3.617,2,9,29,0,29,44.22,1553.06901,6/9/21,10:32:26,28.75,65.39,44.22,1.26,8.37,-82,-4.9,-4.7,-873,76.9,4.65,12.5,
25.9126,-80.13770083,54:52.7,6/9/21,7,1.702,105.68,-7.091561231,1.65,90.8,85.31,2.92,2.41,28.3,0.01,3.45,3.46,91,38,496.2,16,-2.3,D,866.2,3,11.504,2,1.83,174,56.27,-80.13760406,25.91265912,0,0,1,N,0.780434,75,75,11,11,11,57.80228,0,9999.99,3.48,3.607,2,9,29,0,29,44.22,1553.06952,6/9/21,10:32:27,28.75,65.38,44.22,1.243,8.38,-82.1,-3.4,-1.3,-508,76.9,4.65,12.6,
25.91260033,-80.137692,54:53.7,6/9/21,7,1.751,95.81,-7.091561231,1.65,81.7,76.69,2.69,2.93,28.3,0.01,3.49,3.5,91,38,496.2,16,-2.3,D,863.9,3,10.872,2,1.72,174,53.89,-80.13760406,25.91265912,0,0,1,N,0.2684297,73,73,11,39,39,54.61601,0,9999.99,3.52,3.647,2,9,29,0,29,44.21,1553.05902,6/9/21,10:32:28,28.75,65.38,44.21,1.277,8.39,-82.8,-4.2,-2.9,-4108,77,4.65,12.5,
25.91260183,-80.13768333,54:54.7,6/9/21,7,1.785,87.33,-7.091561231,1.65,71.3,66.7,3.09,4.2,28.3,0.01,3.49,3.5,91,38,496.2,16,-2.3,D,863.9,3,10.118,2,1.66,175,51.95,-80.13760406,25.91265912,0,0,1,N,0.1123824,76,76,11,66,66,51.89618,0,9999.99,3.52,3.647,2,9,29,0,29,44.23,1553.07992,6/9/21,10:32:29,28.75,65.4,44.23,1.259,8.37,-81.8,-5.1,-0.4,-4318,77,4.66,12.7,
25.91260515,-80.13767391,54:55.7,6/9/21,7,1.774,79.07,-7.091561231,1.65,65,60.57,2.66,4.89,28.3,0,3.51,3.51,91,38,496.2,16,-2.3,D,863.9,3,9.21,2,1.66,175,49.34,-80.13760406,25.91265912,0,0,1,N,0.4005244,73,73,11,78,78,48.93766,0,9999.99,3.53,3.657,2,9,29,0,29,44.25,1553.10096,6/9/21,10:32:30,28.75,65.43,44.25,1.249,8.37,-81.7,-2.7,-5.5,819,77.1,4.66,12.6,
25.91260938,-80.13766594,54:56.7,6/9/21,7,1.831,69.7,-7.091561231,1.65,61.1,56.75,1.85,5.21,28.4,0,3.49,3.49,91,39,496.2,16,-2.4,D,844.8,3,8.3,2,1.69,176,48.21,-80.13760406,25.91265912,0,0,1,N,0.6038187,68,68,11,92,92,48.10363,0,9999.99,3.51,3.637,2,9,29,0,29,44.24,1553.09026,6/9/21,10:32:31,28.75,65.41,44.24,1.265,8.37,-81.8,-2.8,-0.4,-2879,77.1,4.66,12.7,
25.91261317,-80.137659,54:57.7,6/9/21,7,1.906,62.59,-7.091561231,1.65,59.5,55.17,0.89,3.99,28.4,0,3.47,3.47,91,39,496.2,16,-2.4,D,844.8,3,7.459,2,1.75,176,47.54,-80.13760406,25.91265912,0,0,1,N,0.66885,62,62,11,98,98,47.92168,0,9999.99,3.48,3.607,2,9,29,0,29,44.25,1553.10048,6/9/21,10:32:32,28.75,65.43,44.25,1.28,8.37,-81.6,-5.1,-2.3,-3012,77.2,4.67,12.5,
25.912618,-80.13765117,54:58.7,6/9/21,8,1.951,58.01,-7.091561231,1.34,58.2,53.89,0.94,2.49,28.4,0,3.48,3.48,91,39,496.2,16,-2.4,D,844.8,3,6.592,2,1.87,176,46.06,-80.13760406,25.91265912,0,0,1,N,0.7582833,63,63,11,101,101,47.28664,0,9999.99,3.49,3.617,2,9,29,0,29,44.23,1553.07933,6/9/21,10:32:33,28.75,65.4,44.23,1.304,8.35,-80.6,-3.2,-1.9,-1800,77.2,4.67,12.6,
25.91262382,-80.13764219,54:59.7,6/9/21,8,1.941,55.51,-7.091561231,1.34,57.3,53,1.3,1.4,28.4,0,3.47,3.47,91,39,496.2,16,-2.4,D,844.8,3,5.473,2,1.9,176,44.17,-80.13760406,25.91265912,0,0,1,N,0.8069605,65,65,11,103,103,46.91896,0,9999.99,3.48,3.607,2,9,29,0,29,44.25,1553.10037,6/9/21,10:32:34,28.75,65.43,44.25,1.309,8.38,-82.3,-3.7,-5.4,-1043,77.3,4.67,12.6,
25.91262935,-80.13763416,55:00.7,6/9/21,8,2.06,52.62,-7.091561231,1.34,56.7,52.41,0.87,3.06,28.4,0,3.44,3.44,91,40,496.1,16,-2.5,D,820.9,3,4.475,2,1.95,176,42.28,-80.13760406,25.91265912,0,0,1,N,0.8339354,62,62,11,105,105,46.93091,0,9999.99,3.45,3.577,2,9,29,0,29,44.24,1553.08985,6/9/21,10:32:35,28.75,65.41,44.24,1.295,8.38,-82.6,-3.8,-4,-2236,77.4,4.68,12.6,
25.912635,-80.13762767,55:01.7,6/9/21,8,1.985,49.6,-7.091561231,1.34,55.8,51.52,0.58,-1.73,28.4,0,3.42,3.42,91,40,496.1,16,-2.5,D,820.9,4,13.832,2,1.98,176,15.06,-80.13759088,25.91275442,0,0,1,N,1.997569,60,60,11,5,5,18.25546,0,9999.99,3.43,3.557,2,9,29,0,29,44.27,1553.12142,6/9/21,10:32:36,28.76,65.45,44.27,1.317,8.4,-83.3,-3.9,-4.8,-2420,77.5,4.69,12.5,
25.91264067,-80.1376195,55:02.7,6/9/21,8,1.983,50.42,-7.091561231,1.34,49.3,45.05,1.22,4.53,28.3,0,3.38,3.38,91,40,496.1,16,-2.5,D,820.9,4,12.921,2,2.02,176,12.93,-80.13759088,25.91275442,0,0,1,N,1.395521,63,63,11,5,5,15.46335,0,9999.99,3.39,3.517,2,9,29,0,29,44.25,1553.10037,6/9/21,10:32:37,28.77,65.43,44.25,1.32,8.38,-82.1,-4.7,-2.7,-1392,77.6,4.69,12.7,
25.91264683,-80.13761217,55:03.7,6/9/21,8,1.895,47.08,-7.091561231,1.34,43,38.74,2.35,0.17,28.3,0,3.34,3.34,91,42,496.1,16,-2.6,D,790.1,4,12.063,2,2.02,176,10.4,-80.13759088,25.91275442,0,0,1,N,0.7651615,70,70,11,14,14,11.62062,0,9999.99,3.35,3.477,2,9,29,0,29,44.29,1553.14248,6/9/21,10:32:38,28.78,65.48,44.29,1.293,8.37,-82,-4.4,-1.1,-4124,77.7,4.69,12.7,
25.91265367,-80.13760617,55:04.7,6/9/21,8,1.84,42.58,-7.091561231,1.33,33.7,29.34,3.01,4.21,28.4,0.01,3.26,3.26,91,42,496.1,16,-2.6,D,790.1,4,11.223,2,1.99,176,8.06,-80.13759088,25.91275442,0,0,1,N,0.2298877,75,75,11,44,44,8.598123,0,9999.99,3.28,3.407,2,9,29,0,29,44.21,1553.05886,6/9/21,10:32:39,28.79,65.38,44.21,1.264,8.38,-82.2,-3.6,-1.5,-745,77.8,4.7,12.7,
25.91266193,-80.13760101,55:05.7,6/9/21,8,1.833,37.97,-7.091561231,1.33,22.9,18.34,3.16,5.93,28.4,0.01,3.2,3.21,91,42,496.1,16,-2.6,D,790.1,4,10.334,2,1.93,176,5.63,-80.13759088,25.91275442,0,0,1,N,0.1356672,76,76,11,75,75,5.346811,0,9999.99,3.23,3.357,2,9,29,0,29,44.22,1553.06965,6/9/21,10:32:40,28.79,65.39,44.22,1.243,8.37,-81.8,-3.7,-3.3,-2115,77.8,4.7,12.4,
25.91267007,-80.13759792,55:06.7,6/9/21,8,1.799,24.32,-7.091561231,1.33,16.9,12.21,2.72,8.1,28.4,0.01,3.17,3.18,91,42,496.1,16,-2.6,D,790.1,4,9.406,2,1.88,176,4.29,-80.13759088,25.91275442,0,0,1,N,0.3678824,75,75,11,94,94,3.881416,0,9999.99,3.2,3.327,2,9,29,0,29,44.26,1553.11175,6/9/21,10:32:41,28.79,65.43,44.26,1.261,8.36,-81.2,-3,-4.4,-1862,77.9,4.71,12.6,
25.9126784,-80.13759615,55:07.7,6/9/21,8,1.825,16.32,-7.091561231,1.33,12.8,8.01,1.88,3.17,28.3,0,3.15,3.15,91,40,496.1,16,-2.5,D,821.1,4,8.469,2,1.87,176,3.57,-80.13759088,25.91275442,0,0,1,N,0.5161959,68,68,11,109,109,3.394526,0,9999.99,3.17,3.297,2,9,29,0,29,44.24,1553.09016,6/9/21,10:32:42,28.79,65.41,44.24,1.25,8.38,-82.6,-3.9,-4.1,-3802,78,4.72,12.6,
25.9126871,-80.13759487,55:08.7,6/9/21,8,1.992,7.94,-7.091561231,1.33,11.4,6.58,0.65,5.08,28.3,0,3.08,3.08,91,40,496.1,16,-2.5,D,821.1,4,7.496,2,1.87,176,3.05,-80.13759088,25.91275442,0,0,1,N,0.5266042,61,61,11,114,114,3.315234,0,9999.99,3.09,3.217,2,9,29,0,29,44.23,1553.07936,6/9/21,10:32:43,28.79,65.4,44.23,1.275,8.39,-82.9,-4.7,-1.6,-669,78.2,4.72,12.6,
25.91269626,-80.1375938,55:09.7,6/9/21,8,1.956,6.84,-7.091561231,1.33,13.7,8.93,2.26,2.07,28.3,0,3.01,3.01,91,40,496.1,16,-2.5,D,821.1,4,6.474,2,1.9,176,2.59,-80.13759088,25.91275442,0,0,1,N,0.5624304,71,71,11,105,105,3.487692,0,9999.99,3.02,3.147,2,9,29,0,29,44.22,1553.06885,6/9/21,10:32:44,28.79,65.39,44.22,1.32,8.38,-82.4,-3.5,-4.9,-2139,78.3,4.73,12.4,
25.91270528,-80.13759321,55:10.7,6/9/21,8,2.002,4.03,-7.091561231,1.33,10.2,5.35,0.5,5.5,28.3,0,2.94,2.94,91,40,496.1,16,-2.5,D,818.5,4,5.469,2,1.93,176,2.44,-80.13759088,25.91275442,0,0,1,N,0.5083463,60,60,11,121,121,3.89782,0,9999.99,2.95,3.077,2,9,29,0,29,44.22,1553.06891,6/9/21,10:32:45,28.79,65.39,44.22,1.258,8.38,-82.2,-3.7,0.3,-981,78.3,4.73,12.6,
25.91271432,-80.13759214,55:11.7,6/9/21,8,2.051,3.2,-7.091561231,1.33,13.5,8.73,1.72,3.11,28.3,0,2.84,2.84,91,40,496.1,16,-2.5,D,818.5,5,13.267,2,1.99,176,322.69,-80.13767255,25.91280922,0,0,1,N,3.741703,67,67,11,5,5,327.9911,0,9999.99,2.84,2.967,2,9,29,0,29,44.23,1553.07934,6/9/21,10:32:46,28.79,65.4,44.23,1.344,8.38,-82.1,-3.3,-1.2,-2768,78.4,4.74,12.7,
25.91272368,-80.13759155,55:12.7,6/9/21,8,2.042,2.57,-7.091561231,1.33,8.3,3.41,0.47,-2.6,28.3,0,2.66,2.66,91,40,496.1,16,-2.5,D,818.5,5,12.494,2,1.99,176,319.58,-80.13767255,25.91280922,0,0,1,N,2.869496,60,60,11,5,5,322.3965,0,9999.99,2.67,2.797,2,9,29,0,29,44.24,1553.0899,6/9/21,10:32:47,28.79,65.41,44.24,1.255,8.38,-82.4,-3.5,0.2,-4060,78.5,4.74,12.6,
25.91273416,-80.13759194,55:13.7,6/9/21,7,1.971,0.23,-7.091561231,1.33,1.7,356.65,2.22,5.45,28.3,0,2.35,2.35,91,40,496.1,16,-2.5,D,818.5,5,11.605,2,2,176,315.99,-80.13767255,25.91280922,0,0,1,N,1.968573,70,70,11,5,5,318.4458,0,9999.99,2.35,2.477,2,9,29,0,29,44.25,1553.10042,6/9/21,10:32:48,28.79,65.43,44.25,1.327,8.38,-82.2,-4.3,-4.7,-1906,78.6,4.75,12.6,
25.91274125,-80.13759278,55:14.7,6/9/21,7,1.799,357.97,-7.091561231,1.33,351,345.72,2.84,-0.69,28.3,0,2.07,2.07,91,41,496,16,-2.5,D,800,5,10.99,2,1.92,176,313.45,-80.13767255,25.91280922,0,0,1,N,1.249815,74,74,11,6,6,315.371,0,9999.99,2.09,2.217,2,9,29,0,29,44.25,1553.10075,6/9/21,10:32:49,28.78,65.43,44.25,1.267,8.37,-81.8,-4.4,-0.3,-880,78.6,4.75,12.6,
25.91274889,-80.13759474,55:15.7,6/9/21,7,1.729,353.89,-7.091561231,1.33,340,334.52,3.36,6.26,28.4,0.01,1.78,1.79,91,41,496,16,-2.5,D,800,5,10.275,2,1.88,176,310.76,-80.13767255,25.91280922,0,0,1,N,0.8433189,77,77,11,29,29,312.9987,0,9999.99,1.81,1.937,2,9,29,0,29,44.26,1553.11161,6/9/21,10:32:50,28.78,65.43,44.26,1.274,8.36,-81.2,-2.6,-7,-3778,78.7,4.76,12.6,
25.91275589,-80.13759601,55:16.8,6/9/21,7,1.293,353.89,-7.091561231,1.33,328.7,323.05,3.93,4.34,28.4,0.01,1.69,1.7,91,41,496,16,-2.5,D,800,5,9.683,2,1.82,176,307.76,-80.13767255,25.91280922,0,0,1,N,0.2097626,81,81,11,68,68,308.2252,0,9999.99,1.72,1.847,2,9,29,0,29,44.28,1553.13271,6/9/21,10:32:51,28.78,65.47,44.28,1.221,8.39,-82.8,-4,-2.1,-3185,78.8,4.76,12.6,
25.9127627,-80.13760286,55:17.8,6/9/21,7,1.672,336.73,-7.091561231,1.33,321.6,315.87,2.31,7.76,28.4,0.01,1.59,1.59,91,40,496,16,-2.5,D,818,5,8.68,2,1.78,177,306.58,-80.13767255,25.91280922,0,0,1,N,1.50E-04,73,73,11,88,88,306.7239,0,9999.99,1.62,1.747,2,9,29,0,29,44.29,1553.14344,6/9/21,10:32:52,28.8,65.48,44.29,1.271,8.39,-82.9,-3.7,-2.7,-1646,78.8,4.76,12.5,
25.91276782,-80.1376097,55:18.8,6/9/21,7,1.793,319.57,-7.091561231,1.33,314.7,308.89,2.27,6.49,28.4,0,1.57,1.57,91,40,496,16,-2.5,D,818,5,7.791,2,1.78,177,306.22,-80.13767255,25.91280922,0,0,1,N,6.37E-02,71,71,11,116,116,306.2668,0,9999.99,1.59,1.717,2,9,29,0,29,44.27,1553.12171,6/9/21,10:32:53,28.81,65.45,44.27,1.261,8.39,-83,-3.2,-2.9,-3649,78.9,4.77,12.6,
25.91277261,-80.13761693,55:19.8,6/9/21,7,1.867,312.28,-7.091561231,1.33,314.1,308.29,0.89,5.72,28.5,0,1.58,1.58,91,40,496,16,-2.5,D,818,5,6.893,2,1.79,177,306.2,-80.13767255,25.91280922,0,0,1,N,0.0614428,62,62,11,119,119,306.2827,0,9999.99,1.6,1.727,2,9,29,0,29,44.21,1553.05842,6/9/21,10:32:54,28.82,65.37,44.21,1.258,8.39,-83.3,-4.8,-4.6,-3700,79,4.77,12.6,
25.91277799,-80.13762462,55:20.8,6/9/21,7,2.086,308.61,-7.091561231,1.33,314.1,308.29,1.06,1.2,28.4,0,1.59,1.59,91,40,496,16,-2.5,D,818,5,5.92,2,1.87,177,305.92,-80.13767255,25.91280922,0,0,1,N,6.93E-02,63,63,11,118,118,306.1396,0,9999.99,1.59,1.717,2,9,29,0,29,44.24,1553.08985,6/9/21,10:32:55,28.81,65.42,44.24,1.296,8.39,-83.2,-3.2,-1.6,-2436,79.1,4.78,12.6,
25.91278357,-80.13763278,55:21.8,6/9/21,7,1.999,307,-7.091561231,1.33,317,311.22,2.13,2.46,28.5,0,1.79,1.79,91,40,496,16,-2.5,D,811.2,5,4.894,2,1.95,177,305.64,-80.13767255,25.91280922,0,0,1,N,0.1218632,70,70,11,111,111,306.1266,0,9999.99,1.81,1.937,2,9,29,0,29,44.26,1553.11091,6/9/21,10:32:56,28.8,65.45,44.26,1.302,8.39,-82.9,-2.8,-3.7,-1964,79.3,4.79,12.6,
25.912791,-80.13764092,55:22.8,6/9/21,7,2.127,310.94,-7.091561231,1.33,318.3,312.53,1.41,-1.09,28.5,0,2,2,91,40,496,16,-2.5,D,811.2,6,20.904,2,1.93,177,259.52,-80.13784643,25.9127568,0,0,1,N,3.021089,65,65,11,5,5,267.3057,0,9999.99,2.02,2.147,2,9,29,0,29,44.29,1553.1425,6/9/21,10:32:57,28.8,65.48,44.29,1.25,8.39,-82.9,-3.9,-2.7,-3261,79.3,4.79,12.6,
25.91279902,-80.13764809,55:23.8,6/9/21,7,2.127,317.07,-7.091561231,1.33,311.3,305.46,0.92,1.97,28.4,0,2.19,2.19,91,40,496,16,-2.5,D,811.2,6,20.385,2,2.03,177,256.69,-80.13784643,25.9127568,0,0,1,N,1.960827,63,63,11,5,5,262.3055,0,9999.99,2.2,2.327,2,9,29,0,29,44.28,1553.13198,6/9/21,10:32:58,28.8,65.46,44.28,1.266,8.39,-82.9,-2.5,-2.5,-477,79.4,4.8,12.6,
25.91280438,-80.13765634,55:24.8,6/9/21,7,2.017,312.37,-7.091561231,1.33,298.6,292.6,2.65,6.43,28.5,0,2.38,2.38,91,40,496,16,-2.5,D,811.2,6,19.734,2,2.04,177,254.45,-80.13784643,25.9127568,0,0,1,N,1.12749,73,73,11,5,5,258.1464,0,9999.99,2.39,2.517,2,9,29,0,29,44.24,1553.08991,6/9/21,10:32:59,28.81,65.42,44.24,1.307,8.39,-83,-3.6,-0.1,-2488,79.5,4.8,12.5,
25.91281078,-80.13766516,55:25.8,6/9/21,7,2.228,312.49,-7.091561231,1.33,283.1,276.82,4.53,1.99,28.5,0.01,2.66,2.67,91,43,496,16,-2.6,D,769.4,6,19.097,2,1.98,177,251.68,-80.13784643,25.9127568,0,0,1,N,0.1243113,83,83,11,21,21,252.2658,0,9999.99,2.69,2.817,2,9,29,0,29,44.33,1553.18507,6/9/21,10:33:00,28.81,65.53,44.33,1.238,8.38,-82.4,-2.4,-2.1,-3517,79.6,4.81,12.4,
25.91281671,-80.13767295,55:26.8,6/9/21,7,2.173,312.09,-7.091561231,1.5,271.7,265.11,4.04,4.75,28.5,0.01,2.79,2.8,91,43,496,16,-2.6,D,769.4,6,18.586,2,1.89,177,249,-80.13784643,25.9127568,0,0,1,N,0.7768307,81,81,11,51,51,246.1728,0,9999.99,2.83,2.957,2,9,29,0,29,44.31,1553.16478,6/9/21,10:33:01,28.94,65.51,44.31,1.233,8.37,-81.7,-2.8,2.6,-2582,79.6,4.8,12.7,
25.91281438,-80.13768082,55:27.8,6/9/21,6,1.78,293.99,-7.091561231,1.5,263.2,256.31,3.41,7.2,28.5,0.01,2.93,2.94,91,43,496,16,-2.6,D,769.4,6,17.758,2,1.85,177,248.87,-80.13784643,25.9127568,0,0,1,N,0.7952513,77,77,11,85,85,245.7894,0,9999.99,2.96,3.087,2,9,29,0,29,44.24,1553.09115,6/9/21,10:33:02,29.02,65.43,44.24,1.245,8.39,-82.8,-3,-5.1,-4020,79.7,4.8,12.6,
25.91281257,-80.13769,55:28.8,6/9/21,7,1.801,272.04,-7.091561231,1.33,254.8,247.56,1.71,9.6,28.5,0,3.02,3.03,91,41,495.9,16,-2.5,D,806.6,6,16.83,2,1.81,178,248.38,-80.13784643,25.9127568,0,0,1,N,0.9139454,67,67,11,117,117,244.9525,0,9999.99,3.05,3.177,2,9,29,0,29,44.29,1553.14286,6/9/21,10:33:03,29.06,65.5,44.29,1.255,8.39,-83.1,-2.6,-4.1,-1808,79.8,4.8,12.6,
25.9128076,-80.13769755,55:29.8,6/9/21,7,1.55,254.61,-7.091561231,1.33,253.5,246.2,1.07,6.22,28.6,0,3.1,3.1,91,41,495.9,16,-2.5,D,806.6,6,15.926,2,1.82,178,249.22,-80.13784643,25.9127568,0,0,1,N,0.6327286,64,64,11,130,130,246.9486,0,9999.99,3.12,3.247,2,9,29,0,29,44.3,1553.15302,6/9/21,10:33:04,29.13,65.51,44.3,1.267,8.38,-82.5,-2.7,-1.9,-3484,79.8,4.79,12.4,
25.91280211,-80.13770684,55:30.8,6/9/21,7,1.97,244.14,-7.091561231,1.33,253.4,246.1,0.92,4.62,28.6,0,3.13,3.13,91,41,495.9,16,-2.5,D,806.6,6,14.843,2,1.87,178,250.16,-80.13784643,25.9127568,0,0,1,N,0.3519186,63,63,11,138,138,248.9516,0,9999.99,3.14,3.267,2,9,29,0,29,44.29,1553.14247,6/9/21,10:33:05,29.22,65.49,44.29,1.3,8.39,-83.1,-3,-8,-5193,79.8,4.79,12.6,
25.91279769,-80.13771677,55:31.9,6/9/21,6,1.973,244.97,-7.091561231,1.33,254,246.73,0.97,5.42,28.6,0,3.14,3.14,91,41,495.9,16,-2.5,D,806.6,6,13.742,2,1.94,178,250.68,-80.13784643,25.9127568,0,0,1,N,0.1995199,63,63,11,140,140,250.0418,0,9999.99,3.15,3.277,2,9,29,0,29,44.18,1553.0267,6/9/21,10:33:07,29.29,65.36,44.18,1.283,8.4,-83.7,-1.1,-6.7,-2165,80,4.8,12.5,
25.91279367,-80.13772468,55:32.9,6/9/21,6,1.902,245.13,-7.091561231,1.33,255.8,248.61,0.27,3.18,28.5,0,3.24,3.24,91,42,495.9,16,-2.6,D,788.4,6,12.849,2,1.96,178,251.39,-80.13784643,25.9127568,0,0,1,N,2.27E-02,59,59,11,138,138,251.3076,0,9999.99,3.25,3.377,2,9,29,0,29,44.18,1553.0267,6/9/21,10:33:07,29.29,65.36,44.18,1.283,8.4,-83.7,-1.1,-6.7,-2165,80,4.8,12.5,
25.91278975,-80.13773565,55:33.9,6/9/21,6,2.113,247.25,-7.091561231,1.33,256.7,249.55,0.97,4.66,28.6,0,3.23,3.23,91,42,495.9,16,-2.6,D,788.4,6,11.669,2,2,178,251.7,-80.13784643,25.9127568,0,0,1,N,4.26E-02,63,63,11,136,136,251.7755,0,9999.99,3.24,3.367,2,9,29,0,29,44.17,1553.01619,6/9/21,10:33:08,29.31,65.35,44.17,1.327,8.4,-83.9,-2.3,-2.8,-3249,79.9,4.79,12.5,
25.91278642,-80.13774566,55:34.9,6/9/21,6,2.037,248.43,-7.091561231,1.33,258.9,251.84,0.31,3.88,28.6,0,3.25,3.25,91,42,495.9,16,-2.6,D,788.4,6,10.604,2,2,178,251.9,-80.13784643,25.9127568,0,0,1,N,8.16E-02,59,59,11,128,128,252.0551,0,9999.99,3.26,3.387,2,9,29,0,29,44.12,1552.96359,6/9/21,10:33:10,29.3,65.29,44.12,1.317,8.4,-83.5,-2.8,-0.8,-2872,79.9,4.79,12.7,
25.91278368,-80.13775557,55:35.9,6/9/21,6,1.959,251.8,-7.091561231,1.33,259.2,252.15,0.99,7.15,28.6,0,3.29,3.29,91,41,495.9,16,-2.6,D,791.1,6,9.566,2,2.05,178,251.79,-80.13784643,25.9127568,0,0,1,N,5.27E-02,63,63,11,126,126,251.848,0,9999.99,3.29,3.417,2,9,29.1,0,29,44.12,1552.96359,6/9/21,10:33:10,29.3,65.29,44.12,1.317,8.4,-83.5,-2.8,-0.8,-2872,79.9,4.79,12.7,
25.9127813,-80.13776462,55:36.9,6/9/21,6,2.068,252.82,-7.091561231,1.33,260.6,253.61,0.45,2.49,28.6,0,3.33,3.33,91,41,495.9,16,-2.6,D,791.1,6,8.624,2,2.03,178,251.59,-80.13784643,25.9127568,0,0,1,N,2.14E-02,60,60,11,119,119,251.6234,0,9999.99,3.34,3.467,2,9,29.1,0,29.10000038,44.15,1553.20075,6/9/21,10:33:11,29.3,65.32,44.15,1.281,8.4,-83.6,-3.4,-0.5,-1393,79.9,4.79,12.6,
25.9127788,-80.1377741,55:37.9,6/9/21,6,1.989,254.42,-7.091561231,1.33,260.6,253.61,0.28,5.43,28.6,0,3.36,3.36,91,41,495.9,16,-2.6,D,791.1,6,7.636,2,2.02,178,251.32,-80.13784643,25.9127568,0,0,1,N,1.64E-02,59,59,11,117,117,251.3531,0,9999.99,3.36,3.487,2,9,29.1,0,29.10000038,44.16,1553.21127,6/9/21,10:33:13,29.3,65.34,44.16,1.329,8.4,-83.5,-3.7,-1.7,-4389,79.8,4.79,12.6,
25.91277595,-80.13778318,55:38.9,6/9/21,6,2.175,253.36,-7.091561231,1.33,261.1,254.13,0.24,2.14,28.6,0,3.43,3.43,91,41,495.9,16,-2.6,D,791.1,6,6.675,2,2.05,178,251.4,-80.13784643,25.9127568,0,0,1,N,5.93E-03,58,58,11,117,117,251.428,0,9999.99,3.43,3.557,2,9,29.1,0,29.10000038,44.16,1553.21127,6/9/21,10:33:13,29.3,65.34,44.16,1.329,8.4,-83.5,-3.7,-1.7,-4389,79.8,4.79,12.6,
25.9127732,-80.13779325,55:39.9,6/9/21,6,2.114,254.02,-7.091561231,1.33,260.6,253.61,0.8,5.76,28.6,0,3.46,3.46,91,42,495.8,16,-2.6,D,785,7,5.623,2,2.01,174,251.08,-80.13784643,25.9127568,0,0,6,N,1.85E-03,62,62,11,116,116,251.0734,0,9999.99,3.46,3.587,2,9,29.1,0,29.10000038,44.13,1553.17989,6/9/21,10:33:14,29.29,65.3,44.13,1.303,8.39,-83,-3.1,-3.1,-3098,79.8,4.79,12.6,
25.91277,-80.13780389,55:40.9,6/9/21,6,2.055,252.85,-7.091561231,1.33,259.8,252.78,0.03,2.58,28.6,0,3.46,3.46,91,42,495.8,16,-2.6,D,785,7,4.501,2,2.03,128,250.96,-80.13784643,25.9127568,0,0,6,N,1.85E-03,59,59,11,118,118,250.9501,0,9999.99,3.47,3.597,2,9,29.1,0,29.10000038,44.15,1553.20084,6/9/21,10:33:16,29.29,65.33,44.15,1.292,8.41,-84.1,-2.3,-5.5,-3375,79.8,4.78,12.4,
25.91276751,-80.13781276,55:41.9,6/9/21,6,1.792,252.69,-7.091561231,1.33,259.9,252.88,0.91,-4.12,28.6,0,3.41,3.41,91,42,495.8,16,-2.6,D,785,7,3.571,2,2.04,128,250.52,-80.13784643,25.9127568,0,0,6,N,1.85E-03,60,60,11,116,116,250.5501,0,9999.99,3.41,3.537,2,9,29.1,0,29.10000038,44.15,1553.20084,6/9/21,10:33:16,29.29,65.33,44.15,1.292,8.41,-84.1,-2.3,-5.5,-3375,79.8,4.78,12.4,
25.91276536,-80.13782139,55:42.9,6/9/21,6,1.644,254.4,-7.091561231,1.33,259.4,252.36,1.79,-1.02,28.6,0,3.28,3.28,91,22,495.8,16.1,-1.3,D,1486.8,7,2.68,2,1.92,128,249.18,-80.13784643,25.9127568,0,0,6,N,1.85E-03,68,68,11,114,114,249.2117,0,9999.99,3.29,3.417,2,9,29.1,0,29.10000038,44.14,1553.19043,6/9/21,10:33:17,29.29,65.3,44.14,1.275,8.42,-84.7,-2.8,-1,-2146,79.7,4.78,12.6,
25.9127639,-80.13782603,55:43.9,6/9/21,7,1.314,252.8,-7.091561231,1.33,257.7,250.59,1.82,-1.62,28.6,0.01,3.37,3.38,91,22,495.8,16.1,-1.3,D,1486.8,7,2.19,2,1.71,128,248.86,-80.13784643,25.9127568,0,0,6,N,1.85E-03,68,68,11,119,119,248.8483,0,9999.99,3.39,3.517,2,9,29.1,0,29.10000038,44.15,1553.20168,6/9/21,10:33:19,29.28,65.32,44.15,1.236,8.4,-83.8,-2.3,2,-5199,79.7,4.78,12.6,
25.91276255,-80.13783127,55:45.0,6/9/21,7,1.191,252.89,-7.091561231,1.33,256.4,249.23,1.6,-0.68,28.6,0.01,3.24,3.25,91,22,495.8,16.1,-1.3,D,1486.8,7,1.644,2,1.51,128,247.13,-80.13784643,25.9127568,0,0,6,N,1.85E-03,67,67,11,118,118,247.0901,0,9999.99,3.26,3.387,2,9,29.1,0,29.10000038,44.15,1553.20168,6/9/21,10:33:19,29.28,65.32,44.15,1.236,8.4,-83.8,-2.3,2,-5199,79.7,4.78,12.6,
25.91276118,-80.1378364,55:45.9,6/9/21,7,1.027,253.79,-7.091561231,1.33,255.7,248.5,0.9,-1.64,28.7,0,3.1,3.1,91,22,495.8,16.1,-1.3,D,1486.8,7,1.115,2,1.34,128,244.12,-80.13784643,25.9127568,0,0,6,N,1.85E-03,62,62,11,110,110,244.2439,0,9999.99,3.11,3.237,2,9,29.1,0,29.10000038,44.15,1553.20102,6/9/21,10:33:20,29.28,65.32,44.15,1.215,8.4,-84,-2.7,-1.9,-959,79.7,4.78,12.6,
25.91276015,-80.13784001,55:47.0,6/9/21,7,0.822,253.56,-7.091561231,1.33,256.3,249.13,1.17,-2.75,28.6,0,2.95,2.95,91,22,495.8,16.1,-1.3,D,1503,7,0.748,2,1.18,128,239.93,-80.13784643,25.9127568,0,0,6,N,1.85E-03,64,64,11,93,93,240.5437,0,9999.99,2.96,3.087,2,9,29.1,0,29.10000038,44.06,1553.10616,6/9/21,10:33:22,29.24,65.2,44.06,1.238,8.39,-83.2,-3,-1.5,320,79.6,4.78,12.6,
25.91275869,-80.13784314,55:47.9,6/9/21,8,0.814,253.56,-7.091561231,1.33,256.5,249.34,1.18,-0.14,28.6,0,2.87,2.87,91,22,495.8,16.1,-1.3,D,1503,7,0.403,2,1.06,128,237.4,-80.13784643,25.9127568,0,0,6,N,1.85E-03,64,64,11,83,83,238.5539,0,9999.99,2.88,3.007,2,9,29.1,0,29.10000038,44.06,1553.10616,6/9/21,10:33:22,29.24,65.2,44.06,1.238,8.39,-83.2,-3,-1.5,320,79.6,4.78,12.6,
25.91275708,-80.1378458,55:49.0,6/9/21,8,0.716,253.56,-7.091561231,1.33,255.9,248.71,1.23,-1.89,28.7,0,2.77,2.77,91,22,495.8,16.1,-1.3,D,1503,7,0.095,2,0.95,128,243.49,-80.13784643,25.9127568,0,0,6,N,1.85E-03,64,64,11,109,109,244.5526,0,9999.99,2.78,2.907,2,9,29.2,0,29.20000076,44.09,1553.34293,6/9/21,10:33:23,29.21,65.24,44.09,1.22,8.39,-83.3,-3.6,-0.8,-2978,79.5,4.77,12.6,
25.91275586,-80.13784904,55:50.0,6/9/21,8,0.697,253.56,-7.091561231,1.33,253.3,245.99,0.81,8.1,28.6,0,2.71,2.71,91,23,495.7,16.1,-1.4,D,1432,7,0.285,2,0.88,128,68.14,-80.13784643,25.9127568,0,0,6,N,1.85E-03,62,62,11,5,5,69.50191,0,9999.99,2.72,2.847,2,9,29.1,0,29.10000038,44.15,1553.20076,6/9/21,10:33:25,29.18,65.31,44.15,1.221,8.4,-83.8,-3.8,-2.5,-221,79.3,4.77,12.6,
25.9127552,-80.13785258,55:51.0,6/9/21,8,0.637,253.56,-7.091561231,1.33,251.3,243.9,0.59,9.5,28.6,0,2.69,2.69,91,23,495.7,16.1,-1.4,D,1432,7,0.644,2,0.81,128,73.85,-80.13784643,25.9127568,0,0,6,N,1.85E-03,61,61,11,5,5,74.86745,0,9999.99,2.7,2.827,2,9,29.1,0,29.10000038,44.15,1553.20076,6/9/21,10:33:25,29.18,65.31,44.15,1.221,8.4,-83.8,-3.8,-2.5,-221,79.3,4.77,12.6,
25.91275489,-80.13785494,55:52.0,6/9/21,8,0.561,253.56,-7.091561231,1.33,247.6,240.02,0.59,10.2,28.7,0,2.7,2.7,91,23,495.7,16.1,-1.4,D,1432,7,0.875,2,0.74,128,76,-80.13784643,25.9127568,0,0,6,N,1.85E-03,61,61,11,5,5,76.87936,0,9999.99,2.71,2.837,2,9,29.1,0,29.10000038,44.15,1553.20075,6/9/21,10:33:26,29.18,65.31,44.15,1.222,8.41,-84.5,-3.8,0.3,-1739,79.3,4.77,12.6,
25.91275498,-80.13785708,55:53.0,6/9/21,8,0.446,253.56,-7.091561231,1.33,243.7,235.93,0.59,8.4,28.7,0,2.68,2.68,91,23,495.7,16.1,-1.4,D,1432,7,1.087,2,0.65,128,79.26,-80.13784643,25.9127568,0,0,6,N,1.85E-03,61,61,11,5,5,79.9772,0,9999.99,2.69,2.817,2,9,29.2,0,29.20000076,44.13,1553.38472,6/9/21,10:33:28,29.18,65.29,44.13,1.225,8.39,-83.3,-3.4,-4.4,-1973,79.2,4.76,12.4,
25.91275654,-80.1378585,55:54.0,6/9/21,8,0.405,253.56,-7.091561231,1.33,240.2,232.24,0.83,4.35,28.7,0,2.63,2.64,91,22,495.7,16.1,-1.3,D,1507.2,7,1.208,2,0.5,128,88.61,-80.13784643,25.9127568,0,0,6,N,1.85E-03,61,61,11,5,5,89.21304,0,9999.99,2.64,2.767,2,9,29.2,0,29.20000076,44.13,1553.38472,6/9/21,10:33:28,29.18,65.29,44.13,1.225,8.39,-83.3,-3.4,-4.4,-1973,79.2,4.76,12.4,
25.91275832,-80.13785858,55:55.0,6/9/21,8,0.263,253.56,-7.091561231,1.33,239.7,231.72,1.14,0.65,28.7,0,2.6,2.6,91,22,495.7,16.1,-1.3,D,1507.2,7,1.227,2,0.33,128,97.91,-80.13784643,25.9127568,0,0,6,N,1.85E-03,64,64,11,5,5,98.24506,0,9999.99,2.61,2.737,2,9,29.2,0,29.20000076,44.07,1553.32172,6/9/21,10:33:29,29.17,65.21,44.07,1.226,8.42,-84.9,-1.7,-3.8,-1403,79.1,4.76,12.6,
25.91275956,-80.13785847,55:56.0,6/9/21,8,0.193,253.56,-7.091561231,1.33,237.1,228.98,0.97,-2.57,28.8,0,2.6,2.6,91,22,495.7,16.1,-1.3,D,1507.2,7,1.245,2,0.21,128,104.3,-80.13784643,25.9127568,0,0,6,N,1.85E-03,63,63,11,5,5,104.3687,0,9999.99,2.61,2.737,2,9,29.1,0,29.10000038,44.14,1553.19056,6/9/21,10:33:31,29.12,65.3,44.14,1.28,8.39,-83.2,-4.1,-1.8,-3154,79,4.75,12.6,
25.91276069,-80.13785879,55:57.0,6/9/21,8,0.218,253.56,-7.091561231,1.33,237.9,229.82,1.58,-2.4,28.7,0.01,2.61,2.62,91,22,495.7,16.1,-1.3,D,1502.8,7,1.309,2,0.16,128,109.28,-80.13784643,25.9127568,0,0,6,N,1.85E-03,66,66,11,5,5,109.1664,0,9999.99,2.62,2.747,2,9,29.2,0,29.10000038,44.14,1553.19056,6/9/21,10:33:31,29.12,65.3,44.14,1.28,8.39,-83.2,-4.1,-1.8,-3154,79,4.75,12.6,
25.91276174,-80.13785885,55:58.0,6/9/21,8,0.175,253.56,-7.091561231,1.33,238.7,230.67,1.43,-1.79,28.8,0,2.59,2.59,91,22,495.7,16.1,-1.3,D,1502.8,7,1.359,2,0.14,128,113.88,-80.13784643,25.9127568,0,0,6,N,1.85E-03,66,66,11,5,5,113.6884,0,9999.99,2.6,2.727,2,9,29.2,0,29.20000076,44.16,1553.41666,6/9/21,10:33:32,29.11,65.33,44.16,1.205,8.39,-83.1,-2.6,0.3,-1076,78.9,4.75,12.5,
25.91276177,-80.13785861,55:59.0,6/9/21,8,0.083,253.56,-7.091561231,1.33,239,230.98,1.35,-4.35,28.8,0,2.63,2.63,91,22,495.7,16.1,-1.3,D,1502.8,7,1.339,2,0.14,128,114.38,-80.13784643,25.9127568,0,0,6,N,1.85E-03,65,65,11,5,5,114.1445,0,9999.99,2.64,2.767,2,9,29.2,0,29.10000038,44.19,1553.24302,6/9/21,10:33:34,29.11,65.36,44.19,1.213,8.39,-83.3,-4.1,-0.1,-949,78.8,4.74,12.6,
25.91276253,-80.13785854,56:00.0,6/9/21,8,0.148,253.56,-7.091561231,1.33,240.2,232.24,1.05,-3.62,28.7,0,2.62,2.62,91,22,495.7,16.1,-1.3,D,1502.8,7,1.369,2,0.13,128,117.76,-80.13784643,25.9127568,0,0,6,N,1.85E-03,63,63,11,5,5,117.5247,0,9999.99,2.63,2.757,2,9,29.2,0,29.10000038,44.19,1553.24302,6/9/21,10:33:34,29.11,65.36,44.19,1.213,8.39,-83.3,-4.1,-0.1,-949,78.8,4.74,12.6,
25.9127629,-80.13785852,56:01.0,6/9/21,8,0.082,253.56,-7.091561231,1.33,240.3,232.35,1.37,-1.7,28.8,0,2.63,2.63,91,21,495.7,16.1,-1.3,D,1518.2,7,1.386,2,0.11,128,119.29,-80.13784643,25.9127568,0,0,6,N,1.85E-03,65,65,11,5,5,119.0684,0,9999.99,2.64,2.767,2,9,29.2,0,29.20000076,44.19,1553.44788,6/9/21,10:33:35,29.12,65.36,44.19,1.208,8.42,-85,-4.3,-1.4,-2488,78.7,4.73,12.6,
25.91276295,-80.13785818,56:02.0,6/9/21,8,0.031,253.56,-7.091561231,1.33,241.6,233.72,1.12,-3.11,28.8,0,2.62,2.62,91,21,495.7,16.1,-1.3,D,1518.2,7,1.359,2,0.11,128,120.2,-80.13784643,25.9127568,0,0,6,N,1.85E-03,64,64,11,5,5,119.9733,0,9999.99,2.63,2.757,2,9,29.1,0,29.20000076,44.19,1553.44786,6/9/21,10:33:37,29.13,65.36,44.19,1.226,8.39,-83.2,-3.4,-1.6,-3304,78.6,4.73,12.6,
25.91276304,-80.13785833,56:03.0,6/9/21,8,0.1,253.56,-7.091561231,1.33,242.8,234.98,1.25,-2.28,28.8,0,2.63,2.63,91,21,495.7,16.1,-1.3,D,1518.2,7,1.379,2,0.1,128,120.25,-80.13784643,25.9127568,0,0,6,N,1.85E-03,65,65,11,5,5,120.0152,0,9999.99,2.64,2.767,2,9,29.1,0,29.20000076,44.19,1553.44786,6/9/21,10:33:37,29.13,65.36,44.19,1.226,8.39,-83.2,-3.4,-1.6,-3304,78.6,4.73,12.6,
25.91276335,-80.13785831,56:04.0,6/9/21,9,0.032,253.56,-7.091561231,1.03,243.5,235.72,1.28,-3.68,28.8,0,2.63,2.63,91,21,495.7,16.1,-1.3,D,1518.2,7,1.395,2,0.09,128,121.52,-80.13784643,25.9127568,0,0,6,N,1.85E-03,65,65,11,5,5,121.323,0,9999.99,2.64,2.767,2,9,29.1,0,29.10000038,44.18,1553.23231,6/9/21,10:33:38,29.13,65.36,44.18,1.227,8.39,-83.2,-1.4,-2.5,-4379,78.5,4.72,12.7,
25.9127635,-80.13785863,56:05.0,6/9/21,9,0.086,253.56,-7.091561231,1.03,245.3,237.61,0.97,-4.58,28.8,0,2.64,2.64,91,21,495.6,16.1,-1.3,D,1521.5,7,1.43,2,0.08,128,121.4,-80.13784643,25.9127568,0,0,6,N,1.85E-03,63,63,11,5,5,121.233,0,9999.99,2.65,2.777,2,9,29.2,0,29.10000038,44.17,1553.22179,6/9/21,10:33:40,29.14,65.34,44.17,1.248,8.4,-83.5,-3.7,-2.7,-1877,78.4,4.71,12.4,
25.91276349,-80.13785864,56:06.0,6/9/21,9,0.03,253.56,-7.091561231,1.03,245.6,237.92,1.24,-2.6,28.8,0,2.64,2.64,91,21,495.6,16.1,-1.3,D,1521.5,7,1.43,2,0.08,128,121.34,-80.13784643,25.9127568,0,0,6,N,1.85E-03,64,64,11,5,5,121.1804,0,9999.99,2.65,2.777,2,9,29.1,0,29.10000038,44.17,1553.22179,6/9/21,10:33:40,29.14,65.34,44.17,1.248,8.4,-83.5,-3.7,-2.7,-1877,78.4,4.71,12.4,
25.91276346,-80.13785845,56:07.0,6/9/21,9,0.006,253.56,-7.091561231,1.03,246.2,238.55,1.35,-4.53,28.8,0,2.64,2.64,91,21,495.6,16.1,-1.3,D,1521.5,7,1.411,2,0.07,128,121.63,-80.13784643,25.9127568,0,0,6,N,1.85E-03,65,65,11,5,5,121.4795,0,9999.99,2.65,2.777,2,9,29.2,0,29.10000038,44.16,1553.21131,6/9/21,10:33:41,29.14,65.32,44.16,1.23,8.39,-83,-4.2,-1.3,-1655,78.4,4.71,12.7,
25.91276345,-80.13785795,56:08.0,6/9/21,9,0.062,253.56,-7.091561231,1.03,246.2,238.55,1.04,-2.99,28.8,0,2.66,2.66,91,21,495.6,16.1,-1.3,D,1523.7,7,1.369,2,0.06,128,122.67,-80.13784643,25.9127568,0,0,6,N,1.85E-03,63,63,11,5,5,122.5219,0,9999.99,2.67,2.797,2,9,29.2,0,29.20000076,44.17,1553.42685,6/9/21,10:33:43,29.15,65.34,44.17,1.239,8.39,-83.3,-3.7,-3.5,-1934,78.4,4.71,12.7,
25.91276342,-80.13785761,56:09.0,6/9/21,9,0.031,253.56,-7.091561231,1.03,246.4,238.76,1.43,-2.47,28.8,0,2.66,2.66,91,21,495.6,16.1,-1.3,D,1523.7,7,1.343,2,0.05,128,123.36,-80.13784643,25.9127568,0,0,6,N,1.85E-03,66,66,11,5,5,123.2438,0,9999.99,2.67,2.797,2,9,29.2,0,29.20000076,44.17,1553.42685,6/9/21,10:33:43,29.15,65.34,44.17,1.239,8.39,-83.3,-3.7,-3.5,-1934,78.4,4.71,12.7,
25.91276342,-80.13785728,56:10.0,6/9/21,9,0.069,253.56,-7.091561231,1.03,247.3,239.71,1.25,-4.66,28.8,0,2.66,2.66,91,21,495.6,16.1,-1.3,D,1523.7,7,1.312,2,0.05,128,124.16,-80.13784643,25.9127568,0,0,6,N,1.85E-03,65,65,11,5,5,124.0437,0,9999.99,2.67,2.797,2,9,29.2,0,29.20000076,44.15,1553.40588,6/9/21,10:33:44,29.15,65.32,44.15,1.236,8.39,-83.3,-3.2,-4.3,-2083,78.4,4.71,12.5,
25.91276373,-80.13785711,56:11.0,6/9/21,9,0.117,253.56,-7.091561231,1.03,248.3,240.76,1.28,-4.95,28.8,0,2.66,2.66,91,21,495.6,16.1,-1.3,D,1523.7,7,1.319,2,0.04,128,125.79,-80.13784643,25.9127568,0,0,6,N,1.85E-03,65,65,11,5,5,125.6972,0,9999.99,2.67,2.797,2,9,29.2,0,29.20000076,44.15,1553.40588,6/9/21,10:33:46,29.15,65.32,44.15,1.243,8.39,-83,-3.4,0.9,-2758,78.3,4.7,12.7,
25.91276372,-80.13785712,56:12.0,6/9/21,9,0.048,253.56,-7.091561231,1.03,248.5,240.97,1.27,-4.58,28.8,0,2.66,2.66,91,22,495.6,16.1,-1.3,D,1508.1,7,1.319,2,0.03,128,125.75,-80.13784643,25.9127568,0,0,6,N,1.85E-03,65,65,11,5,5,125.6633,0,9999.99,2.67,2.797,2,9,29.2,0,29.20000076,44.15,1553.40588,6/9/21,10:33:46,29.15,65.32,44.15,1.243,8.39,-83,-3.4,0.9,-2758,78.3,4.7,12.7,
25.91276353,-80.13785677,56:13.0,6/9/21,9,0.048,253.56,-7.091561231,1.03,248.2,240.65,1.27,-2.61,28.8,0,2.67,2.67,91,22,495.6,16.1,-1.3,D,1508.1,7,1.277,2,0.03,128,125.87,-80.13784643,25.9127568,0,0,6,N,1.85E-03,65,65,11,5,5,125.795,0,9999.99,2.68,2.807,2,9,29.2,0,29.20000076,44.17,1553.42679,6/9/21,10:33:47,29.15,65.35,44.17,1.227,8.39,-83.2,-4.3,-2.7,-1939,78.3,4.71,12.6,
25.91276353,-80.13785661,56:14.0,6/9/21,9,0.035,253.56,-7.091561231,1.03,248.7,241.18,1.1,-2.64,28.8,0,2.67,2.67,91,22,495.6,16.1,-1.3,D,1508.1,7,1.263,2,0.03,128,126.29,-80.13784643,25.9127568,0,0,6,N,1.85E-03,65,65,11,5,5,126.2238,0,9999.99,2.68,2.807,2,9,29.2,0,29.20000076,44.18,1553.43728,6/9/21,10:33:49,29.15,65.36,44.18,1.237,8.39,-83.3,-3.9,-1.9,-3777,78.2,4.7,12.6,
25.91276336,-80.13785612,56:15.0,6/9/21,9,0.009,253.56,-7.091561231,1.03,249.5,242.02,1.24,-2.64,28.8,0,2.66,2.66,91,21,495.5,16.1,-1.3,D,1519.1,7,1.216,2,0.02,128,126.95,-80.13784643,25.9127568,0,0,6,N,1.85E-03,64,64,11,5,5,126.8946,0,9999.99,2.67,2.797,2,9,29.2,0,29.20000076,44.15,1553.40574,6/9/21,10:33:50,29.16,65.32,44.15,1.247,8.4,-83.5,-3.6,-0.3,-2853,78.1,4.7,12.6,
25.91276337,-80.13785613,56:16.0,6/9/21,9,0.027,253.56,-7.091561231,1.03,249.1,241.6,1.38,-3.22,28.8,0,2.67,2.67,91,21,495.5,16.1,-1.3,D,1519.1,7,1.216,2,0.02,128,126.96,-80.13784643,25.9127568,0,0,6,N,1.85E-03,65,65,11,5,5,126.9127,0,9999.99,2.68,2.807,2,9,29.1,0,29.20000076,44.15,1553.40574,6/9/21,10:33:50,29.16,65.32,44.15,1.247,8.4,-83.5,-3.6,-0.3,-2853,78.1,4.7,12.6,
25.91276337,-80.13785564,56:17.0,6/9/21,9,0.034,253.56,-7.091561231,1.03,249.2,241.7,1.41,-1.37,28.8,0,2.67,2.67,91,21,495.5,16.1,-1.3,D,1519.1,7,1.178,2,0.01,128,128.41,-80.13784643,25.9127568,0,0,6,N,1.85E-03,65,65,11,5,5,128.3771,0,9999.99,2.68,2.807,2,9,29.2,0,29.10000038,44.16,1553.21153,6/9/21,10:33:51,29.16,65.33,44.16,1.234,8.39,-82.9,-4.8,-1.2,-3036,78.1,4.69,12.6,
25.91276352,-80.13785531,56:18.0,6/9/21,9,0.017,253.56,-7.091561231,1.03,250,242.54,0.89,-3.53,28.8,0,2.69,2.69,91,21,495.5,16.1,-1.3,D,1519.1,7,1.159,2,0.01,128,130.07,-80.13784643,25.9127568,0,0,6,N,1.85E-03,62,62,11,5,5,130.032,0,9999.99,2.7,2.827,2,9,29.1,0,29.20000076,44.15,1553.40585,6/9/21,10:33:53,29.16,65.32,44.15,1.236,8.39,-83.3,-3.8,-1.6,-3102,78.1,4.7,12.5,
25.91276352,-80.13785548,56:19.0,6/9/21,9,0.048,253.56,-7.091561231,1.03,250.5,243.06,1.43,-4.1,28.8,0,2.69,2.69,91,22,495.5,16.1,-1.3,D,1504.6,7,1.174,2,0.01,128,129.54,-80.13784643,25.9127568,0,0,6,N,1.85E-03,66,66,11,5,5,129.5295,0,9999.99,2.7,2.827,2,9,29.2,0,29.20000076,44.15,1553.40585,6/9/21,10:33:53,29.16,65.32,44.15,1.236,8.39,-83.3,-3.8,-1.6,-3102,78.1,4.7,12.5,
25.91276315,-80.13785564,56:20.0,6/9/21,9,0.052,253.56,-7.091561231,1.03,249.8,242.33,1.3,-3.66,28.8,0,2.69,2.69,91,22,495.5,16.1,-1.3,D,1504.6,7,1.163,2,0.01,128,127.48,-80.13784643,25.9127568,0,0,6,N,1.85E-03,65,65,11,5,5,127.4775,0,9999.99,2.7,2.827,2,9,29.2,0,29.20000076,44.17,1553.42695,6/9/21,10:33:54,29.17,65.35,44.17,1.24,8.4,-83.4,-3.7,3.4,-2647,78.1,4.69,12.6,
25.91276247,-80.13785581,56:21.0,6/9/21,9,0.131,253.56,-7.091561231,1.03,249.5,242.02,1.05,-2.9,28.8,0,2.67,2.67,91,22,495.5,16.1,-1.3,D,1504.6,7,1.131,2,0.02,128,123.92,-80.13784643,25.9127568,0,0,6,N,1.85E-03,63,63,11,5,5,123.9348,0,9999.99,2.68,2.807,2,9,29.2,0,29.20000076,44.16,1553.41635,6/9/21,10:33:56,29.17,65.33,44.16,1.226,8.4,-83.6,-3.5,2,-1738,78.1,4.69,12.4,
25.91276213,-80.13785565,56:22.0,6/9/21,9,0.051,253.56,-7.091561231,1.03,249.3,241.81,1.23,-2.99,28.8,0,2.68,2.68,91,22,495.5,16.1,-1.3,D,1508.9,7,1.099,2,0.02,128,122.76,-80.13784643,25.9127568,0,0,6,N,1.85E-03,64,64,11,5,5,122.7855,0,9999.99,2.69,2.817,2,9,29.2,0,29.20000076,44.16,1553.41635,6/9/21,10:33:56,29.17,65.33,44.16,1.226,8.4,-83.6,-3.5,2,-1738,78.1,4.69,12.4,
25.91276194,-80.1378553,56:23.0,6/9/21,9,0.048,253.56,-7.091561231,1.03,248,240.44,1.07,-3.02,28.8,0,2.68,2.68,91,22,495.5,16.1,-1.3,D,1508.9,7,1.057,2,0.03,128,122.8,-80.13784643,25.9127568,0,0,6,N,1.85E-03,63,63,11,5,5,122.847,0,9999.99,2.69,2.817,2,9,29.2,0,29.20000076,44.16,1553.41629,6/9/21,10:33:57,29.17,65.33,44.16,1.25,8.39,-83.2,-2.8,-1.2,-3005,78,4.69,12.6,
25.91276162,-80.13785581,56:24.0,6/9/21,9,0.109,253.56,-7.091561231,1.03,247.6,240.02,1.17,-4.52,28.8,0,2.67,2.67,91,22,495.5,16.1,-1.3,D,1508.9,7,1.082,2,0.03,128,119.73,-80.13784643,25.9127568,0,0,6,N,1.85E-03,63,63,11,5,5,119.779,0,9999.99,2.68,2.807,2,9,29.2,0,29.20000076,44.14,1553.39542,6/9/21,10:33:59,29.17,65.31,44.14,1.223,8.39,-83.3,-3.5,-6.1,-1513,78,4.69,12.6,
25.91276128,-80.13785565,56:25.0,6/9/21,9,0.097,253.56,-7.091561231,1.03,246,238.34,1.06,-1.6,28.8,0,2.67,2.67,91,22,495.5,16.1,-1.3,D,1508.9,7,1.049,2,0.03,128,118.4,-80.13784643,25.9127568,0,0,6,N,1.85E-03,63,63,11,5,5,118.4538,0,9999.99,2.68,2.807,2,9,29.2,0,29.20000076,44.14,1553.39542,6/9/21,10:33:59,29.17,65.31,44.14,1.223,8.39,-83.3,-3.5,-6.1,-1513,78,4.69,12.6,
25.91276127,-80.13785581,56:26.0,6/9/21,9,0.096,253.56,-7.091561231,1.03,246.7,239.08,1.26,-4.41,28.8,0,2.67,2.67,91,21,495.5,16.1,-1.3,D,1512.3,7,1.066,2,0.03,128,117.91,-80.13784643,25.9127568,0,0,6,N,1.85E-03,65,65,11,5,5,117.983,0,9999.99,2.68,2.807,2,9,29.2,0,29.20000076,44.14,1553.39527,6/9/21,10:34:00,29.17,65.3,44.14,1.22,8.39,-83.4,-3.5,-4.7,-2317,78,4.69,12.4,
25.91276112,-80.13785583,56:27.0,6/9/21,9,0.082,253.56,-7.091561231,1.03,246,238.34,1.05,-4.21,28.9,0,2.66,2.66,91,21,495.5,16.1,-1.3,D,1512.3,7,1.057,2,0.02,128,117.08,-80.13784643,25.9127568,0,0,6,N,1.85E-03,63,63,11,5,5,117.1403,0,9999.99,2.67,2.797,2,9,29.2,0,29.20000076,44.16,1553.41645,6/9/21,10:34:02,29.16,65.33,44.16,1.242,8.39,-83,-3.7,-3.1,-3147,78,4.69,12.6,
25.91276091,-80.13785597,56:28.0,6/9/21,9,0.013,253.56,-7.091561231,1.03,244.7,236.98,1.16,-4.12,28.9,0,2.67,2.67,91,21,495.5,16.1,-1.3,D,1512.3,7,1.061,2,0.04,128,115.6,-80.13784643,25.9127568,0,0,6,N,1.85E-03,64,64,11,5,5,115.7006,0,9999.99,2.68,2.807,2,9,29.2,0,29.20000076,44.16,1553.41653,6/9/21,10:34:03,29.16,65.33,44.16,1.241,8.39,-83.1,-3.3,-4.6,-71,77.9,4.68,12.6,
25.91276124,-80.13785614,56:29.0,6/9/21,9,0.042,253.56,-7.091561231,1.03,245.1,237.4,1.43,-5.27,28.9,0,2.66,2.66,91,21,495.4,16.1,-1.3,D,1515.5,7,1.091,2,0.05,128,116.95,-80.13784643,25.9127568,0,0,6,N,1.85E-03,66,66,11,5,5,117.0537,0,9999.99,2.67,2.797,2,9,29.2,0,29.20000076,44.16,1553.41627,6/9/21,10:34:04,29.16,65.33,44.16,1.232,8.39,-83.3,-5.8,-1.5,-3139,77.9,4.68,12.5,
25.91276158,-80.13785632,56:30.0,6/9/21,9,0.063,253.56,-7.091561231,1.03,243.7,235.93,1.19,-2.67,28.9,0,2.64,2.64,91,21,495.4,16.1,-1.3,D,1515.5,7,1.123,2,0.04,128,118.25,-80.13784643,25.9127568,0,0,6,N,1.85E-03,64,64,11,5,5,118.3532,0,9999.99,2.65,2.777,2,9,29.2,0,29.20000076,44.16,1553.41627,6/9/21,10:34:04,29.16,65.33,44.16,1.232,8.39,-83.3,-5.8,-1.5,-3139,77.9,4.68,12.5,
25.91276125,-80.13785616,56:31.0,6/9/21,9,0.145,253.56,-7.091561231,1.03,243.7,235.93,1.28,-6.14,28.9,0,2.64,2.64,91,21,495.4,16.1,-1.3,D,1515.5,7,1.095,2,0.04,128,116.98,-80.13784643,25.9127568,0,0,6,N,1.85E-03,64,64,11,5,5,117.0768,0,9999.99,2.65,2.777,2,9,29.2,0,29.20000076,44.15,1553.4058,6/9/21,10:34:05,29.16,65.31,44.15,1.23,8.39,-83.4,-4.6,-4.5,-3219,77.9,4.68,12.6,
25.91276126,-80.13785617,56:32.0,6/9/21,9,0.063,253.56,-7.091561231,1.03,242.1,234.24,1.04,-3.54,28.9,0,2.64,2.64,91,21,495.4,16.1,-1.3,D,1515.5,7,1.095,2,0.04,128,116.97,-80.13784643,25.9127568,0,0,6,N,1.85E-03,64,64,11,5,5,117.0664,0,9999.99,2.65,2.777,2,9,29.2,0,29.20000076,44.15,1553.40577,6/9/21,10:34:07,29.16,65.32,44.15,1.207,8.4,-83.5,-5.4,-2.6,-6573,77.8,4.68,12.7,
25.91276105,-80.13785631,56:33.0,6/9/21,9,0.052,253.56,-7.091561231,1.04,241.4,233.51,1.31,-2.39,28.9,0,2.64,2.64,91,22,495.4,16.1,-1.3,D,1506.6,7,1.095,2,0.05,128,115.56,-80.13784643,25.9127568,0,0,6,N,1.85E-03,65,65,11,5,5,115.699,0,9999.99,2.65,2.777,2,9,29.2,0,29.20000076,44.15,1553.40577,6/9/21,10:34:07,29.16,65.32,44.15,1.207,8.4,-83.5,-5.4,-2.6,-6573,77.8,4.68,12.7,
25.9127609,-80.13785683,56:34.0,6/9/21,9,0.048,253.56,-7.091561231,1.03,240.6,232.67,1.33,-4.8,28.9,0,2.64,2.64,91,22,495.4,16.1,-1.3,D,1506.6,7,1.135,2,0.05,128,113.65,-80.13784643,25.9127568,0,0,6,N,1.85E-03,65,65,11,5,5,113.7614,0,9999.99,2.65,2.777,2,9,29.2,0,29.20000076,44.15,1553.40597,6/9/21,10:34:08,29.16,65.32,44.15,1.238,8.39,-83.2,-3.6,-0.7,-3787,77.9,4.68,12.3,
25.91276104,-80.13785731,56:35.0,6/9/21,9,0.045,253.56,-7.091561231,1.03,240.3,232.35,1.22,-5.13,28.9,0,2.63,2.63,91,22,495.4,16.1,-1.3,D,1506.6,7,1.19,2,0.07,128,113.45,-80.13784643,25.9127568,0,0,6,N,1.85E-03,64,64,11,5,5,113.5913,0,9999.99,2.64,2.767,2,9,29.2,0,29.20000076,44.15,1553.4059,6/9/21,10:34:10,29.16,65.31,44.15,1.249,8.39,-83.3,-4.3,-8.9,-3360,77.9,4.68,12.7,
25.91276087,-80.13785746,56:36.0,6/9/21,9,0.012,253.56,-7.091561231,1.03,239.6,231.61,0.99,-3.67,28.9,0,2.63,2.63,91,22,495.4,16.1,-1.3,D,1506.6,7,1.193,2,0.07,128,112.3,-80.13784643,25.9127568,0,0,6,N,1.85E-03,63,63,11,5,5,112.4481,0,9999.99,2.64,2.767,2,9,29.2,0,29.20000076,44.15,1553.4059,6/9/21,10:34:10,29.16,65.31,44.15,1.249,8.39,-83.3,-4.3,-8.9,-3360,77.9,4.68,12.7,
25.91276073,-80.13785748,56:37.0,6/9/21,9,0.054,253.56,-7.091561231,1.03,238.7,230.67,1.34,-5.11,28.9,0,2.64,2.64,91,21,495.4,16.1,-1.3,D,1527.7,7,1.186,2,0.05,128,111.57,-80.13784643,25.9127568,0,0,6,N,1.85E-03,65,65,11,5,5,111.693,0,9999.99,2.65,2.777,2,9,29.2,0,29.20000076,44.13,1553.38476,6/9/21,10:34:11,29.16,65.29,44.13,1.24,8.42,-84.9,-4.2,0,-4823,78,4.69,12.8,
25.91276054,-80.13785779,56:38.0,6/9/21,9,0.056,253.56,-7.091561231,1.03,237.7,229.61,1.25,-3.15,28.9,0,2.63,2.63,91,21,495.4,16.1,-1.3,D,1527.7,7,1.212,2,0.06,128,110.1,-80.13784643,25.9127568,0,0,6,N,1.85E-03,65,65,11,5,5,110.2337,0,9999.99,2.64,2.767,2,9,29.2,0,29.20000076,44.16,1553.41635,6/9/21,10:34:13,29.16,65.33,44.16,1.214,8.39,-83.2,-4.1,-6.1,-3604,77.9,4.68,12.6,
25.91276072,-80.1378573,56:39.0,6/9/21,9,0.117,253.56,-7.091561231,1.03,236.8,228.66,1.4,-3.18,28.9,0,2.63,2.63,91,21,495.4,16.1,-1.3,D,1527.7,7,1.17,2,0.06,128,111.84,-80.13784643,25.9127568,0,0,6,N,1.85E-03,65,65,11,5,5,111.9673,0,9999.99,2.64,2.767,2,9,29.2,0,29.20000076,44.16,1553.41635,6/9/21,10:34:13,29.16,65.33,44.16,1.214,8.39,-83.2,-4.1,-6.1,-3604,77.9,4.68,12.6,
25.91276042,-80.137857,56:40.0,6/9/21,9,0.065,253.56,-7.091561231,1.03,236.7,228.56,1.18,-5.04,28.9,0,2.63,2.63,91,21,495.4,16.1,-1.3,D,1535.6,7,1.131,2,0.04,128,110.83,-80.13784643,25.9127568,0,0,6,N,1.85E-03,64,64,11,5,5,110.9363,0,9999.99,2.64,2.767,2,9,29.2,0,29.20000076,44.17,1553.42681,6/9/21,10:34:14,29.16,65.34,44.17,1.227,8.39,-83.2,-4.7,-3.4,-3104,77.8,4.68,12.7,
25.91276007,-80.13785698,56:41.0,6/9/21,9,0.067,253.56,-7.091561231,1.03,235.4,227.19,0.84,-3.18,28.9,0,2.63,2.63,91,21,495.4,16.1,-1.3,D,1535.6,7,1.119,2,0.05,128,108.99,-80.13784643,25.9127568,0,0,6,N,1.85E-03,62,62,11,5,5,109.119,0,9999.99,2.64,2.767,2,9,29.2,0,29.20000076,44.14,1553.39524,6/9/21,10:34:16,29.16,65.31,44.14,1.204,8.42,-85,-4.8,-2.9,-2386,77.8,4.67,12.4,
25.91275923,-80.13785664,56:42.0,6/9/21,9,0.166,253.56,-7.091561231,1.03,234.7,226.45,1.34,-3.34,28.9,0,2.64,2.64,91,21,495.4,16.1,-1.3,D,1535.6,7,1.057,2,0.05,128,104.84,-80.13784643,25.9127568,0,0,6,N,1.85E-03,65,65,11,5,5,104.9764,0,9999.99,2.65,2.777,2,9,29.2,0,29.20000076,44.14,1553.39524,6/9/21,10:34:16,29.16,65.31,44.14,1.204,8.42,-85,-4.8,-2.9,-2386,77.8,4.67,12.4,
25.91275872,-80.13785647,56:43.0,6/9/21,9,0.124,253.56,-7.091561231,1.03,233.2,224.87,1.31,-3.95,28.9,0,2.64,2.64,91,21,495.4,16.1,-1.3,D,1535.6,7,1.027,2,0.06,128,102,-80.13784643,25.9127568,0,0,6,N,1.85E-03,66,66,11,5,5,102.1564,0,9999.99,2.65,2.777,2,9,29.2,0,29.20000076,44.15,1553.40588,6/9/21,10:34:17,29.16,65.32,44.15,1.23,8.4,-83.6,-4.6,-3.9,-2949,77.7,4.67,12.6,
25.91275805,-80.13785663,56:44.0,6/9/21,9,0.109,253.56,-7.091561231,1.03,232.4,224.03,1.04,-2.56,29,0,2.64,2.64,91,22,495.3,16.1,-1.3,D,1508.6,7,1.036,2,0.06,128,97.79,-80.13784643,25.9127568,0,0,6,N,1.85E-03,63,63,11,5,5,97.9529,0,9999.99,2.65,2.777,2,9,29.2,0,29.20000076,44.16,1553.41636,6/9/21,10:34:19,29.16,65.32,44.16,1.238,8.39,-83.3,-4.6,-1.2,690,77.6,4.66,12.6,
25.91275773,-80.13785647,56:45.0,6/9/21,9,0.049,253.56,-7.091561231,1.03,230.7,222.24,1.44,-1.72,29.1,0,2.63,2.63,91,22,495.3,16.1,-1.3,D,1508.6,7,1.009,2,0.05,128,95.89,-80.13784643,25.9127568,0,0,6,N,1.85E-03,66,66,11,5,5,96.04633,0,9999.99,2.64,2.767,2,9,29.2,0,29.20000076,44.16,1553.41636,6/9/21,10:34:19,29.16,65.32,44.16,1.238,8.39,-83.3,-4.6,-1.2,690,77.6,4.66,12.6,
25.91275742,-80.13785666,56:46.0,6/9/21,9,0.013,253.56,-7.091561231,1.03,230.3,221.81,1.17,-2.4,29,0,2.63,2.63,91,22,495.3,16.1,-1.3,D,1508.6,7,1.027,2,0.04,128,93.88,-80.13784643,25.9127568,0,0,6,N,1.85E-03,64,64,11,5,5,93.99608,0,9999.99,2.64,2.767,2,9,29.2,0,29.20000076,44.16,1553.41648,6/9/21,10:34:20,29.16,65.32,44.16,1.235,8.39,-83.4,-4.2,0.4,-1663,77.6,4.66,12.4,
25.91275709,-80.13785666,56:47.0,6/9/21,9,0.064,253.56,-7.091561231,1.03,229.2,220.66,1.33,-1.5,29,0,2.63,2.63,91,21,495.3,16.1,-1.3,D,1515.2,7,1.027,2,0.04,128,91.82,-80.13784643,25.9127568,0,0,6,N,1.85E-03,65,65,11,5,5,91.93723,0,9999.99,2.64,2.767,2,9,29.2,0,29.20000076,44.15,1553.40598,6/9/21,10:34:22,29.16,65.32,44.15,1.242,8.4,-83.7,-3.1,-3.3,-2266,77.7,4.67,12.5,
25.91275661,-80.13785685,56:48.0,6/9/21,9,0.067,253.56,-7.091561231,1.03,228.6,220.02,1.31,-2.49,29,0,2.64,2.64,91,21,495.3,16.1,-1.3,D,1515.2,7,1.044,2,0.03,128,88.81,-80.13784643,25.9127568,0,0,6,N,1.85E-03,65,65,11,5,5,88.90129,0,9999.99,2.65,2.777,2,9,29.2,0,29.20000076,44.17,1553.42679,6/9/21,10:34:23,29.16,65.34,44.17,1.218,8.39,-83.1,-4.9,-4.1,-3440,77.7,4.67,12.5,
25.91275628,-80.13785685,56:49.0,6/9/21,9,0.071,253.56,-7.091561231,1.03,227.9,219.29,1.15,-2.09,29,0,2.64,2.64,91,21,495.3,16.1,-1.3,D,1526.4,7,1.044,2,0.03,128,86.8,-80.13784643,25.9127568,0,0,6,N,1.85E-03,64,64,11,5,5,86.88676,0,9999.99,2.65,2.777,2,9,29.2,0,29.20000076,44.17,1553.42679,6/9/21,10:34:23,29.16,65.34,44.17,1.218,8.39,-83.1,-4.9,-4.1,-3440,77.7,4.67,12.5,
25.91275562,-80.13785668,56:50.0,6/9/21,9,0.093,253.56,-7.091561231,1.03,227.1,218.44,1.42,-2.39,29,0,2.63,2.63,91,21,495.3,16.1,-1.3,D,1526.4,7,1.036,2,0.03,128,82.67,-80.13784643,25.9127568,0,0,6,N,1.85E-03,66,66,11,5,5,82.7518,0,9999.99,2.64,2.767,2,9,29.2,0,29.20000076,44.16,1553.41625,6/9/21,10:34:24,29.16,65.33,44.16,1.245,8.39,-83.3,-4.1,-3.2,-4608,77.6,4.66,12.5,
25.91275441,-80.13785615,56:51.0,6/9/21,9,0.279,253.56,-7.091561231,1.03,225.7,216.97,0.78,-2.51,29,0,2.62,2.62,91,21,495.3,16.1,-1.3,D,1526.4,7,1.014,2,0.05,128,74.71,-80.13784643,25.9127568,0,0,6,N,1.85E-03,62,62,11,5,5,74.8824,0,9999.99,2.63,2.757,2,9,29.2,0,29.20000076,44.14,1553.39525,6/9/21,10:34:26,29.16,65.31,44.14,1.238,8.4,-83.4,-4.7,-3.9,-3916,77.6,4.66,12.5,
25.91275423,-80.1378558,56:52.1,6/9/21,10,0.075,253.56,-7.091561231,0.91,224.8,216.02,1.22,-1.35,29,0,2.63,2.63,91,21,495.3,16.1,-1.3,D,1526.4,7,0.982,2,0.02,128,73.05,-80.13784643,25.9127568,0,0,6,N,1.85E-03,64,64,11,5,5,73.12249,0,9999.99,2.64,2.767,2,9,29.1,0,29.20000076,44.14,1553.39525,6/9/21,10:34:26,29.16,65.31,44.14,1.238,8.4,-83.4,-4.7,-3.9,-3916,77.6,4.66,12.5,
25.91275429,-80.13785582,56:53.1,6/9/21,10,0.007,253.56,-7.091561231,0.91,224.7,215.91,1.36,-2.36,29,0,2.63,2.63,91,21,495.3,16.1,-1.3,D,1524.1,7,0.982,2,0.02,128,73.43,-80.13784643,25.9127568,0,0,6,N,1.85E-03,65,65,11,5,5,73.50256,0,9999.99,2.64,2.767,2,9,29.2,0,29.10000038,44.14,1553.19039,6/9/21,10:34:27,29.16,65.3,44.14,1.228,8.4,-83.4,-4.1,-5.1,-521,77.6,4.66,12.4,
25.91275361,-80.13785532,56:54.1,6/9/21,10,0.14,253.56,-7.091561231,0.91,224.5,215.7,1.09,-4.63,29,0,2.62,2.62,91,21,495.3,16.1,-1.3,D,1524.1,7,0.959,2,0.03,128,68.26,-80.13784643,25.9127568,0,0,6,N,1.85E-03,64,64,11,5,5,68.35381,0,9999.99,2.63,2.757,2,9,29.2,0,29.20000076,44.14,1553.39535,6/9/21,10:34:29,29.17,65.3,44.14,1.236,8.4,-83.6,-3.7,-3.8,-2849,77.6,4.67,12.6,
25.91275376,-80.13785579,56:55.1,6/9/21,10,0.154,253.56,-7.091561231,0.91,224.6,215.81,1.35,-6.14,29,0,2.61,2.61,91,21,495.3,16.1,-1.3,D,1524.1,7,0.996,2,0.03,128,70.12,-80.13784643,25.9127568,0,0,6,N,1.85E-03,65,65,11,5,5,70.23361,0,9999.99,2.62,2.747,2,9,29.1,0,29.20000076,44.14,1553.39535,6/9/21,10:34:29,29.17,65.3,44.14,1.236,8.4,-83.6,-3.7,-3.8,-2849,77.6,4.67,12.6,
25.91275456,-80.13785648,56:56.1,6/9/21,10,0.184,253.56,-7.091561231,0.91,221.7,212.76,0.88,-4.21,29,0,2.61,2.61,91,22,495.3,16.1,-1.3,D,1504.1,7,1.04,2,0.03,128,76.11,-80.13784643,25.9127568,0,0,6,N,1.85E-03,62,62,11,5,5,76.01304,0,9999.99,2.62,2.747,2,9,29.2,0,29.10000038,44.17,1553.22189,6/9/21,10:34:30,29.17,65.35,44.17,1.237,8.39,-83.2,-2.5,-3.2,-1277,77.6,4.66,12.6,
25.91275501,-80.13785648,56:57.1,6/9/21,10,0.146,253.56,-7.091561231,0.91,218.5,209.39,1.2,-1.55,29,0,2.61,2.61,91,22,495.3,16.1,-1.3,D,1504.1,7,1.022,2,0.01,128,78.79,-80.13784643,25.9127568,0,0,6,N,1.85E-03,63,63,11,5,5,78.78466,0,9999.99,2.62,2.747,2,9,29.1,0,29.20000076,44.14,1553.39529,6/9/21,10:34:32,29.16,65.3,44.14,1.219,8.39,-83,-3.8,-2.8,-413,77.5,4.66,12.4,
25.91275549,-80.13785614,56:58.1,6/9/21,10,0.067,253.56,-7.091561231,0.91,216.7,207.5,1.24,-1.42,29,0,2.6,2.6,91,22,495.3,16.1,-1.3,D,1504.1,7,0.982,2,0.01,128,81.44,-80.13784643,25.9127568,0,0,6,N,1.85E-03,65,65,11,5,5,81.46797,0,9999.99,2.61,2.737,2,9,29.2,0,29.20000076,44.14,1553.39529,6/9/21,10:34:32,29.16,65.3,44.14,1.219,8.39,-83,-3.8,-2.8,-413,77.5,4.66,12.4,
25.91275545,-80.13785665,56:59.1,6/9/21,10,0.173,253.56,-7.091561231,0.91,217.4,208.24,1.34,-2.87,29.1,0,2.6,2.6,91,22,495.3,16.1,-1.3,D,1504.1,7,1.031,2,0.03,128,81.65,-80.13784643,25.9127568,0,0,6,N,1.85E-03,65,65,11,5,5,81.73196,0,9999.99,2.61,2.737,2,9,29.2,0,29.20000076,44.14,1553.39531,6/9/21,10:34:33,29.16,65.3,44.14,1.205,8.39,-83.4,-3.7,-3.1,-194,77.5,4.66,12.6,
