Latitude,Longitude,Time,Date,Number of Sats,GPS Speed (Kn),GPS True Heading,GPS Magnetic Variation,HDOP,C Magnetic Heading,C True Heading,Pitch Angle,Roll Angle,C Inside Temp (c),DFS Depth (m),DTB Height (m),Total Water Column (m),Batt Percent,Power Watts,Watt-Hours,Batt Volts,Batt Ampers,Batt State,Time to Empty,Current Step,Dist To Next (m),Next Speed (kn),Vehicle Speed (kn),Motor Speed CMD,Next Heading,Next Long,Next Lat,Next Depth (m),Depth Goal (m),Vehicle State,Error State,Distance to Track (m),Fin Pitch R,Fin Pitch L,Pitch Goal,Fin Yaw T,Fin Yaw B,Yaw Goal,Fin Roll,DVL-Depth (m),DVL -Altitude (m),DVL -Water Column (m),DVL-FixType,DVL-FixQuality,DVL-Temperature,Conductivity (mmhos/cm),Temperature (c),Salinity (ppt),Sound Speed (m/s),Date m/d/y   ,Time hh:mm:ss,Temp C,SpCond mS/cm,Sal ppt,Depth feet,pH,pH mV,Turbid+ NTU,Chl ug/L,BGA-PC cells/mL,ODOsat %,ODO mg/L,Battery volts,ROSEM Command Type
25.9128625,-80.13784067,41:10.1,1/30/21,3,0.599,327.21,-7.056832712,1.9,142,132.97,0.98,-1.58,21.5,0.05,3.41,3.47,88,20,479,16,-1.2,D,1536.7,0,12.355,2,0,128,175.33,-80.13783061,25.91275176,0,0,1,N,10.59908,63,63,11,250,250,236.4319,0,9999.99,3.42,3.547,2,9,21.3,0,21.29999924,35.32,1525.35354,1/30/21,12:20:03,21.74,53.43,35.32,1.143,8.51,-88.1,-2.6,-7.6,-1697,99.4,7.11,12.7,
25.9128625,-80.13784067,41:11.1,1/30/21,3,0.599,327.21,-7.056832712,1.9,140.7,131.75,0.78,-3.3,21.5,0.06,3.41,3.47,88,22,479,16,-1.3,D,1427.8,1,45.649,2,0,174,143.84,-80.13757133,25.91253107,0,0,1,N,8.252657,62,62,11,221,221,155.306,0,9999.99,3.42,3.547,2,9,21.3,0,21.29999924,35.34,1525.37437,1/30/21,12:20:04,21.74,53.44,35.34,1.124,8.5,-87.7,-3.6,-3.9,-3936,99.1,7.09,12.8,
25.9128625,-80.13784067,41:12.1,1/30/21,3,0.599,327.21,-7.056832712,1.9,138.4,129.59,1.79,5.34,21.6,0.06,3.42,3.49,88,22,479,16,-1.3,D,1427.8,1,45.649,2,0,174,143.84,-80.13757133,25.91253107,0,0,1,N,8.252657,69,69,11,230,230,155.306,0,9999.99,3.44,3.567,2,9,21.3,0,21.29999924,35.33,1525.36443,1/30/21,12:20:06,21.75,53.43,35.33,1.143,8.46,-85.3,-3,-4.4,-3522,98.7,7.06,12.7,
25.91279636,-80.13780803,41:13.1,1/30/21,3,1.163,327.21,-7.056832712,1.9,140.7,131.75,1.98,0.74,21.5,0.05,3.43,3.48,88,22,479,16,-1.3,D,1427.8,1,37.825,2,0.29,174,141.25,-80.13757133,25.91253107,0,0,1,N,8.252657,65,65,11,179,179,155.306,0,9999.99,3.44,3.567,2,9,21.3,0,21.29999924,35.39,1525.43092,1/30/21,12:20:07,21.75,53.51,35.39,1.174,8.5,-87.6,-2.7,-5,-913,98.4,7.04,12.7,
25.9127891,-80.13780303,41:14.1,1/30/21,4,0.973,327.21,-7.056832712,6.93,146.5,137.2,1,3.81,21.5,0.02,3.41,3.43,88,22,479,16,-1.3,D,1427.8,1,36.881,2,0.59,174,141.07,-80.13757133,25.91253107,0,0,1,N,4.913169,64,64,11,225,225,161.1553,0,9999.99,3.42,3.547,2,9,21.3,0,21.29999924,35.39,1525.43092,1/30/21,12:20:07,21.75,53.51,35.39,1.174,8.5,-87.6,-2.7,-5,-913,98.4,7.04,12.7,
25.91278683,-80.13780082,41:15.1,1/30/21,4,0.973,327.21,-7.056832712,6.95,151.5,141.95,1.51,2.51,21.5,0.02,3.43,3.45,88,38,479,15.9,-2.4,D,827.2,1,36.546,2,0.89,174,141.09,-80.13757133,25.91253107,0,0,1,N,4.890069,66,66,11,208,208,162.2726,0,9999.99,3.44,3.567,2,9,21.4,0,21.29999924,35.51,1525.56049,1/30/21,12:20:08,21.76,53.67,35.51,1.127,8.54,-89.8,-3.1,-2.1,-5855,98.2,7.02,12.6,
25.91278318,-80.13779812,41:16.1,1/30/21,4,0.973,327.21,-7.056832712,6.96,157.5,147.68,1.51,1.29,21.5,0.03,3.52,3.54,88,38,479,15.9,-2.4,D,827.2,1,36.061,2,1.11,174,141.02,-80.13757133,25.91253107,0,0,1,N,4.789172,66,66,11,192,192,163.8145,0,9999.99,3.53,3.657,2,9,21.4,0,21.39999962,36.16,1526.54829,1/30/21,12:20:09,21.76,54.54,36.16,1.166,8.46,-85,-1.9,-6.4,-4322,98.1,6.98,12.5,
25.91277882,-80.13779543,41:17.1,1/30/21,4,0.973,327.21,-7.056832712,6.98,162.1,152.13,1.9,1.54,21.5,0.02,3.43,3.45,88,38,479,15.9,-2.4,D,827.2,1,35.515,2,1.29,174,140.87,-80.13757133,25.91253107,0,0,1,N,4.627212,70,70,11,173,173,163.4934,0,9999.99,3.45,3.577,2,9,21.4,0,21.39999962,36.16,1526.54751,1/30/21,12:20:11,21.77,54.55,36.16,1.149,8.54,-90,-3.2,-2.6,-1909,97.7,6.95,12.6,
25.91277273,-80.13779226,41:18.1,1/30/21,4,0.973,327.21,-7.056832712,7,166.3,156.21,1.46,2.06,21.5,0.01,3.46,3.47,88,38,479,15.9,-2.3,D,835.1,1,34.79,2,1.46,174,140.57,-80.13757133,25.91253107,0,0,1,N,4.360314,66,66,11,150,150,162.0131,0,9999.99,3.47,3.597,2,9,21.4,0,21.39999962,36.16,1526.54751,1/30/21,12:20:11,21.77,54.55,36.16,1.149,8.54,-90,-3.2,-2.6,-1909,97.7,6.95,12.6,
25.91276636,-80.13778912,41:19.2,1/30/21,4,0.973,327.21,-7.056832712,7.02,168.1,157.97,1.42,2.45,21.5,0.01,3.51,3.52,88,38,479,15.9,-2.3,D,835.1,1,34.044,2,1.55,174,140.22,-80.13757133,25.91253107,0,0,1,N,4.071355,66,66,11,137,137,160.3929,0,9999.99,3.52,3.647,2,9,21.4,0,21.39999962,36.16,1526.54695,1/30/21,12:20:12,21.77,54.55,36.16,1.161,8.46,-85.1,-2.6,0.8,-1594,97.6,6.95,12.7,
25.91275952,-80.13778615,41:20.2,1/30/21,4,0.973,327.21,-7.056832712,7.04,170,159.84,0.8,2.52,21.5,0.01,3.49,3.5,88,38,479,15.9,-2.3,D,835.1,1,33.27,2,1.67,174,139.78,-80.13757133,25.91253107,0,0,1,N,3.730315,62,62,11,121,121,158.4212,0,9999.99,3.5,3.627,2,9,21.4,0,21.39999962,36.18,1526.56964,1/30/21,12:20:13,21.77,54.57,36.18,1.148,8.51,-88,-3.8,-0.3,-1975,97.4,6.93,12.5,
25.91275288,-80.13778344,41:21.2,1/30/21,4,0.973,327.21,-7.056832712,7.06,169.2,159.05,0.93,4.19,21.5,0.01,3.48,3.49,88,38,479,15.9,-2.3,D,835.1,1,32.533,2,1.75,174,139.3,-80.13757133,25.91253107,0,0,1,N,3.376267,63,63,11,113,113,156.3024,0,9999.99,3.49,3.617,2,9,21.4,0,21.39999962,36.19,1526.58028,1/30/21,12:20:15,21.77,54.58,36.19,1.168,8.46,-85.2,-2.2,-6.4,-4938,96.9,6.9,12.8,
25.91274522,-80.13777995,41:22.2,1/30/21,4,0.973,327.21,-7.056832712,7.08,168.8,158.66,0.85,4.48,21.5,0.01,3.45,3.46,88,37,478.9,15.9,-2.3,D,840,1,31.661,2,1.78,174,138.77,-80.13757133,25.91253107,0,0,1,N,2.996751,62,62,11,108,108,153.9557,0,9999.99,3.46,3.587,2,9,21.4,0,21.39999962,36.19,1526.58028,1/30/21,12:20:15,21.77,54.58,36.19,1.168,8.46,-85.2,-2.2,-6.4,-4938,96.9,6.9,12.8,
25.91273773,-80.13777601,41:23.2,1/30/21,4,0.973,327.21,-7.056832712,7.1,166.7,156.6,1.56,4.61,21.5,0.02,3.44,3.46,88,37,478.9,15.9,-2.3,D,840,1,30.776,2,1.82,174,138.3,-80.13757133,25.91253107,0,0,1,N,2.661301,66,66,11,108,108,151.8207,0,9999.99,3.45,3.577,2,9,21.5,0,21.39999962,36.17,1526.5584,1/30/21,12:20:16,21.76,54.56,36.17,1.183,8.51,-87.9,-2.6,-2.2,-4825,96.8,6.89,12.7,
25.91273028,-80.13777184,41:24.2,1/30/21,4,0.973,327.21,-7.056832712,7.12,166.1,156.02,1.4,5.45,21.5,0.01,3.46,3.47,88,37,478.9,15.9,-2.3,D,840,1,29.88,2,1.88,174,137.84,-80.13757133,25.91253107,0,0,1,N,2.338709,64,64,11,101,101,149.7148,0,9999.99,3.47,3.597,2,9,21.5,0,21.5,36.14,1526.78936,1/30/21,12:20:18,21.76,54.53,36.14,1.161,8.47,-85.5,-2.5,-5.2,-2768,96.4,6.86,12.7,
25.91272191,-80.13776678,41:25.2,1/30/21,4,0.973,327.21,-7.056832712,7.14,165.4,155.33,2.06,4.39,21.5,0.01,3.41,3.42,88,37,478.9,15.9,-2.3,D,858,1,28.852,2,1.88,174,137.35,-80.13757133,25.91253107,0,0,1,N,2.012002,69,69,11,96,96,147.5368,0,9999.99,3.43,3.557,2,9,21.5,0,21.5,36.14,1526.78936,1/30/21,12:20:18,21.76,54.53,36.14,1.161,8.47,-85.5,-2.5,-5.2,-2768,96.4,6.86,12.7,
25.91271447,-80.13776224,41:26.2,1/30/21,4,0.973,327.21,-7.056832712,7.16,162,152.03,1.9,2.03,21.6,0.02,3.43,3.45,88,37,478.9,15.9,-2.3,D,858,1,27.937,2,1.93,174,136.88,-80.13757133,25.91253107,0,0,1,N,1.723245,68,68,11,101,101,145.5762,0,9999.99,3.45,3.577,2,9,21.5,0,21.5,36.15,1526.80038,1/30/21,12:20:19,21.76,54.54,36.15,1.163,8.51,-87.7,-2.9,-1.6,-4621,96.2,6.85,12.7,
25.91270658,-80.13775754,41:27.2,1/30/21,5,0.973,327.21,-7.056832712,1.37,164,153.97,1.54,3,21.5,0.01,3.45,3.46,88,37,478.9,15.9,-2.3,D,858,1,26.977,2,1.94,174,136.34,-80.13757133,25.91253107,0,0,1,N,1.416064,66,66,11,85,85,143.4574,0,9999.99,3.46,3.587,2,9,21.5,0,21.5,36.15,1526.8003,1/30/21,12:20:21,21.75,54.54,36.15,1.162,8.47,-85.6,-2.5,-0.1,-3427,95.8,6.82,12.5,
25.91268657,-80.13776548,41:28.2,1/30/21,5,1.994,158.76,-7.056832712,1.37,161,151.06,1.45,2.42,21.6,0.01,3.37,3.39,88,37,478.9,15.9,-2.3,D,858,1,26.001,2,1.95,174,131.68,-80.13757133,25.91253107,0,0,1,N,0.756619,66,66,11,35,35,128.0167,0,9999.99,3.39,3.517,2,9,21.5,0,21.5,36.15,1526.8003,1/30/21,12:20:21,21.75,54.54,36.15,1.162,8.47,-85.6,-2.5,-0.1,-3427,95.8,6.82,12.5,
25.91267702,-80.13776401,41:29.2,1/30/21,5,1.907,157.9,-7.056832712,1.37,155.4,145.67,1.35,0,21.6,0.01,3.31,3.31,88,37,478.9,15.9,-2.3,D,843,1,25.194,2,2,174,130.1,-80.13757133,25.91253107,0,0,1,N,1.436721,65,65,11,37,37,123.2385,0,9999.99,3.32,3.447,2,9,21.5,0,21.5,36.17,1526.82246,1/30/21,12:20:22,21.75,54.56,36.17,1.189,8.51,-87.7,-2.8,1,-2262,95.7,6.81,12.8,
25.9126692,-80.13776088,41:30.2,1/30/21,5,1.967,156,-7.056832712,1.38,149.5,140.04,1.91,4.83,21.6,0.01,3.43,3.44,88,37,478.9,15.9,-2.3,D,843,1,24.399,2,1.97,174,129.01,-80.13757133,25.91253107,0,0,1,N,1.861452,68,68,11,48,48,120.3208,0,9999.99,3.45,3.577,2,9,21.5,0,21.5,36.19,1526.84421,1/30/21,12:20:24,21.76,54.58,36.19,1.167,8.47,-85.8,-3,-5,-2500,95.4,6.79,12.8,
25.91266183,-80.13775603,41:31.2,1/30/21,5,1.893,151.59,-7.056832712,1.38,141,132.03,2.45,5.22,21.6,0.01,3.46,3.47,88,37,478.9,15.9,-2.3,D,843,1,23.509,2,1.94,174,128.21,-80.13757133,25.91253107,0,0,1,N,2.138926,70,70,11,69,69,118.4507,0,9999.99,3.48,3.607,2,9,21.5,0,21.5,36.19,1526.84421,1/30/21,12:20:24,21.76,54.58,36.19,1.167,8.47,-85.8,-3,-5,-2500,95.4,6.79,12.8,
25.91265608,-80.1377504,41:32.2,1/30/21,5,1.858,145.57,-7.056832712,1.38,135.9,127.26,2.66,5.45,21.6,0.01,3.5,3.51,88,37,478.9,15.9,-2.3,D,853.8,1,22.671,2,1.92,174,127.82,-80.13757133,25.91253107,0,0,1,N,2.227053,73,73,11,89,89,117.8631,0,9999.99,3.52,3.647,2,9,21.5,0,21.5,36.17,1526.82226,1/30/21,12:20:25,21.76,54.56,36.17,1.151,8.51,-87.8,-3.4,-3.8,-2373,95.2,6.78,12.6,
25.91264938,-80.13774373,41:33.2,1/30/21,5,1.878,139.93,-7.056832712,1.38,131.1,122.79,2.12,5.45,21.6,0.01,3.5,3.51,88,37,478.9,15.9,-2.3,D,853.8,1,21.688,2,1.91,174,127.34,-80.13757133,25.91253107,0,0,1,N,2.320331,70,70,11,105,105,117.245,0,9999.99,3.52,3.647,2,9,21.6,0,21.5,36.16,1526.81135,1/30/21,12:20:27,21.75,54.54,36.16,1.143,8.47,-85.8,-2.5,-1,-1194,94.8,6.75,12.7,
25.91264236,-80.13773781,41:34.2,1/30/21,6,1.876,133.93,-7.056832712,1.38,129.3,121.12,1.68,4.71,21.6,0.01,3.55,3.55,88,37,478.9,15.9,-2.3,D,853.8,1,20.746,2,1.91,174,126.62,-80.13757133,25.91253107,0,0,1,N,2.483243,67,67,11,107,107,116.1747,0,9999.99,3.56,3.687,2,9,21.6,0,21.60000038,36.17,1527.08539,1/30/21,12:20:28,21.75,54.56,36.17,1.168,8.51,-87.8,-3.2,-1.5,-2647,94.7,6.74,12.7,
25.91263553,-80.13773012,41:35.2,1/30/21,6,1.958,129.8,-7.056832712,1.38,128.8,120.65,1.12,3.33,21.6,0.01,3.61,3.62,88,37,478.9,15.9,-2.3,D,853.8,1,19.676,2,1.93,174,126.18,-80.13757133,25.91253107,0,0,1,N,2.503127,65,65,11,109,109,116.0449,0,9999.99,3.62,3.747,2,9,21.6,0,21.60000038,36.17,1527.08539,1/30/21,12:20:28,21.75,54.56,36.17,1.168,8.51,-87.8,-3.2,-1.5,-2647,94.7,6.74,12.7,
25.912629,-80.13772416,41:36.2,1/30/21,6,2,127.16,-7.056832712,1.38,128.6,120.47,0.73,2.97,21.6,0.01,3.64,3.65,88,37,478.8,15.9,-2.3,D,842.9,1,18.768,2,1.96,174,125.47,-80.13757133,25.91253107,0,0,1,N,2.621426,61,61,11,106,106,115.2769,0,9999.99,3.65,3.777,2,9,21.6,0,21.60000038,36.19,1527.10782,1/30/21,12:20:30,21.76,54.59,36.19,1.182,8.47,-85.9,-1.7,-2.9,-2103,94.4,6.72,12.7,
25.91262243,-80.137715,41:37.2,1/30/21,6,1.951,124.89,-7.056832712,1.38,127.8,119.73,0.82,3.21,21.6,0,3.66,3.66,88,37,478.8,15.9,-2.3,D,842.9,1,17.598,2,1.94,174,125.26,-80.13757133,25.91253107,0,0,1,N,2.526984,63,63,11,112,112,115.8896,0,9999.99,3.67,3.797,2,9,21.6,0,21.60000038,36.19,1527.10782,1/30/21,12:20:30,21.76,54.59,36.19,1.182,8.47,-85.9,-1.7,-2.9,-2103,94.4,6.72,12.7,
25.91261629,-80.1377074,41:38.2,1/30/21,6,1.974,123.63,-7.056832712,1.38,126.5,118.52,1.01,2.96,21.6,0,3.65,3.66,88,37,478.8,15.9,-2.3,D,842.9,1,16.583,2,1.98,174,124.85,-80.13757133,25.91253107,0,0,1,N,2.510795,63,63,11,117,117,115.9951,0,9999.99,3.66,3.787,2,9,21.6,0,21.60000038,36.19,1527.10731,1/30/21,12:20:31,21.76,54.59,36.19,1.178,8.5,-87.5,-3.3,-1.8,-4422,94.2,6.71,12.7,
25.91261078,-80.13770042,41:39.3,1/30/21,6,1.966,122.82,-7.056832712,1.38,127.4,119.36,0.65,3.28,21.6,0.01,3.68,3.69,88,37,478.8,15.9,-2.3,D,849.7,1,15.661,2,1.97,174,124.47,-80.13757133,25.91253107,0,0,1,N,2.465195,61,61,11,115,115,116.2929,0,9999.99,3.69,3.817,2,9,21.6,0,21.60000038,36.18,1527.09634,1/30/21,12:20:32,21.76,54.57,36.18,1.19,8.53,-89.5,-3.1,0.7,-212,94.2,6.7,12.7,
25.91260491,-80.13769215,41:40.3,1/30/21,6,1.982,122.06,-7.056832712,1.38,127.6,119.54,0.37,2.92,21.6,0.01,3.76,3.76,88,37,478.8,15.9,-2.3,D,849.7,1,14.609,2,2,174,124.19,-80.13757133,25.91253107,0,0,1,N,2.373173,59,59,11,116,116,116.8968,0,9999.99,3.76,3.887,2,9,21.6,0,21.60000038,36.19,1527.10803,1/30/21,12:20:33,21.76,54.59,36.19,1.178,8.48,-86,-3.1,-4.6,-3552,94,6.69,12.5,
25.91259928,-80.13768381,41:41.3,1/30/21,6,1.991,121.91,-7.056832712,1.38,126.8,118.8,0.58,4.45,21.7,0,3.77,3.78,88,37,478.8,15.9,-2.3,D,849.7,1,13.569,2,2.01,174,123.99,-80.13757133,25.91253107,0,0,1,N,2.256585,60,60,11,122,122,117.6673,0,9999.99,3.78,3.907,2,9,21.6,0,21.60000038,36.19,1527.10732,1/30/21,12:20:35,21.77,54.58,36.19,1.192,8.53,-89.3,-2.5,-3.9,-3780,93.8,6.67,12.6,
25.91259385,-80.1376758,41:42.3,1/30/21,6,2.02,121.54,-7.056832712,1.38,127.2,119.17,0.73,2.95,21.6,0.01,3.8,3.8,88,37,478.8,15.9,-2.3,D,849.7,1,12.566,2,1.99,174,123.75,-80.13757133,25.91253107,0,0,1,N,2.140442,61,61,11,124,124,118.4406,0,9999.99,3.8,3.927,2,9,21.6,0,21.60000038,36.19,1527.10732,1/30/21,12:20:35,21.77,54.58,36.19,1.192,8.53,-89.3,-2.5,-3.9,-3780,93.8,6.67,12.6,
25.91258808,-80.13766696,41:43.3,1/30/21,6,2.005,121.89,-7.056832712,1.38,127.6,119.54,0.74,2.97,21.6,0.01,3.83,3.83,77,37,478.8,15.9,-2.3,D,845.3,1,11.475,2,1.98,174,123.54,-80.13757133,25.91253107,0,0,1,N,1.997417,61,61,11,126,126,119.4007,0,9999.99,3.83,3.957,2,9,21.6,0,21.60000038,36.18,1527.09647,1/30/21,12:20:36,21.77,54.57,36.18,1.202,8.48,-86.1,-2.5,-3.9,-3843,93.6,6.66,12.8,
25.91258287,-80.13765918,41:44.3,1/30/21,6,2.002,122.23,-7.056832712,1.38,128.8,120.65,0.81,2.8,21.6,0.01,3.85,3.86,77,37,478.8,15.9,-2.3,D,845.3,1,10.506,2,2.02,174,123.24,-80.13757133,25.91253107,0,0,1,N,1.886576,62,62,11,126,126,120.1503,0,9999.99,3.86,3.987,2,9,21.6,0,21.60000038,36.2,1527.11849,1/30/21,12:20:38,21.77,54.6,36.2,1.178,8.54,-89.7,-2.5,-3.8,-6517,93.5,6.65,12.7,
25.91257768,-80.13765112,41:45.3,1/30/21,6,1.962,122.45,-7.056832712,1.38,129.4,121.21,0.35,3.01,21.6,0.01,3.85,3.86,77,37,478.8,15.9,-2.3,D,845.3,1,9.516,2,2.04,174,123,-80.13757133,25.91253107,0,0,1,N,1.752304,59,59,11,126,126,121.0653,0,9999.99,3.86,3.987,2,9,21.6,0,21.60000038,36.2,1527.11849,1/30/21,12:20:38,21.77,54.6,36.2,1.178,8.54,-89.7,-2.5,-3.8,-6517,93.5,6.65,12.7,
25.91257234,-80.13764246,41:46.3,1/30/21,6,2.009,122.99,-7.056832712,1.38,129.3,121.12,1.04,3.73,21.6,0,3.87,3.87,77,37,478.8,15.9,-2.3,D,845.3,1,8.465,2,1.99,174,122.82,-80.13757133,25.91253107,0,0,1,N,1.583675,63,63,11,131,131,122.2222,0,9999.99,3.87,3.997,2,9,21.6,0,21.60000038,36.19,1527.10741,1/30/21,12:20:39,21.77,54.58,36.19,1.171,8.46,-85.3,-2.6,-2.2,-3823,93.4,6.65,12.7,
25.91256679,-80.13763438,41:47.3,1/30/21,6,1.965,123.5,-7.056832712,1.38,130.8,122.51,0.78,3.12,21.5,0.01,3.87,3.88,88,37,478.8,15.9,-2.3,D,851.1,1,7.452,2,2.01,174,122.21,-80.13757133,25.91253107,0,0,1,N,1.477664,62,62,11,130,130,122.9549,0,9999.99,3.88,4.007,2,9,21.6,0,21.60000038,36.19,1527.10755,1/30/21,12:20:41,21.78,54.59,36.19,1.187,8.54,-89.9,-3.7,-2.5,-3704,93.2,6.63,12.6,
25.91256135,-80.13762596,41:48.3,1/30/21,6,1.986,123.97,-7.056832712,1.38,130.8,122.51,0.37,3.64,21.5,0.01,3.87,3.87,88,37,478.8,15.9,-2.3,D,851.1,1,6.419,2,2.01,174,121.64,-80.13757133,25.91253107,0,0,1,N,1.33794,59,59,11,133,133,123.9248,0,9999.99,3.87,3.997,2,9,21.6,0,21.60000038,36.19,1527.10761,1/30/21,12:20:42,21.78,54.59,36.19,1.187,8.46,-85.3,-3.6,-2.3,-2805,93.1,6.62,12.6,
25.91255686,-80.1376188,41:49.3,1/30/21,6,1.986,123.64,-7.056832712,1.38,130.9,122.6,0.81,3.33,21.5,0,3.89,3.89,88,37,478.8,15.9,-2.3,D,851.1,2,21.918,2,1.99,174,148,-80.13750269,25.91238969,0,0,1,N,1.211255,61,61,11,191,191,138.6975,0,9999.99,3.89,4.017,2,9,21.6,0,21.60000038,36.19,1527.10761,1/30/21,12:20:42,21.78,54.59,36.19,1.187,8.46,-85.3,-3.6,-2.3,-2805,93.1,6.62,12.6,
25.91255177,-80.13761178,41:50.3,1/30/21,6,1.961,125.22,-7.056832712,1.38,135,126.42,0.37,9.2,21.6,0,3.89,3.9,88,37,478.8,15.9,-2.3,D,849.5,2,21.067,2,1.98,174,148.81,-80.13750269,25.91238969,0,0,1,N,2.844414,59,59,11,194,194,143.0753,0,9999.99,3.9,4.027,2,9,21.6,0,21.60000038,36.19,1527.10735,1/30/21,12:20:43,21.78,54.59,36.19,1.195,8.51,-87.9,-3.3,-4.6,-5409,93,6.62,12.7,
25.91254642,-80.13760351,41:51.3,1/30/21,6,1.883,123.9,-7.056832712,1.38,139.9,131,1.49,-0.03,21.6,0,3.92,3.93,88,37,478.8,15.9,-2.3,D,849.5,2,20.135,2,1.92,174,149.95,-80.13750269,25.91238969,0,0,1,N,2.32197,64,64,11,186,186,144.6064,0,9999.99,3.93,4.057,2,9,21.6,0,21.60000038,36.22,1527.1405,1/30/21,12:20:45,21.78,54.63,36.22,1.173,8.46,-85,-2.6,-6.5,-2556,93,6.61,12.4,
25.9125407,-80.13759719,41:52.3,1/30/21,6,1.836,128.53,-7.056832712,1.38,146.3,137.01,2.04,2.79,21.6,0.01,3.91,3.92,88,37,478.8,15.9,-2.3,D,849.5,2,19.268,2,1.91,174,150.63,-80.13750269,25.91238969,0,0,1,N,1.983656,69,69,11,161,161,145.4523,0,9999.99,3.93,4.057,2,9,21.6,0,21.60000038,36.22,1527.1405,1/30/21,12:20:45,21.78,54.63,36.22,1.173,8.46,-85,-2.6,-6.5,-2556,93,6.61,12.4,
25.9125348,-80.13759145,41:53.3,1/30/21,6,1.84,132.2,-7.056832712,1.38,149.8,140.33,2.48,1.98,21.6,0.01,3.91,3.92,88,37,478.8,15.9,-2.3,D,849.5,2,18.416,2,1.89,174,151.18,-80.13750269,25.91238969,0,0,1,N,1.706968,72,72,11,150,150,146.0776,0,9999.99,3.93,4.057,2,9,21.7,0,21.60000038,36.19,1527.10792,1/30/21,12:20:47,21.78,54.59,36.19,1.153,8.53,-89,-2.8,-4.1,-2350,92.9,6.61,12.7,
25.91252686,-80.13758458,41:54.3,1/30/21,6,1.825,134.68,-7.056832712,1.38,152.7,143.09,2.27,3.06,21.6,0.02,3.93,3.94,88,37,478.7,15.9,-2.3,D,853.9,2,17.312,2,1.87,175,151.77,-80.13750269,25.91238969,0,0,1,N,1.426859,71,71,11,141,141,146.5647,0,9999.99,3.95,4.077,2,9,21.7,0,21.60000038,36.19,1527.10792,1/30/21,12:20:47,21.78,54.59,36.19,1.153,8.53,-89,-2.8,-4.1,-2350,92.9,6.61,12.7,
25.91252009,-80.13757988,41:55.3,1/30/21,6,1.814,139.98,-7.056832712,1.38,155.2,145.48,1.82,3.37,21.5,0.01,3.95,3.96,88,37,478.7,15.9,-2.3,D,853.9,2,16.427,2,1.9,175,151.97,-80.13750269,25.91238969,0,0,1,N,1.297568,68,68,11,134,134,147.2017,0,9999.99,3.97,4.097,2,9,21.7,0,21.70000076,36.19,1527.37097,1/30/21,12:20:48,21.77,54.59,36.19,1.153,8.46,-85.1,-3.6,-0.8,-3909,92.9,6.61,12.7,
25.9125127,-80.13757501,41:56.3,1/30/21,6,1.887,144.57,-7.056832712,1.38,156.8,147.01,1.43,3.11,21.6,0,3.95,3.96,88,37,478.7,15.9,-2.3,D,853.9,2,15.473,2,1.92,175,152.13,-80.13750269,25.91238969,0,0,1,N,1.181813,66,66,11,131,131,148.0067,0,9999.99,3.97,4.097,2,9,21.7,0,21.70000076,36.19,1527.3702,1/30/21,12:20:50,21.77,54.59,36.19,1.18,8.49,-86.8,-3.2,-6.6,-3487,92.8,6.6,12.7,
25.91250592,-80.13757089,41:57.4,1/30/21,7,1.889,146.42,-7.056832712,1.28,158.5,148.65,1.05,2.75,21.6,0.01,3.97,3.97,88,38,478.7,15.9,-2.3,D,837.3,2,14.614,2,1.92,175,152.17,-80.13750269,25.91238969,0,0,1,N,1.095692,64,64,11,129,129,148.6113,0,9999.99,3.98,4.107,2,9,21.7,0,21.70000076,36.19,1527.3702,1/30/21,12:20:50,21.77,54.59,36.19,1.18,8.49,-86.8,-3.2,-6.6,-3487,92.8,6.6,12.7,
25.91249734,-80.13756654,41:58.4,1/30/21,7,1.939,148.32,-7.056832712,1.28,159.8,149.9,1.16,2.75,21.7,0,3.98,3.98,88,38,478.7,15.9,-2.3,D,837.3,2,13.568,2,1.93,175,151.92,-80.13750269,25.91238969,0,0,1,N,1.076147,64,64,11,122,122,148.7484,0,9999.99,3.99,4.117,2,9,21.7,0,21.70000076,36.2,1527.38127,1/30/21,12:20:51,21.76,54.6,36.2,1.176,8.44,-84.1,-3.2,-5.8,-2739,92.8,6.6,12.6,
25.91248909,-80.13756259,41:59.4,1/30/21,7,1.92,150.17,-7.056832712,1.28,160.5,150.58,0.62,3.05,21.6,0.01,3.99,4,88,38,478.7,15.9,-2.3,D,837.3,2,12.572,2,1.95,175,151.54,-80.13750269,25.91238969,0,0,1,N,1.078498,61,61,11,120,120,148.7319,0,9999.99,4,4.127,2,9,21.7,0,21.70000076,36.2,1527.38121,1/30/21,12:20:52,21.77,54.61,36.2,1.171,8.49,-86.7,-2.5,-0.9,-2627,92.8,6.6,12.7,
25.91248105,-80.13755909,42:00.4,1/30/21,7,1.974,153.12,-7.056832712,1.28,161.1,151.16,0.73,3.98,21.6,0,3.99,4,88,38,478.7,15.9,-2.3,D,837.3,2,11.62,2,1.98,175,150.96,-80.13750269,25.91238969,0,0,1,N,1.116171,61,61,11,116,116,148.4667,0,9999.99,4,4.127,2,9,21.7,0,21.70000076,36.2,1527.38145,1/30/21,12:20:54,21.77,54.6,36.2,1.2,8.47,-85.7,-2.3,-5.3,-4100,92.6,6.59,12.7,
25.91247192,-80.1375551,42:01.4,1/30/21,7,1.971,154.48,-7.056832712,1.28,161.6,151.64,0.54,2.81,21.6,0,4.01,4.01,88,38,478.7,15.9,-2.3,D,831.6,2,10.54,2,1.97,175,150.17,-80.13750269,25.91238969,0,0,1,N,1.155079,60,60,11,113,113,148.1937,0,9999.99,4.01,4.137,2,9,21.7,0,21.70000076,36.2,1527.38145,1/30/21,12:20:54,21.77,54.6,36.2,1.2,8.47,-85.7,-2.3,-5.3,-4100,92.6,6.59,12.7,
25.91246492,-80.13755225,42:02.4,1/30/21,8,1.939,154.98,-7.056832712,1.28,162.1,152.13,0.55,3.31,21.6,0,4,4.01,88,38,478.7,15.9,-2.3,D,831.6,2,9.723,2,1.93,175,149.35,-80.13750269,25.91238969,0,0,1,N,1.206183,60,60,11,113,113,147.8354,0,9999.99,4.01,4.137,2,9,21.7,0,21.70000076,36.19,1527.37019,1/30/21,12:20:55,21.77,54.59,36.19,1.175,8.48,-86.2,-1.8,-6,-4011,92.6,6.59,12.7,
25.91245573,-80.13754832,42:03.4,1/30/21,8,1.951,155.47,-7.056832712,1.28,161.5,151.54,0.35,3.52,21.6,0.01,4.01,4.01,88,38,478.7,15.9,-2.3,D,831.6,2,8.645,2,1.95,175,148.14,-80.13750269,25.91238969,0,0,1,N,1.25686,59,59,11,112,112,147.4811,0,9999.99,4.01,4.137,2,9,21.7,0,21.70000076,36.21,1527.39226,1/30/21,12:20:56,21.76,54.62,36.21,1.211,8.5,-87.6,-4.2,-2,-537,92.5,6.58,12.7,
25.91244699,-80.1375448,42:04.4,1/30/21,8,2.069,156.09,-7.056832712,1.28,162.4,152.42,0.41,2.57,21.6,0,4.03,4.03,88,38,478.6,15.9,-2.4,D,819.3,2,7.638,2,1.96,175,146.54,-80.13750269,25.91238969,0,0,1,N,1.320089,60,60,11,106,106,147.0393,0,9999.99,4.03,4.157,2,9,21.7,0,21.70000076,36.21,1527.3925,1/30/21,12:20:58,21.76,54.62,36.21,1.215,8.48,-86.3,-2.4,-1.7,-1800,92.5,6.58,12.9,
25.91243752,-80.13754096,42:05.4,1/30/21,8,2.04,156.97,-7.056832712,1.28,162.3,152.32,0.56,3.67,21.6,0,4.04,4.04,88,38,478.6,15.9,-2.4,D,819.3,2,6.553,2,1.98,175,144.26,-80.13750269,25.91238969,0,0,1,N,1.390388,60,60,11,104,104,146.5496,0,9999.99,4.04,4.167,2,9,21.7,0,21.70000076,36.21,1527.3925,1/30/21,12:20:58,21.76,54.62,36.21,1.215,8.48,-86.3,-2.4,-1.7,-1800,92.5,6.58,12.9,
25.91242813,-80.13753699,42:06.4,1/30/21,8,2.002,156.78,-7.056832712,1.28,162.4,152.42,0.21,2.34,21.6,0,4.04,4.05,88,38,478.6,15.9,-2.4,D,819.3,2,5.481,2,1.97,175,141.25,-80.13750269,25.91238969,0,0,1,N,1.442936,58,58,11,102,102,146.184,0,9999.99,4.05,4.177,2,9,21.7,0,21.70000076,36.21,1527.39205,1/30/21,12:20:59,21.76,54.61,36.21,1.196,8.5,-87.4,-3.9,-1.4,-2589,92.5,6.58,12.7,
25.91241926,-80.13753337,42:07.4,1/30/21,8,2.058,156.27,-7.056832712,1.28,162.1,152.13,0.43,3,21.6,0.01,4.04,4.04,88,38,478.6,15.9,-2.4,D,819.3,3,18.832,2,1.98,175,136.41,-80.13740356,25.91229659,0,0,1,N,8.82E-02,61,61,11,64,64,136.6486,0,9999.99,4.04,4.167,2,9,21.7,0,21.70000076,36.2,1527.38139,1/30/21,12:21:01,21.76,54.61,36.2,1.225,8.47,-85.9,-3.8,-4.8,-1938,92.5,6.58,12.6,
25.91241071,-80.13752963,42:08.4,1/30/21,8,2.036,156.29,-7.056832712,1.28,159.6,149.71,0.53,1.57,21.6,0,4.04,4.05,88,38,478.6,15.9,-2.4,D,818.5,3,17.889,2,1.97,175,135.18,-80.13740356,25.91229659,0,0,1,N,0.3067431,60,60,11,67,67,134.6929,0,9999.99,4.05,4.177,2,9,21.7,0,21.70000076,36.2,1527.38139,1/30/21,12:21:01,21.76,54.61,36.2,1.225,8.47,-85.9,-3.8,-4.8,-1938,92.5,6.58,12.6,
25.91240038,-80.13752486,42:09.4,1/30/21,8,2.059,157.34,-7.056832712,1.28,156,146.24,0.71,4.18,21.7,0.01,4.03,4.04,88,38,478.6,15.9,-2.4,D,818.5,3,16.745,2,2.07,175,133.57,-80.13740356,25.91229659,0,0,1,N,0.7560227,61,61,11,70,70,132.0419,0,9999.99,4.04,4.167,2,9,21.7,0,21.70000076,36.21,1527.39225,1/30/21,12:21:03,21.76,54.62,36.21,1.219,8.54,-89.7,-2.4,-0.5,-4973,92.4,6.58,12.8,
25.91239182,-80.13752096,42:10.4,1/30/21,8,2.06,156.02,-7.056832712,1.28,154.1,144.43,0.8,3.51,21.7,0,4.06,4.07,88,38,478.6,15.9,-2.4,D,818.5,3,15.812,2,2.05,175,132.04,-80.13740356,25.91229659,0,0,1,N,1.137922,62,62,11,67,67,129.3471,0,9999.99,4.07,4.197,2,9,21.7,0,21.70000076,36.21,1527.39225,1/30/21,12:21:03,21.76,54.62,36.21,1.219,8.54,-89.7,-2.4,-0.5,-4973,92.4,6.58,12.8,
25.91238337,-80.13751579,42:11.4,1/30/21,8,2.048,152.83,-7.056832712,1.28,150,140.52,0.69,3.41,21.7,0.01,4.06,4.07,88,39,478.6,15.9,-2.4,D,797.2,3,14.802,2,2.04,175,130.68,-80.13740356,25.91229659,0,0,1,N,1.425291,61,61,11,72,72,126.6727,0,9999.99,4.07,4.197,2,9,21.7,0,21.70000076,36.21,1527.39229,1/30/21,12:21:04,21.76,54.62,36.21,1.193,8.46,-85.1,-4,-0.7,-2521,92.4,6.57,12.7,
25.91237537,-80.13751007,42:12.4,1/30/21,8,2.028,149.78,-7.056832712,1.28,146.8,137.49,1,4.55,21.6,0.01,4.09,4.09,88,39,478.6,15.9,-2.4,D,797.2,3,13.792,2,2.02,175,129.43,-80.13740356,25.91229659,0,0,1,N,1.635109,63,63,11,76,76,124.6837,0,9999.99,4.09,4.217,2,9,21.7,0,21.70000076,36.21,1527.39261,1/30/21,12:21:06,21.76,54.62,36.21,1.214,8.54,-89.7,-3.8,-6.5,-1378,92.3,6.56,12.7,
25.9123679,-80.13750418,42:13.4,1/30/21,8,2.056,146.71,-7.056832712,1.28,144.2,135.03,1.02,4.17,21.6,0.01,4.08,4.09,88,39,478.6,15.9,-2.4,D,797.2,3,12.812,2,2.01,175,128.24,-80.13740356,25.91229659,0,0,1,N,1.791162,63,63,11,81,81,123.6161,0,9999.99,4.09,4.217,2,9,21.7,0,21.70000076,36.21,1527.39261,1/30/21,12:21:06,21.76,54.62,36.21,1.214,8.54,-89.7,-3.8,-6.5,-1378,92.3,6.56,12.7,
25.91236038,-80.13749771,42:14.4,1/30/21,8,2.062,144,-7.056832712,1.28,140.9,131.93,0.79,4.87,21.7,0.01,4.07,4.08,88,39,478.6,15.9,-2.4,D,797.2,3,11.79,2,2.02,175,126.99,-80.13740356,25.91229659,0,0,1,N,1.906591,62,62,11,91,91,122.8309,0,9999.99,4.08,4.207,2,9,21.7,0,21.70000076,36.23,1527.41493,1/30/21,12:21:08,21.76,54.64,36.23,1.194,8.47,-85.6,-2.3,-5.3,-3148,92.2,6.56,12.7,
25.91235296,-80.13749067,42:15.4,1/30/21,7,2.026,140.66,-7.056832712,1.29,138.9,130.06,0.64,4.66,21.7,0,4.09,4.1,88,39,478.6,15.9,-2.4,D,798.7,3,10.732,2,2.03,175,125.73,-80.13740356,25.91229659,0,0,1,N,1.972045,61,61,11,96,96,122.3901,0,9999.99,4.1,4.227,2,9,21.7,0,21.70000076,36.23,1527.41493,1/30/21,12:21:08,21.76,54.64,36.23,1.194,8.47,-85.6,-2.3,-5.3,-3148,92.2,6.56,12.7,
25.912346,-80.13748346,42:16.4,1/30/21,8,2.123,137.96,-7.056832712,1.29,136.9,128.19,0.93,3.52,21.6,0,4.11,4.11,88,39,478.6,15.9,-2.4,D,798.7,3,9.698,2,2.08,175,124.51,-80.13740356,25.91229659,0,0,1,N,1.988869,63,63,11,102,102,122.2758,0,9999.99,4.11,4.237,2,9,21.7,0,21.70000076,36.22,1527.40319,1/30/21,12:21:09,21.76,54.62,36.22,1.195,8.48,-86.5,-3.6,-5,-3334,92.2,6.56,12.7,
25.91233915,-80.13747572,42:17.4,1/30/21,8,2.045,134.5,-7.056832712,1.29,136.1,127.44,0.65,4.75,21.7,0,4.11,4.11,88,39,478.6,15.9,-2.4,D,798.7,3,8.631,2,2.08,175,123.25,-80.13740356,25.91229659,0,0,1,N,1.959915,62,62,11,107,107,122.4716,0,9999.99,4.11,4.237,2,9,21.7,0,21.70000076,36.19,1527.37008,1/30/21,12:21:11,21.75,54.59,36.19,1.184,8.46,-85.3,-3.5,-3.4,-4093,92.1,6.55,12.7,
25.91233247,-80.13746712,42:18.4,1/30/21,8,2.014,132.59,-7.056832712,1.29,135,126.42,0.8,4.28,21.6,0.01,4.1,4.11,88,39,478.6,15.9,-2.4,D,798.7,3,7.505,2,2.05,175,122.11,-80.13740356,25.91229659,0,0,1,N,1.852905,62,62,11,114,114,123.1969,0,9999.99,4.11,4.237,2,9,21.7,0,21.70000076,36.17,1527.34821,1/30/21,12:21:12,21.75,54.56,36.17,1.199,8.48,-86.3,-4,-4.1,-5067,92,6.55,12.7,
25.91232739,-80.13746172,42:19.4,1/30/21,8,2.028,131.72,-7.056832712,1.29,134.9,126.32,0.62,3.95,21.6,0,4.13,4.13,88,38,478.5,15.9,-2.4,D,817,3,6.751,2,2.01,175,120.49,-80.13740356,25.91229659,0,0,1,N,1.850716,61,61,11,115,115,123.2127,0,9999.99,4.13,4.257,2,9,21.7,0,21.70000076,36.16,1527.33725,1/30/21,12:21:13,21.74,54.55,36.16,1.206,8.49,-87.1,-4.2,-3.8,-2716,92,6.55,12.5,
25.91231969,-80.13745251,42:20.4,1/30/21,8,2.045,131.18,-7.056832712,1.29,134.5,125.95,0.76,3.62,21.7,0,4.12,4.13,88,38,478.5,15.9,-2.4,D,817,3,5.529,2,2,175,117.68,-80.13740356,25.91229659,0,0,1,N,1.780146,62,62,11,118,118,123.6934,0,9999.99,4.13,4.257,2,9,21.7,0,21.70000076,36.16,1527.33725,1/30/21,12:21:13,21.74,54.55,36.16,1.206,8.49,-87.1,-4.2,-3.8,-2716,92,6.55,12.5,
25.91231302,-80.13744483,42:21.4,1/30/21,8,2.021,131.26,-7.056832712,1.29,134.8,126.23,0.56,3.88,21.6,0,4.13,4.14,88,38,478.5,15.9,-2.4,D,817,3,4.513,2,2.01,175,113.87,-80.13740356,25.91229659,0,0,1,N,1.738763,60,60,11,118,118,123.9757,0,9999.99,4.14,4.267,2,9,21.7,0,21.70000076,36.16,1527.33675,1/30/21,12:21:14,21.74,54.55,36.16,1.196,8.51,-88.2,-4.4,-3.8,-3038,92,6.55,12.7,
25.9123062,-80.13743668,42:22.4,1/30/21,8,2.06,131.29,-7.056832712,1.29,137.9,129.12,-0.23,11.5,21.6,0.01,4.13,4.14,88,38,478.5,15.9,-2.3,D,832.3,4,12.268,2,2.02,175,173.42,-80.13742262,25.91219659,0,0,1,N,3.545654,56,56,11,250,250,167.4162,0,9999.99,4.14,4.267,2,9,21.7,0,21.70000076,36.18,1527.35918,1/30/21,12:21:15,21.75,54.57,36.18,1.204,8.47,-85.8,-3.4,-0.5,-1672,92.1,6.55,12.7,
25.91229946,-80.1374292,42:23.5,1/30/21,8,1.9,129.51,-7.056832712,1.29,145.1,135.88,1.28,-2.35,21.6,0,4.19,4.19,88,38,478.5,15.9,-2.3,D,832.3,4,11.458,2,1.98,175,176.71,-80.13742262,25.91219659,0,0,1,N,2.684481,65,65,11,250,250,171.2019,0,9999.99,4.19,4.317,2,9,21.7,0,21.70000076,36.15,1527.32583,1/30/21,12:21:17,21.75,54.53,36.15,1.202,8.53,-89,-3.5,-5.1,-2951,92,6.55,12.7,
25.9122928,-80.13742268,42:24.5,1/30/21,8,1.822,132.15,-7.056832712,1.29,152.6,142.99,3.11,4.44,21.6,0.01,4.13,4.14,88,38,478.5,15.9,-2.3,D,832.3,4,10.698,2,1.87,175,179.97,-80.13742262,25.91219659,0,0,1,N,1.901161,76,76,11,250,250,176.3624,0,9999.99,4.15,4.277,2,9,21.7,0,21.70000076,36.15,1527.32583,1/30/21,12:21:17,21.75,54.53,36.15,1.202,8.53,-89,-3.5,-5.1,-2951,92,6.55,12.7,
25.91228626,-80.13741834,42:25.5,1/30/21,8,1.782,134.38,-7.056832712,1.29,163.3,153.29,3.34,2.32,21.7,0.02,4.13,4.15,88,38,478.5,15.9,-2.3,D,832.3,4,9.98,2,1.8,175,182.46,-80.13742262,25.91219659,0,0,1,N,1.324349,76,76,11,241,241,180.3304,0,9999.99,4.16,4.287,2,9,21.7,0,21.70000076,36.16,1527.33762,1/30/21,12:21:18,21.74,54.54,36.16,1.177,8.46,-85.3,-3.9,-3.9,-3278,92,6.55,12.7,
25.91227987,-80.13741461,42:26.5,1/30/21,8,1.693,139.23,-7.056832712,1.29,171.6,161.41,3.83,4.1,21.6,0.01,4.15,4.16,88,39,478.5,15.9,-2.4,D,807.9,4,9.295,2,1.73,175,184.94,-80.13742262,25.91219659,0,0,1,N,0.8196185,80,80,11,217,217,183.8786,0,9999.99,4.18,4.307,2,9,21.7,0,21.70000076,36.15,1527.32677,1/30/21,12:21:20,21.73,54.53,36.15,1.147,8.53,-89.4,-3.8,0.4,-1952,91.9,6.55,12.7,
25.9122725,-80.13741183,42:27.5,1/30/21,8,1.647,150.45,-7.056832712,1.29,181.1,170.87,3.49,1.75,21.7,0.01,4.16,4.17,88,39,478.5,15.9,-2.4,D,807.9,4,8.51,2,1.69,176,187.28,-80.13742262,25.91219659,0,0,1,N,0.3959763,78,78,11,191,191,186.8944,0,9999.99,4.19,4.317,2,9,21.7,0,21.70000076,36.15,1527.3268,1/30/21,12:21:21,21.73,54.53,36.15,1.144,8.45,-84.7,-4.3,-5,-1854,91.9,6.55,12.5,
25.91226386,-80.13741068,42:28.5,1/30/21,8,1.635,161.77,-7.056832712,1.29,189.6,179.46,2.93,2.36,21.7,0.01,4.15,4.16,88,39,478.5,15.9,-2.4,D,807.9,4,7.575,2,1.67,176,189.07,-80.13742262,25.91219659,0,0,1,N,0.103505,75,75,11,165,165,188.9868,0,9999.99,4.18,4.307,2,9,21.7,0,21.70000076,36.15,1527.32652,1/30/21,12:21:22,21.73,54.54,36.15,1.151,8.5,-87.4,-3.6,-1.4,-3533,91.9,6.55,12.7,
25.91225713,-80.137411,42:29.5,1/30/21,8,1.703,167.48,-7.056832712,1.29,194,183.96,2,0.76,21.6,0.01,4.18,4.19,88,39,478.4,15.9,-2.4,D,802.4,4,6.831,2,1.66,176,189.8,-80.13742262,25.91219659,0,0,1,N,1.12E-03,69,69,11,150,150,189.7362,0,9999.99,4.21,4.337,2,9,21.7,0,21.70000076,36.15,1527.32648,1/30/21,12:21:23,21.73,54.53,36.15,1.158,8.52,-88.6,-4.2,-5.2,-1319,91.9,6.54,12.7,
25.91224665,-80.13741249,42:30.5,1/30/21,8,1.818,174.75,-7.056832712,1.29,196.4,186.42,1.24,2.38,21.6,0.01,4.19,4.2,88,39,478.4,15.9,-2.4,D,802.4,5,14.823,2,1.73,176,156.75,-80.13735399,25.91212417,0,0,1,N,5.38E-02,64,64,11,73,73,172.8596,0,9999.99,4.21,4.337,2,9,21.7,0,21.70000076,36.16,1527.33706,1/30/21,12:21:24,21.73,54.55,36.16,1.169,8.44,-83.9,-4.3,-0.8,-693,91.9,6.54,12.7,
25.91223824,-80.13741432,42:31.5,1/30/21,8,1.838,182.98,-7.056832712,1.29,195.8,185.8,0.69,-5.98,21.7,0,4.2,4.2,88,39,478.4,15.9,-2.4,D,802.4,5,14.046,2,1.78,177,154.56,-80.13735399,25.91212417,0,0,1,N,3.721503,61,61,11,18,18,159.8386,0,9999.99,4.21,4.337,2,9,21.7,0,21.70000076,36.16,1527.3366,1/30/21,12:21:25,21.73,54.55,36.16,1.165,8.46,-85.3,-3.7,-3.9,-3851,91.8,6.54,12.6,
25.91222928,-80.13741612,42:32.5,1/30/21,8,1.916,189.85,-7.056832712,1.29,189.6,179.46,0.92,6.3,21.7,0,4.18,4.19,88,39,478.4,15.9,-2.4,D,802.4,5,13.238,2,1.8,177,152,-80.13735399,25.91212417,0,0,1,N,2.917616,63,63,11,35,35,156.5076,0,9999.99,4.19,4.317,2,9,21.7,0,21.70000076,36.16,1527.33656,1/30/21,12:21:26,21.73,54.55,36.16,1.21,8.47,-85.9,-3.2,-2.4,-3021,91.8,6.54,12.8,
25.91221996,-80.13741791,42:33.5,1/30/21,8,1.951,190.54,-7.056832712,1.29,183.5,173.28,1.87,3.47,21.7,0.01,4.18,4.18,88,42,478.4,15.9,-2.6,D,744.1,5,12.422,2,1.85,177,149.03,-80.13735399,25.91212417,0,0,1,N,2.104579,68,68,11,40,40,151.4842,0,9999.99,4.19,4.317,2,9,21.7,0,21.70000076,36.21,1527.39237,1/30/21,12:21:27,21.73,54.61,36.21,1.169,8.44,-84,-3.6,-5.6,-3194,91.8,6.53,12.7,
25.91221046,-80.13741817,42:34.5,1/30/21,8,1.927,187.01,-7.056832712,1.29,175.3,165.08,2.12,6,21.7,0.01,4.17,4.18,88,42,478.4,15.9,-2.6,D,744.1,5,11.545,2,1.83,177,146.22,-80.13735399,25.91212417,0,0,1,N,1.391225,70,70,11,60,60,148.2325,0,9999.99,4.19,4.317,2,9,21.7,0,21.70000076,36.22,1527.40344,1/30/21,12:21:28,21.73,54.63,36.22,1.165,8.46,-84.9,-3.3,-2.7,-2035,91.8,6.53,12.7,
25.91220205,-80.13741683,42:35.6,1/30/21,8,1.959,181.25,-7.056832712,1.29,167.7,157.58,2.28,5.93,21.6,0.01,4.16,4.16,88,42,478.4,15.9,-2.6,D,744.1,5,10.7,2,1.88,177,144.03,-80.13735399,25.91212417,0,0,1,N,0.8713864,71,71,11,79,79,145.6075,0,9999.99,4.18,4.307,2,9,21.7,0,21.70000076,36.23,1527.41458,1/30/21,12:21:29,21.74,54.64,36.23,1.165,8.47,-85.9,-4,-4.6,-662,91.8,6.53,12.6,
25.91219378,-80.13741498,42:36.5,1/30/21,8,1.991,176.9,-7.056832712,1.29,162.8,152.8,2.09,7.12,21.7,0,4.13,4.13,88,40,478.4,15.9,-2.5,D,788.6,5,9.855,2,1.89,177,141.76,-80.13735399,25.91212417,0,0,1,N,0.4023265,70,70,11,86,86,142.4347,0,9999.99,4.15,4.277,2,9,21.7,0,21.70000076,36.22,1527.40348,1/30/21,12:21:30,21.75,54.63,36.22,1.144,8.49,-86.8,-3.4,-2.6,-1357,91.7,6.53,12.8,
25.91218137,-80.13741225,42:37.6,1/30/21,8,1.973,168.83,-7.056832712,1.29,158.1,148.26,1.87,5.49,21.6,0.01,4.18,4.19,88,40,478.4,15.9,-2.5,D,788.6,5,8.626,2,1.92,177,137.51,-80.13735399,25.91212417,0,0,1,N,0.293865,68,68,11,84,84,137.4523,0,9999.99,4.2,4.327,2,9,21.7,0,21.70000076,36.22,1527.40352,1/30/21,12:21:31,21.75,54.63,36.22,1.174,8.52,-88.4,-2.8,-3.6,-938,91.7,6.52,12.8,
25.9121713,-80.13740828,42:38.6,1/30/21,8,2.053,161.45,-7.056832712,1.29,155.1,145.38,1.28,3.52,21.7,0,4.17,4.17,88,40,478.4,15.9,-2.5,D,788.6,5,7.547,2,1.99,177,133.98,-80.13735399,25.91212417,0,0,1,N,0.719277,66,66,11,85,85,134.4188,0,9999.99,4.18,4.307,2,9,21.7,0,21.70000076,36.22,1527.40344,1/30/21,12:21:32,21.76,54.63,36.22,1.173,8.46,-85.4,-3.8,-4.8,-2774,91.6,6.52,12.8,
25.91216166,-80.13740227,42:39.6,1/30/21,8,2.023,156.41,-7.056832712,1.29,151.5,141.95,1.42,4.26,21.7,0,4.16,4.16,88,40,478.4,15.9,-2.5,D,788.6,5,6.38,2,1.97,177,130.8,-80.13735399,25.91212417,0,0,1,N,0.9648339,66,66,11,90,90,132.6792,0,9999.99,4.17,4.297,2,9,21.7,0,21.70000076,36.23,1527.41447,1/30/21,12:21:33,21.76,54.64,36.23,1.197,8.49,-87.1,-3.6,-5.1,-1927,91.6,6.52,12.6,
25.91215308,-80.13739601,42:40.6,1/30/21,8,2.033,153.09,-7.056832712,1.29,149.6,140.14,0.76,4.31,21.7,0.01,4.19,4.2,88,41,478.4,15.9,-2.5,D,772,5,5.291,2,1.99,177,127.41,-80.13735399,25.91212417,0,0,1,N,1.113568,62,62,11,93,93,131.6331,0,9999.99,4.2,4.327,2,9,21.7,0,21.70000076,36.23,1527.41469,1/30/21,12:21:34,21.76,54.64,36.23,1.183,8.52,-88.7,-3.8,-2.4,-3155,91.6,6.52,12.7,
25.91214507,-80.13738993,42:41.6,1/30/21,8,2.058,149.43,-7.056832712,1.29,147.8,138.43,0.83,3.9,21.7,0,4.18,4.19,88,41,478.4,15.9,-2.5,D,772,6,24.62,2,2,177,141.23,-80.13723579,25.91197244,0,0,1,N,1.62556,62,62,11,124,124,137.7143,0,9999.99,4.19,4.317,2,9,21.7,0,21.70000076,36.23,1527.41437,1/30/21,12:21:35,21.76,54.64,36.23,1.217,8.46,-85.1,-4,-3,-3746,91.6,6.52,12.7,
25.91213638,-80.13738293,42:42.6,1/30/21,8,2.093,147.04,-7.056832712,1.29,147.7,138.34,0.21,5.31,21.7,0,4.18,4.18,88,41,478.4,15.9,-2.5,D,772,6,23.429,2,2.03,177,141.09,-80.13723579,25.91197244,0,0,1,N,1.606205,58,58,11,122,122,136.9678,0,9999.99,4.18,4.307,2,9,21.7,0,21.70000076,36.22,1527.40317,1/30/21,12:21:36,21.76,54.63,36.22,1.205,8.5,-87.4,-4.9,-0.7,-1318,91.6,6.52,12.7,
25.91212987,-80.13737709,42:43.6,1/30/21,8,2.089,143.17,-7.056832712,1.29,148.6,139.19,0.26,2.81,21.7,0.01,4.19,4.19,88,40,478.3,15.9,-2.5,D,777.3,6,22.498,2,2.07,177,141.09,-80.13723579,25.91197244,0,0,1,N,1.541001,59,59,11,116,116,136.4951,0,9999.99,4.19,4.317,2,9,21.7,0,21.70000076,36.21,1527.3924,1/30/21,12:21:37,21.76,54.62,36.21,1.209,8.53,-89.4,-4.1,-3.9,-4917,91.6,6.52,12.7,
25.91212169,-80.13736993,42:44.6,1/30/21,8,2.085,143.81,-7.056832712,1.29,148.4,139,0.78,2.7,21.7,0,4.19,4.19,88,40,478.3,15.9,-2.5,D,777.3,6,21.341,2,2.06,177,141.05,-80.13723579,25.91197244,0,0,1,N,1.477851,62,62,11,114,114,135.6299,0,9999.99,4.19,4.317,2,9,21.7,0,21.70000076,36.24,1527.42536,1/30/21,12:21:38,21.76,54.65,36.24,1.195,8.44,-84.1,-3.6,-3.1,-5368,91.6,6.51,12.7,
25.91211312,-80.1373628,42:45.6,1/30/21,8,2.072,143.57,-7.056832712,1.29,148.9,139.48,0.77,2.85,21.7,0.01,4.21,4.21,88,40,478.3,15.9,-2.5,D,777.3,6,20.151,2,2.03,177,140.92,-80.13723579,25.91197244,0,0,1,N,1.441486,62,62,11,108,108,134.7596,0,9999.99,4.21,4.337,2,9,21.7,0,21.70000076,36.23,1527.41429,1/30/21,12:21:39,21.75,54.64,36.23,1.188,8.46,-85.1,-3,-4.3,-1929,91.6,6.52,12.6,
25.91210521,-80.13735664,42:46.6,1/30/21,8,2.042,143.97,-7.056832712,1.29,149.2,139.76,0.32,3.29,21.6,0.01,4.22,4.23,88,40,478.3,15.9,-2.5,D,777.3,6,19.08,2,2.05,177,140.69,-80.13723579,25.91197244,0,0,1,N,1.441096,59,59,11,107,107,134.7706,0,9999.99,4.23,4.357,2,9,21.7,0,21.70000076,36.22,1527.40346,1/30/21,12:21:40,21.76,54.63,36.22,1.195,8.48,-86.2,-4.3,-4.9,-997,91.6,6.52,12.8,
25.91209757,-80.13735042,42:47.6,1/30/21,8,2.071,144.22,-7.056832712,1.29,149.6,140.14,0.43,3.01,21.7,0,4.23,4.23,88,40,478.3,15.9,-2.5,D,778.8,6,18.029,2,2.05,177,140.51,-80.13723579,25.91197244,0,0,1,N,1.416954,60,60,11,106,106,134.9377,0,9999.99,4.23,4.357,2,9,21.7,0,21.70000076,36.23,1527.41437,1/30/21,12:21:41,21.76,54.64,36.23,1.208,8.43,-83.5,-4.2,0.3,-4019,91.6,6.51,12.7,
25.91208921,-80.13734422,42:48.7,1/30/21,8,2.105,145.42,-7.056832712,1.29,149.7,140.23,0.56,2.77,21.6,0,4.23,4.23,88,40,478.3,15.9,-2.5,D,778.8,6,16.918,2,2.04,177,140.13,-80.13723579,25.91197244,0,0,1,N,1.443394,60,60,11,105,105,134.7537,0,9999.99,4.23,4.357,2,9,21.8,0,21.70000076,36.21,1527.39218,1/30/21,12:21:42,21.76,54.61,36.21,1.212,8.45,-84.6,-3.6,-3.7,-1958,91.5,6.51,12.6,
25.91208206,-80.1373391,42:49.7,1/30/21,8,2.06,145.85,-7.056832712,1.29,149.7,140.23,0.47,3.14,21.6,0.01,4.21,4.21,88,40,478.3,15.9,-2.5,D,778.8,6,15.979,2,2.05,177,139.71,-80.13723579,25.91197244,0,0,1,N,1.479048,60,60,11,104,104,134.5066,0,9999.99,4.21,4.337,2,9,21.8,0,21.79999924,36.23,1527.67652,1/30/21,12:21:43,21.75,54.64,36.23,1.208,8.47,-85.8,-4,-0.8,-3192,91.4,6.5,12.7,
25.91207348,-80.13733236,42:50.7,1/30/21,8,2.082,145.27,-7.056832712,1.29,149.9,140.42,0.64,2.94,21.7,0.01,4.22,4.22,88,40,478.3,15.9,-2.5,D,787.4,6,14.815,2,2.05,177,139.31,-80.13723579,25.91197244,0,0,1,N,1.474963,61,61,11,103,103,134.535,0,9999.99,4.22,4.347,2,9,21.7,0,21.70000076,36.23,1527.4146,1/30/21,12:21:44,21.75,54.65,36.23,1.201,8.49,-86.8,-3.9,-1.6,-1835,91.4,6.5,12.7,
25.91206585,-80.13732601,42:51.7,1/30/21,8,2.094,144.87,-7.056832712,1.29,150,140.52,0.46,2.92,21.7,0.01,4.25,4.25,88,40,478.3,15.9,-2.5,D,787.4,6,13.759,2,2.05,177,139.02,-80.13723579,25.91197244,0,0,1,N,1.439381,61,61,11,103,103,134.7815,0,9999.99,4.25,4.377,2,9,21.8,0,21.70000076,36.21,1527.39239,1/30/21,12:21:45,21.76,54.62,36.21,1.201,8.51,-88.1,-4.7,-7.1,-3361,91.3,6.5,12.7,
25.91205757,-80.13731907,42:52.7,1/30/21,8,2.134,145.86,-7.056832712,1.29,148.5,139.1,0.57,3.66,21.7,0,4.28,4.29,88,40,478.3,15.9,-2.5,D,787.4,6,12.609,2,2.06,177,138.66,-80.13723579,25.91197244,0,0,1,N,1.406682,60,60,11,111,111,135.0085,0,9999.99,4.29,4.417,2,9,21.8,0,21.79999924,36.22,1527.66517,1/30/21,12:21:46,21.76,54.62,36.22,1.208,8.46,-85.1,-3.1,0.8,-3013,91.4,6.5,12.7,
25.91205007,-80.13731381,42:53.7,1/30/21,8,2.075,146.09,-7.056832712,1.29,148.5,139.1,0.57,3.55,21.6,0.01,4.29,4.3,88,40,478.3,15.9,-2.5,D,787.4,6,11.636,2,2.07,177,137.89,-80.13723579,25.91197244,0,0,1,N,1.452069,60,60,11,109,109,134.6936,0,9999.99,4.3,4.427,2,9,21.7,0,21.70000076,36.2,1527.38132,1/30/21,12:21:47,21.75,54.61,36.2,1.221,8.49,-86.9,-3.9,-0.9,-2939,91.4,6.5,12.6,
25.91204276,-80.13730807,42:54.7,1/30/21,8,2.083,145.5,-7.056832712,1.29,148.7,139.29,0.59,3.23,21.6,0.01,4.31,4.31,88,40,478.2,15.9,-2.5,D,784.8,6,10.649,2,2.06,177,137.25,-80.13723579,25.91197244,0,0,1,N,1.444395,61,61,11,109,109,134.7464,0,9999.99,4.31,4.437,2,9,21.7,0,21.70000076,36.21,1527.3925,1/30/21,12:21:48,21.75,54.62,36.21,1.205,8.52,-88.6,-2,-2.7,-2362,91.3,6.5,12.7,
25.91203517,-80.13730192,42:55.7,1/30/21,8,2.156,144.17,-7.056832712,1.29,148.3,138.91,0.67,3.62,21.7,0.01,4.27,4.28,88,40,478.2,15.9,-2.5,D,784.8,6,9.613,2,2.08,177,136.52,-80.13723579,25.91197244,0,0,1,N,1.424126,60,60,11,111,111,134.8876,0,9999.99,4.28,4.407,2,9,21.8,0,21.79999924,36.21,1527.65463,1/30/21,12:21:49,21.75,54.62,36.21,1.222,8.45,-84.6,-4.5,-1.7,-3225,91.3,6.5,12.6,
25.91202766,-80.13729524,42:56.7,1/30/21,7,2.159,144.13,-7.056832712,1.29,148.1,138.72,0.85,3.37,21.7,0,4.27,4.28,88,40,478.2,15.9,-2.5,D,784.8,6,8.547,2,2.09,177,135.92,-80.13723579,25.91197244,0,0,1,N,1.359743,62,62,11,114,114,135.3345,0,9999.99,4.28,4.407,2,9,21.7,0,21.70000076,36.22,1527.40338,1/30/21,12:21:50,21.75,54.63,36.22,1.218,8.5,-87.2,-4.4,-7.1,-1736,91.3,6.5,12.6,
25.91201887,-80.13728797,42:57.7,1/30/21,8,2.118,144.52,-7.056832712,1.29,149,139.57,0.63,3.12,21.7,0,4.28,4.29,88,39,478.2,15.9,-2.4,D,797.4,6,7.341,2,2.06,177,134.69,-80.13723579,25.91197244,0,0,1,N,1.326855,61,61,11,111,111,135.5637,0,9999.99,4.29,4.417,2,9,21.8,0,21.79999924,36.21,1527.65426,1/30/21,12:21:51,21.76,54.62,36.21,1.215,8.53,-89.2,-3.5,-8.1,-3199,91.4,6.5,12.7,
25.91201086,-80.1372811,42:58.7,1/30/21,8,2.185,143.8,-7.056832712,1.29,148.3,138.91,0.42,3.92,21.7,0,4.32,4.33,88,39,478.2,15.9,-2.4,D,797.4,6,6.228,2,2.12,177,133.32,-80.13723579,25.91197244,0,0,1,N,1.271294,60,60,11,115,115,135.9515,0,9999.99,4.33,4.457,2,9,21.8,0,21.79999924,36.21,1527.65424,1/30/21,12:21:52,21.76,54.62,36.21,1.199,8.44,-84.1,-3.2,-0.3,-1874,91.4,6.5,12.7,
25.91200311,-80.13727476,42:59.7,1/30/21,8,2.109,143.65,-7.056832712,1.29,148.6,139.19,0.78,3.27,21.7,0,4.32,4.33,88,39,478.2,15.9,-2.4,D,797.4,7,16.968,2,2.15,177,151.51,-80.13719384,25.91186899,0,0,1,N,2.540538,60,60,11,160,160,147.8677,0,9999.99,4.33,4.457,2,9,21.8,0,21.79999924,36.21,1527.65425,1/30/21,12:21:53,21.76,54.61,36.21,1.208,8.45,-84.8,-2.9,-0.9,-1556,91.4,6.5,12.6,
25.91199495,-80.13726802,43:00.7,1/30/21,8,2.131,143.64,-7.056832712,1.29,150.9,141.37,0.61,5.58,21.8,0,4.38,4.38,88,39,478.2,15.9,-2.4,D,797.4,7,15.85,2,2.14,177,152.09,-80.13719384,25.91186899,0,0,1,N,2.213344,61,61,11,155,155,148.476,0,9999.99,4.38,4.507,2,9,21.8,0,21.79999924,36.21,1527.65406,1/30/21,12:21:54,21.76,54.61,36.21,1.204,8.48,-86,-3.3,-4,-4017,91.4,6.5,12.7,
25.91198742,-80.13726228,43:01.7,1/30/21,8,2.049,143.52,-7.056832712,1.29,152.9,143.28,0.47,3.16,21.7,0,4.4,4.4,88,40,478.2,15.9,-2.5,D,791.6,7,14.842,2,2.11,177,152.54,-80.13719384,25.91186899,0,0,1,N,1.950986,60,60,11,150,150,148.9523,0,9999.99,4.41,4.537,2,9,21.7,0,21.70000076,36.23,1527.4141,1/30/21,12:21:55,21.75,54.64,36.23,1.189,8.43,-83.4,-4.5,-5,-2640,91.3,6.5,12.7,
25.91197912,-80.13725641,43:02.7,1/30/21,8,2.035,145.11,-7.056832712,1.29,155.2,145.48,0.65,4.44,21.7,0,4.37,4.38,88,40,478.2,15.9,-2.5,D,791.6,7,13.752,2,2.07,177,152.93,-80.13719384,25.91186899,0,0,1,N,1.712774,61,61,11,142,142,149.3519,0,9999.99,4.38,4.507,2,9,21.8,0,21.70000076,36.22,1527.403,1/30/21,12:21:56,21.75,54.63,36.22,1.189,8.45,-84.6,-4.3,-2.7,-1586,91.3,6.5,12.7,
25.91197037,-80.13725035,43:03.7,1/30/21,8,2.031,146.34,-7.056832712,1.29,157.5,147.68,0.53,3.38,21.7,0.01,4.38,4.39,88,40,478.2,15.9,-2.5,D,791.6,7,12.61,2,2.06,177,153.37,-80.13719384,25.91186899,0,0,1,N,1.476215,60,60,11,137,137,150.0981,0,9999.99,4.39,4.517,2,9,21.8,0,21.79999924,36.22,1527.66538,1/30/21,12:21:57,21.76,54.63,36.22,1.213,8.47,-85.6,-3.9,-0.4,-3088,91.3,6.5,12.6,
25.91196322,-80.13724628,43:04.7,1/30/21,8,2.021,148.84,-7.056832712,1.29,159.2,149.32,0.57,3.76,21.7,0,4.36,4.37,88,40,478.2,15.9,-2.5,D,791.6,7,11.718,2,2.02,177,153.41,-80.13719384,25.91186899,0,0,1,N,1.363269,60,60,11,131,131,150.2878,0,9999.99,4.37,4.497,2,9,21.8,0,21.79999924,36.22,1527.66528,1/30/21,12:21:58,21.76,54.63,36.22,1.199,8.49,-86.6,-3.8,-5.9,-3316,91.3,6.5,12.8,
25.91195455,-80.13724177,43:05.7,1/30/21,8,2.047,151.04,-7.056832712,1.29,160.3,150.38,0.74,3.06,21.7,0.01,4.37,4.39,88,39,478.1,15.9,-2.4,D,806.9,7,10.654,2,1.98,177,153.26,-80.13719384,25.91186899,0,0,1,N,1.262555,61,61,11,129,129,150.9918,0,9999.99,4.38,4.507,2,9,21.8,0,21.79999924,36.22,1527.6654,1/30/21,12:21:59,21.76,54.62,36.22,1.209,8.5,-87.6,-4.1,-2.8,-3134,91.3,6.49,12.6,
25.91194428,-80.13723631,43:06.7,1/30/21,8,2.082,153.06,-7.056832712,1.29,161.9,151.93,0.5,3.48,21.7,0.01,4.39,4.4,88,39,478.1,15.9,-2.4,D,806.9,7,9.388,2,2.05,177,153.1,-80.13719384,25.91186899,0,0,1,N,1.139358,60,60,11,127,127,151.8547,0,9999.99,4.4,4.527,2,9,21.8,0,21.79999924,36.21,1527.65464,1/30/21,12:22:00,21.76,54.62,36.21,1.205,8.46,-85.3,-4.8,-2.8,-2055,91.3,6.49,12.8,
25.91193554,-80.13723227,43:07.7,1/30/21,8,2.074,154.51,-7.056832712,1.29,162.9,152.9,0.31,2.68,21.7,0.01,4.37,4.38,88,39,478.1,15.9,-2.4,D,806.9,7,8.339,2,2.06,177,152.55,-80.13719384,25.91186899,0,0,1,N,1.091477,59,59,11,124,124,152.1913,0,9999.99,4.38,4.507,2,9,21.8,0,21.79999924,36.22,1527.6654,1/30/21,12:22:01,21.77,54.63,36.22,1.204,8.48,-86.6,-3.6,-4.2,-1461,91.2,6.49,12.5,
25.91192718,-80.13722844,43:08.7,1/30/21,8,2.054,155.05,-7.056832712,1.29,163.7,153.68,0.58,3.1,21.7,0.01,4.4,4.4,88,42,478.1,15.9,-2.6,D,752.8,7,7.337,2,2.07,177,151.86,-80.13719384,25.91186899,0,0,1,N,1.047045,60,60,11,122,122,152.5041,0,9999.99,4.4,4.527,2,9,21.8,0,21.79999924,36.22,1527.66538,1/30/21,12:22:02,21.77,54.63,36.22,1.216,8.52,-88.5,-4.1,-7.6,-667,91.2,6.49,12.8,
25.91191827,-80.13722468,43:09.7,1/30/21,8,2.072,156.9,-7.056832712,1.29,164.6,154.55,0.23,3.18,21.7,0.01,4.38,4.39,88,42,478.1,15.9,-2.6,D,752.8,7,6.287,2,2.07,177,150.63,-80.13719384,25.91186899,0,0,1,N,1.030259,58,58,11,119,119,152.6225,0,9999.99,4.39,4.517,2,9,21.8,0,21.79999924,36.23,1527.67661,1/30/21,12:22:03,21.77,54.64,36.23,1.205,8.46,-84.9,-2.8,-5.7,-3821,91.2,6.49,12.7,
25.91190959,-80.13722079,43:10.8,1/30/21,8,2.078,157.94,-7.056832712,1.29,165.4,155.33,0.4,2.72,21.7,0.01,4.4,4.4,88,42,478.1,15.9,-2.6,D,752.8,7,5.258,2,2.12,177,149.16,-80.13719384,25.91186899,0,0,1,N,0.9975485,59,59,11,117,117,152.8525,0,9999.99,4.4,4.527,2,9,21.8,0,21.79999924,36.21,1527.65438,1/30/21,12:22:04,21.77,54.62,36.21,1.215,8.49,-87,-2.9,-4.8,-4141,91.1,6.48,12.8,
25.91190035,-80.13721715,43:11.8,1/30/21,8,2.065,159.21,-7.056832712,1.29,165.5,155.43,0.48,3.18,21.7,0.01,4.43,4.43,88,42,478.1,15.9,-2.6,D,752.8,7,4.194,2,2.08,177,146.24,-80.13719384,25.91186899,0,0,1,N,1.004813,60,60,11,113,113,152.8031,0,9999.99,4.43,4.557,2,9,21.8,0,21.79999924,36.21,1527.65452,1/30/21,12:22:05,21.77,54.61,36.21,1.205,8.52,-88.9,-3.2,-4.7,-1341,91.2,6.49,12.5,
25.91189102,-80.1372137,43:12.8,1/30/21,8,2.108,159.01,-7.056832712,1.29,166.6,156.51,0.54,2.2,21.7,0.01,4.39,4.4,88,42,478.1,15.9,-2.6,D,741.3,8,14.564,2,2.1,177,151.53,-80.13714428,25.91177589,0,0,1,N,0.7299982,60,60,11,103,103,150.3908,0,9999.99,4.4,4.527,2,9,21.8,0,21.79999924,36.23,1527.67665,1/30/21,12:22:06,21.77,54.64,36.23,1.211,8.44,-84.2,-3.6,-0.4,-1846,91.1,6.48,12.8,
25.91188271,-80.13721051,43:13.8,1/30/21,8,2.051,159.34,-7.056832712,1.29,166.4,156.31,0.58,2.52,21.8,0,4.41,4.42,88,42,478.1,15.9,-2.6,D,741.3,8,13.6,2,2.07,177,150.85,-80.13714428,25.91177589,0,0,1,N,0.8413442,60,60,11,99,99,149.4039,0,9999.99,4.42,4.547,2,9,21.8,0,21.79999924,36.21,1527.65437,1/30/21,12:22:07,21.77,54.61,36.21,1.215,8.45,-84.8,-3.2,-2,-2250,91.2,6.49,12.7,
25.91187372,-80.13720718,43:14.8,1/30/21,8,2.089,160.9,-7.056832712,1.29,167,156.9,0.27,2.7,21.8,0,4.41,4.41,88,42,478.1,15.9,-2.6,D,741.3,8,12.566,2,2.07,177,149.96,-80.13714428,25.91177589,0,0,1,N,0.9713903,59,59,11,93,93,148.4966,0,9999.99,4.41,4.537,2,9,21.8,0,21.79999924,36.22,1527.66526,1/30/21,12:22:08,21.77,54.63,36.22,1.202,8.47,-85.8,-3.6,-5.8,-3221,91.1,6.48,12.7,
25.91186458,-80.13720379,43:15.8,1/30/21,7,2.101,161.43,-7.056832712,1.29,165.3,155.24,0.68,3.28,21.7,0.01,4.44,4.44,88,40,478,15.9,-2.5,D,786.6,8,11.519,2,2.07,177,148.89,-80.13714428,25.91177589,0,0,1,N,1.109383,61,61,11,94,94,146.643,0,9999.99,4.44,4.567,2,9,21.8,0,21.79999924,36.22,1527.66522,1/30/21,12:22:09,21.76,54.63,36.22,1.215,8.43,-83.3,-4.4,-2.8,-1722,91.2,6.49,12.6,
25.91185554,-80.1372003,43:16.8,1/30/21,8,2.039,161.14,-7.056832712,1.29,164.6,154.55,0.72,2.67,21.7,0,4.43,4.44,88,40,478,15.9,-2.5,D,786.6,8,10.48,2,2.09,177,147.68,-80.13714428,25.91177589,0,0,1,N,1.22966,61,61,11,93,93,145.6748,0,9999.99,4.44,4.567,2,9,21.8,0,21.79999924,36.21,1527.65427,1/30/21,12:22:10,21.76,54.61,36.21,1.202,8.45,-84.5,-4.2,-2.9,-946,91.1,6.48,12.7,
25.91184578,-80.13719615,43:17.8,1/30/21,8,2.104,159.97,-7.056832712,1.29,164.2,154.16,0.46,2.73,21.7,0.01,4.44,4.45,88,40,478,15.9,-2.5,D,786.6,8,9.344,2,2.08,177,146.28,-80.13714428,25.91177589,0,0,1,N,1.324387,60,60,11,90,90,145.0154,0,9999.99,4.45,4.577,2,9,21.8,0,21.79999924,36.23,1527.67649,1/30/21,12:22:11,21.76,54.64,36.23,1.214,8.47,-85.6,-3.2,-0.1,-4072,91,6.47,12.7,
25.91183725,-80.13719239,43:18.8,1/30/21,8,2.118,159.59,-7.056832712,1.29,162.1,152.13,0.9,4.19,21.8,0,4.42,4.42,88,40,478,15.9,-2.5,D,786.6,8,8.35,2,2.08,177,144.81,-80.13714428,25.91177589,0,0,1,N,1.398939,62,62,11,96,96,144.4962,0,9999.99,4.42,4.547,2,9,21.8,0,21.79999924,36.25,1527.6987,1/30/21,12:22:12,21.76,54.67,36.25,1.199,8.48,-86.4,-4.1,-7.2,-2062,91,6.47,12.8,
25.91182898,-80.13718886,43:19.8,1/30/21,8,2.107,159.72,-7.056832712,1.29,160.5,150.58,0.85,3.46,21.7,0,4.42,4.43,88,41,478,15.9,-2.5,D,773.7,8,7.398,2,2.07,177,142.94,-80.13714428,25.91177589,0,0,1,N,1.48082,60,60,11,100,100,143.9277,0,9999.99,4.43,4.557,2,9,21.8,0,21.79999924,36.23,1527.67622,1/30/21,12:22:13,21.77,54.65,36.23,1.206,8.46,-85.2,-3.6,-8.8,-790,91,6.47,12.6,
25.91181984,-80.13718473,43:20.8,1/30/21,8,2.098,158.82,-7.056832712,1.29,160.1,150.19,0.6,3.84,21.7,0,4.41,4.42,88,41,478,15.9,-2.5,D,773.7,8,6.344,2,2.07,177,140.38,-80.13714428,25.91177589,0,0,1,N,1.547302,61,61,11,100,100,143.4672,0,9999.99,4.42,4.547,2,9,21.8,0,21.79999924,36.23,1527.67642,1/30/21,12:22:14,21.78,54.64,36.23,1.209,8.46,-85.3,-2.7,-3,-2355,91,6.47,12.7,
25.91181103,-80.13718039,43:21.8,1/30/21,8,2.126,156.88,-7.056832712,1.29,158.6,148.74,0.7,3.92,21.7,0.01,4.41,4.42,88,41,478,15.9,-2.5,D,773.7,8,5.321,2,2.08,177,137.26,-80.13714428,25.91177589,0,0,1,N,1.584331,61,61,11,105,105,143.2119,0,9999.99,4.42,4.547,2,9,21.8,0,21.79999924,36.25,1527.69852,1/30/21,12:22:15,21.78,54.67,36.25,1.206,8.48,-86.5,-2.8,-3.1,-3904,91.1,6.48,12.7,
25.91180233,-80.13717683,43:22.8,1/30/21,8,2.091,154.56,-7.056832712,1.29,158.3,148.45,0.84,3.45,21.7,0.01,4.44,4.45,88,42,478,15.9,-2.6,D,747.2,8,4.309,2,2.12,177,133.04,-80.13714428,25.91177589,0,0,1,N,1.585422,62,62,11,106,106,143.205,0,9999.99,4.45,4.577,2,9,21.8,0,21.79999924,36.24,1527.68763,1/30/21,12:22:16,21.78,54.66,36.24,1.207,8.51,-88,-3.7,-5,-2063,91,6.47,12.8,
25.91179383,-80.13717093,43:23.8,1/30/21,8,2.091,154.56,-7.056832712,1.29,159.9,150,0.15,9.5,21.7,0,4.42,4.42,88,42,478,15.9,-2.6,D,747.2,9,14.212,2,2.13,177,167.62,-80.13714046,25.91166899,0,0,1,N,2.65857,59,59,11,181,181,162.7296,0,9999.99,4.43,4.557,2,9,21.8,0,21.79999924,36.23,1527.67611,1/30/21,12:22:17,21.78,54.65,36.23,1.217,8.45,-84.4,-2.8,-4.6,-2151,91,6.47,12.5,
25.91178486,-80.13716657,43:24.8,1/30/21,8,2.071,153.97,-7.056832712,1.29,163.3,153.29,0.78,0.51,21.7,0,4.48,4.48,88,42,478,15.9,-2.6,D,747.2,9,13.146,2,2.12,177,168.54,-80.13714046,25.91166899,0,0,1,N,2.257536,62,62,11,169,169,163.846,0,9999.99,4.48,4.607,2,9,21.8,0,21.79999924,36.23,1527.67608,1/30/21,12:22:18,21.77,54.65,36.23,1.207,8.49,-86.7,-3.6,-3.7,-1487,90.9,6.46,12.7,
25.91177634,-80.13716275,43:25.8,1/30/21,8,1.968,152.9,-7.056832712,1.29,167.3,157.19,1.12,4.72,21.7,0,4.47,4.47,88,42,478,15.9,-2.6,D,747.2,9,12.144,2,2.08,177,169.42,-80.13714046,25.91166899,0,0,1,N,1.895218,64,64,11,159,159,165.2707,0,9999.99,4.48,4.607,2,9,21.8,0,21.79999924,36.24,1527.68718,1/30/21,12:22:19,21.77,54.65,36.24,1.203,8.52,-88.6,-3.4,-4.5,-3112,90.8,6.46,12.6,
25.91176787,-80.13715943,43:26.8,1/30/21,8,2.018,154.66,-7.056832712,1.29,169.3,159.15,1.1,3.02,21.7,0.01,4.44,4.45,88,33,477.9,14.2,-2.3,D,836.7,9,11.157,2,2.03,177,170.21,-80.13714046,25.91166899,0,0,1,N,1.582273,64,64,11,158,158,166.9721,0,9999.99,4.45,4.577,2,9,21.8,0,21.79999924,36.24,1527.68757,1/30/21,12:22:20,21.76,54.65,36.24,1.204,8.44,-84.2,-3,-7.4,-2319,90.8,6.46,12.7,
25.91175849,-80.13715642,43:27.8,1/30/21,8,2.026,158.22,-7.056832712,1.29,172.2,162.01,1.3,5.12,21.7,0,4.43,4.43,88,33,477.9,14.2,-2.3,D,836.7,9,10.079,2,2.03,177,170.89,-80.13714046,25.91166899,0,0,1,N,1.310021,65,65,11,156,156,168.8586,0,9999.99,4.44,4.567,2,9,21.8,0,21.79999924,36.26,1527.70961,1/30/21,12:22:21,21.75,54.68,36.26,1.19,8.45,-84.5,-2.9,-4.1,-4706,90.8,6.46,12.6,
25.91174821,-80.13715358,43:28.8,1/30/21,8,1.999,161.53,-7.056832712,1.29,175.7,165.47,1.22,3.43,21.7,0,4.47,4.47,88,33,477.9,14.2,-2.3,D,836.7,9,8.906,2,2.02,177,171.53,-80.13714046,25.91166899,0,0,1,N,1.060316,64,64,11,148,148,170.6089,0,9999.99,4.48,4.607,2,9,21.8,0,21.79999924,36.26,1527.70957,1/30/21,12:22:22,21.73,54.68,36.26,1.187,8.48,-86.4,-3.6,-2.3,61,90.8,6.47,12.6,
25.91173867,-80.13715233,43:29.8,1/30/21,8,1.987,167.37,-7.056832712,1.29,177.4,167.17,1.13,4.34,21.8,0,4.47,4.47,88,38,477.9,15.9,-2.3,D,829.8,9,8.002,2,2,177,171.71,-80.13714046,25.91166899,0,0,1,N,0.9214593,64,64,11,145,145,171.5885,0,9999.99,4.48,4.607,2,9,21.8,0,21.79999924,36.34,1527.79802,1/30/21,12:22:23,21.73,54.79,36.34,1.177,8.43,-83.4,-3.9,-2.8,-2385,90.9,6.47,12.7,
25.911729,-80.13715083,43:30.8,1/30/21,8,1.99,168.87,-7.056832712,1.29,180.1,169.87,1.26,4.56,21.7,0,4.47,4.47,88,38,477.9,15.9,-2.3,D,829.8,9,6.762,2,1.99,177,171.79,-80.13714046,25.91166899,0,0,1,N,0.7681953,65,65,11,140,140,172.6745,0,9999.99,4.48,4.607,2,9,21.8,0,21.79999924,36.34,1527.79807,1/30/21,12:22:25,21.77,54.79,36.34,1.189,8.47,-85.6,-2.7,-3,-2769,91,6.47,12.7,
25.91171967,-80.13714967,43:31.8,1/30/21,8,2.01,172.67,-7.056832712,1.29,181.5,171.27,0.96,4.63,21.7,0,4.45,4.45,88,40,477.9,15.9,-2.5,D,793.3,10,27.36,2,2.01,177,187.79,-80.13718622,25.91147589,0,0,1,N,0.7038025,63,63,11,170,170,182.0392,0,9999.99,4.46,4.587,2,9,21.8,0,21.79999924,36.34,1527.79807,1/30/21,12:22:25,21.77,54.79,36.34,1.189,8.47,-85.6,-2.7,-3,-2769,91,6.47,12.7,
25.91171033,-80.13714933,43:32.8,1/30/21,8,1.97,174.78,-7.056832712,1.29,184.1,173.89,0.92,7.55,21.8,0,4.45,4.45,88,40,477.9,15.9,-2.5,D,793.3,10,26.359,2,2,177,188.29,-80.13718622,25.91147589,0,0,1,N,1.761158,63,63,11,169,169,184.5079,0,9999.99,4.46,4.587,2,9,21.8,0,21.79999924,36.34,1527.79801,1/30/21,12:22:26,21.78,54.79,36.34,1.192,8.44,-83.7,-3.1,-2.1,-2841,90.9,6.46,12.7,
25.91170117,-80.13714917,43:33.8,1/30/21,8,1.956,176.26,-7.056832712,1.29,187.7,177.53,0.94,3.24,21.8,0.01,4.48,4.49,88,40,477.9,15.9,-2.5,D,793.3,10,25.32,2,2,177,188.54,-80.13718622,25.91147589,0,0,1,N,1.571181,63,63,11,156,156,184.6563,0,9999.99,4.49,4.617,2,9,21.8,0,21.79999924,36.33,1527.78703,1/30/21,12:22:27,21.78,54.77,36.33,1.192,8.45,-84.6,-3.6,-6.9,-4344,90.9,6.46,12.7,
25.91169233,-80.13715033,43:34.8,1/30/21,8,1.976,179.25,-7.056832712,1.29,189.5,179.36,1.26,5.52,21.8,0.01,4.44,4.45,88,40,477.9,15.9,-2.5,D,793.3,10,24.353,2,1.94,177,188.89,-80.13718622,25.91147589,0,0,1,N,1.362908,65,65,11,151,151,184.9799,0,9999.99,4.45,4.577,2,9,21.8,0,21.79999924,36.32,1527.77615,1/30/21,12:22:28,21.79,54.76,36.32,1.2,8.46,-85.4,-3.7,-2.3,-3197,90.9,6.46,12.7,
25.91168236,-80.13715152,43:35.8,1/30/21,8,1.951,182.84,-7.056832712,1.3,192.1,182.01,1,3.8,21.8,0.01,4.44,4.45,88,38,477.8,15.9,-2.4,D,815,10,23.219,2,1.97,177,188.6,-80.13718622,25.91147589,0,0,1,N,1.300075,63,63,11,134,134,183.7532,0,9999.99,4.45,4.577,2,9,21.8,0,21.79999924,36.34,1527.79846,1/30/21,12:22:30,21.8,54.79,36.34,1.189,8.51,-88.1,-3.4,-4.8,-2549,90.8,6.45,12.7,
25.91167352,-80.1371529,43:36.9,1/30/21,7,1.989,185.76,-7.056832712,1.3,193.3,183.24,0.97,4.05,21.8,0.01,4.44,4.45,88,38,477.8,15.9,-2.4,D,815,10,22.227,2,1.98,177,188.62,-80.13718622,25.91147589,0,0,1,N,1.241053,63,63,11,126,126,183.1751,0,9999.99,4.45,4.577,2,9,21.8,0,21.79999924,36.34,1527.79846,1/30/21,12:22:30,21.8,54.79,36.34,1.189,8.51,-88.1,-3.4,-4.8,-2549,90.8,6.45,12.7,
25.91166401,-80.13715455,43:37.9,1/30/21,8,2.025,188.52,-7.056832712,1.3,193.8,183.75,0.92,5.28,21.7,0,4.4,4.41,88,38,477.8,15.9,-2.4,D,815,10,21.156,2,1.96,177,188.61,-80.13718622,25.91147589,0,0,1,N,1.166202,63,63,11,124,124,183.0452,0,9999.99,4.41,4.537,2,9,21.8,0,21.79999924,36.34,1527.79825,1/30/21,12:22:31,21.8,54.79,36.34,1.196,8.46,-85.3,-2.2,-6.8,-3056,90.8,6.45,12.8,
25.91165453,-80.13715611,43:38.9,1/30/21,8,2.033,187.79,-7.056832712,1.3,195.2,185.19,0.73,3.78,21.8,0.01,4.38,4.39,88,39,477.8,15.9,-2.4,D,797.3,10,20.091,2,1.97,177,188.62,-80.13718622,25.91147589,0,0,1,N,1.143593,61,61,11,120,120,183.4463,0,9999.99,4.39,4.517,2,9,21.8,0,21.79999924,36.35,1527.80941,1/30/21,12:22:33,21.81,54.81,36.35,1.212,8.44,-84.1,-3.4,-1.7,-1703,90.8,6.45,12.6,
25.911645,-80.13715779,43:39.9,1/30/21,8,2.041,188.54,-7.056832712,1.3,196,186.01,0.77,3.86,21.7,0.01,4.36,4.37,88,39,477.8,15.9,-2.4,D,797.3,10,19.019,2,2.01,177,188.6,-80.13718622,25.91147589,0,0,1,N,1.081142,62,62,11,118,118,183.8361,0,9999.99,4.37,4.497,2,9,21.8,0,21.79999924,36.35,1527.80941,1/30/21,12:22:33,21.81,54.81,36.35,1.212,8.44,-84.1,-3.4,-1.7,-1703,90.8,6.45,12.6,
25.91163551,-80.13715985,43:40.9,1/30/21,8,2.08,190.73,-7.056832712,1.3,197.8,187.86,0.79,2.15,21.8,0.01,4.33,4.34,88,39,477.8,15.9,-2.4,D,797.3,10,17.944,2,2.04,177,188.45,-80.13718622,25.91147589,0,0,1,N,1.037627,62,62,11,111,111,183.9781,0,9999.99,4.34,4.467,2,9,21.8,0,21.79999924,36.35,1527.80934,1/30/21,12:22:34,21.81,54.8,36.35,1.195,8.46,-85.2,-2.8,-3.8,-2372,90.7,6.45,12.8,
25.91162511,-80.13716211,43:42.0,1/30/21,8,2.03,191.67,-7.056832712,1.3,197,187.04,0.51,3.62,21.7,0.01,4.31,4.31,88,39,477.8,15.9,-2.4,D,797.3,10,16.767,2,2.04,177,188.27,-80.13718622,25.91147589,0,0,1,N,1.109913,60,60,11,112,112,184.134,0,9999.99,4.31,4.437,2,9,21.8,0,21.79999924,36.34,1527.79829,1/30/21,12:22:35,21.81,54.79,36.34,1.195,8.5,-87.5,-3.2,-1.8,-3883,90.8,6.45,12.7,
25.91161566,-80.13716467,43:43.0,1/30/21,8,1.987,191.64,-7.056832712,1.3,197.4,187.45,0.55,3.54,21.7,0,4.29,4.29,88,40,477.8,15.9,-2.5,D,792.8,10,15.69,2,2.03,177,187.9,-80.13718622,25.91147589,0,0,1,N,1.141681,60,60,11,113,113,183.9108,0,9999.99,4.29,4.417,2,9,21.8,0,21.79999924,36.37,1527.83129,1/30/21,12:22:37,21.81,54.83,36.37,1.2,8.45,-84.7,-3.7,-4.9,-2462,90.9,6.46,12.5,
25.91160667,-80.1371674,43:44.0,1/30/21,9,2.029,192.51,-7.056832712,1.3,198.5,188.58,0.23,3.35,21.7,0.01,4.25,4.25,88,40,477.8,15.9,-2.5,D,792.8,10,14.663,2,2.03,177,187.38,-80.13718622,25.91147589,0,0,1,N,1.197799,58,58,11,107,107,183.5173,0,9999.99,4.25,4.377,2,9,21.8,0,21.79999924,36.37,1527.83129,1/30/21,12:22:37,21.81,54.83,36.37,1.2,8.45,-84.7,-3.7,-4.9,-2462,90.9,6.46,12.5,
25.91159898,-80.13717035,43:45.0,1/30/21,8,2.035,194.09,-7.056832712,1.3,198.2,188.27,0.57,2.41,21.8,0,4.21,4.22,88,40,477.8,15.9,-2.5,D,792.8,10,13.779,2,2.03,177,186.61,-80.13718622,25.91147589,0,0,1,N,1.148541,60,60,11,102,102,182.7517,0,9999.99,4.22,4.347,2,9,21.8,0,21.79999924,36.35,1527.80919,1/30/21,12:22:38,21.82,54.81,36.35,1.211,8.47,-86,-4.1,-6.4,-5383,90.9,6.45,12.8,
