Latitude,Longitude,Time,Date,Number of Sats,GPS Speed (Kn),GPS True Heading,GPS Magnetic Variation,HDOP,C Magnetic Heading,C True Heading,Pitch Angle,Roll Angle,C Inside Temp (c),DFS Depth (m),DTB Height (m),Total Water Column (m),Batt Percent,Power Watts,Watt-Hours,Batt Volts,Batt Ampers,Batt State,Time to Empty,Current Step,Dist To Next (m),Next Speed (kn),Vehicle Speed (kn),Motor Speed CMD,Next Heading,Next Long,Next Lat,Next Depth (m),Depth Goal (m),Vehicle State,Error State,Distance to Track (m),Fin Pitch R,Fin Pitch L,Pitch Goal,Fin Yaw T,Fin Yaw B,Yaw Goal,Fin Roll,DVL-Depth (m),DVL -Altitude (m),DVL -Water Column (m),DVL-FixType,DVL-FixQuality,DVL-Temperature,Conductivity (mmhos/cm),Temperature (c),Salinity (ppt),Sound Speed (m/s),Date m/d/y   ,Time hh:mm:ss,Temp C,SpCond mS/cm,Sal ppt,Depth feet,pH,pH mV,Turbid+ NTU,Chl ug/L,BGA-PC cells/mL,ODOsat %,ODO mg/L,Battery volts,ROSEM Command Type
25.87162717,-80.16645317,28:31.0,3/16/21,11,0.323,271.48,-7.046035247,0.84,85.3,80.16,1.24,-10.9,29,0,4.23,4.23,61,21,325.7,15,-1.4,D,965.5,0,12.831,2,0,128,58.99,-80.16634325,25.87168662,0,0,1,N,10.78789,64,64,11,5,5,343.7545,0,9999.99,4.24,4.367,2,9,26.6,0,26.60000038,31.14,1533.96764,3/16/21,11:07:00,24.06,47.8,31.14,1.203,8.43,-83.7,-4,-4.1,-2125,95.1,6.69,12.9,
25.87162767,-80.16645383,28:32.0,3/16/21,11,0.119,271.48,-7.046035247,0.84,91.5,86.02,0.69,-0.12,29,0,4.24,4.24,61,22,325.7,15,-1.4,D,912.8,0,12.86,2,0,128,59.35,-80.16634325,25.87168662,0,0,1,N,10.78789,61,61,11,5,5,342.3214,0,9999.99,4.25,4.377,2,9,26.6,0,26.60000038,31.06,1533.8823,3/16/21,11:07:01,24.05,47.68,31.06,1.144,8.42,-83.6,-4.9,-4.5,-5497,95.1,6.7,13,
25.87162786,-80.16645493,28:33.0,3/16/21,11,0.12,271.48,-7.046035247,0.84,88.1,82.81,2.02,2.1,28.9,0.01,4.24,4.26,61,22,325.7,15,-1.4,D,912.8,1,79.638,2,0.08,174,83.9,-80.16566346,25.87170395,0,0,1,N,6.216757,69,69,11,95,95,74.85887,0,9999.99,4.25,4.377,2,9,26.6,0,26.60000038,31.16,1533.98973,3/16/21,11:07:02,24.05,47.81,31.16,1.227,8.42,-83.7,-3.9,-0.4,-4351,95.1,6.69,13,
25.87162785,-80.1664542,28:34.0,3/16/21,11,0.493,271.48,-7.046035247,0.84,88.8,83.47,1.12,-7.11,28.9,0.02,4.21,4.23,61,22,325.7,15,-1.4,D,912.8,1,79.565,2,0.03,174,83.89,-80.16566346,25.87170395,0,0,1,N,6.218987,63,63,11,97,97,74.80358,0,9999.99,4.23,4.357,2,9,26.6,0,26.60000038,31.13,1533.95878,3/16/21,11:07:03,24.05,47.77,31.13,1.246,8.42,-83.7,-4,0,-1940,95.1,6.69,13.1,
25.87162789,-80.16645063,28:35.0,3/16/21,11,0.862,176.13,-7.046035247,0.84,90.3,84.89,1.45,-3.52,28.9,0.02,4.24,4.26,61,37,325.6,15,-2.4,D,546.8,1,79.21,2,0.19,174,83.87,-80.16566346,25.87170395,0,0,1,N,6.226226,66,66,11,86,86,74.53224,0,9999.99,4.25,4.377,2,9,26.5,0,26.5,31.06,1533.65195,3/16/21,11:07:04,24.07,47.68,31.06,1.209,8.42,-83.5,-4.3,-4,-3725,95.1,6.69,12.8,
25.87162776,-80.16644487,28:36.0,3/16/21,11,1.028,135.8,-7.046035247,0.84,90.3,84.89,2.56,-1.52,28.9,0.01,4.2,4.21,61,37,325.6,15,-2.4,D,546.8,1,78.639,2,0.49,174,83.82,-80.16566346,25.87170395,0,0,1,N,6.258812,72,72,11,84,84,74.02606,0,9999.99,4.21,4.337,2,9,26.5,0,26.5,31.09,1533.6839,3/16/21,11:07:05,24.03,47.73,31.09,1.213,8.42,-83.4,-2.8,1,-47,95,6.69,12.9,
25.87162869,-80.16643675,28:37.0,3/16/21,11,1.454,106.94,-7.046035247,0.84,91.2,85.73,-0.71,2.16,28.9,0.01,4.23,4.24,61,37,325.6,15,-2.4,D,546.8,1,77.82,2,0.83,174,83.83,-80.16566346,25.87170395,0,0,1,N,6.180472,53,53,11,78,78,73.52551,0,9999.99,4.25,4.377,2,9,26.5,0,26.5,31.01,1533.59835,3/16/21,11:07:06,24.03,47.61,31.01,1.154,8.42,-83.2,-4.5,-6.5,-212,95,6.69,12.9,
25.87162974,-80.16642887,28:38.0,3/16/21,11,1.597,93.65,-7.046035247,0.87,89.6,84.23,0.79,3.25,29,0.01,4.21,4.22,61,37,325.6,15,-2.4,D,546.8,1,77.023,2,1.07,174,83.85,-80.16566346,25.87170395,0,0,1,N,6.086468,63,63,11,87,87,73.01296,0,9999.99,4.2,4.327,2,9,26.5,0,26.5,31.01,1533.59825,3/16/21,11:07:07,24,47.61,31.01,1.402,8.42,-83.3,-3.9,-0.2,-1242,95,6.7,13,
25.87163039,-80.16642167,28:39.0,3/16/21,10,1.34,88.81,-7.046035247,0.87,84.4,79.31,1.78,-2.99,28.9,0.01,4.22,4.23,61,38,325.6,15,-2.5,D,525.1,1,76.299,2,1.35,174,83.85,-80.16566346,25.87170395,0,0,1,N,6.038306,66,66,11,94,94,72.40412,0,9999.99,4.23,4.357,2,9,26.5,0,26.5,31.01,1533.59788,3/16/21,11:07:08,23.99,47.61,31.01,1.166,8.41,-82.9,-4.1,-3,-1996,94.9,6.69,12.8,
25.87163233,-80.16641216,28:40.0,3/16/21,11,1.837,84.84,-7.046035247,0.84,84.3,79.21,0.77,3.64,29,0.01,4.18,4.19,61,38,325.6,15,-2.5,D,525.1,1,75.33,2,1.46,174,83.93,-80.16566346,25.87170395,0,0,1,N,5.85564,62,62,11,97,97,71.80422,0,9999.99,4.2,4.327,2,9,26.5,0,26.5,30.98,1533.56596,3/16/21,11:07:09,23.99,47.56,30.98,1.291,8.42,-83.2,-3.8,-5,66,94.9,6.69,13,
25.87163395,-80.16640285,28:41.0,3/16/21,11,1.831,81.88,-7.046035247,0.84,81.8,76.83,0.79,2.65,29,0,4.23,4.23,61,38,325.6,15,-2.5,D,525.1,1,74.385,2,1.59,174,83.99,-80.16566346,25.87170395,0,0,1,N,5.708256,62,62,11,104,104,71.01012,0,9999.99,4.24,4.367,2,9,26.4,0,26.39999962,30.97,1533.32229,3/16/21,11:07:10,23.97,47.56,30.97,1.298,8.41,-82.6,-4.7,-7.4,-986,94.8,6.69,13,
25.87163626,-80.16639446,28:42.0,3/16/21,11,1.647,77.35,-7.046035247,0.87,79.8,74.92,3.48,3.16,29,0.01,4.25,4.26,61,38,325.6,15,-2.5,D,525.1,1,73.523,2,1.72,174,84.12,-80.16566346,25.87170395,0,0,1,N,5.47409,77,77,11,105,105,70.45187,0,9999.99,4.26,4.387,2,9,26.4,0,26.39999962,30.96,1533.3119,3/16/21,11:07:11,23.99,47.54,30.96,1.284,8.41,-82.5,-4.6,-3.2,-358,94.7,6.68,13,
25.87164011,-80.16638516,28:43.0,3/16/21,11,1.815,68.27,-7.046035247,0.84,82.2,77.21,-2.48,-2.42,29,0.01,4.26,4.27,61,37,325.6,15,-2.4,D,543.3,1,72.555,2,1.73,174,84.39,-80.16566346,25.87170395,0,0,1,N,5.072411,43,43,11,99,99,70.20739,0,9999.99,4.29,4.417,2,9,26.4,0,26.39999962,30.96,1533.31181,3/16/21,11:07:12,23.97,47.54,30.96,1.223,8.41,-82.5,-4.3,-0.1,-3437,94.6,6.67,12.9,
25.87164193,-80.1663765,28:44.0,3/16/21,11,1.624,74.71,-7.046035247,0.84,78.8,73.97,2.19,3.12,29,0.02,4.25,4.27,61,37,325.6,15,-2.4,D,543.3,1,71.673,2,1.76,174,84.48,-80.16566346,25.87170395,0,0,1,N,4.90284,70,70,11,108,108,69.1399,0,9999.99,4.23,4.357,2,9,26.4,0,26.39999962,30.63,1532.96047,3/16/21,11:07:13,23.98,47.09,30.63,1.509,8.4,-82.2,75.7,-10.1,-2730,94.5,6.68,13,
25.87164627,-80.16636638,28:45.0,3/16/21,11,2.108,67.88,-7.046035247,0.84,79.1,74.25,-0.77,2.11,29,0.01,4.25,4.25,61,37,325.6,15,-2.4,D,543.3,1,70.62,2,1.84,174,84.79,-80.16566346,25.87170395,0,0,1,N,4.447364,52,52,11,104,104,68.56534,0,9999.99,4.27,4.397,2,9,26.3,0,26.29999924,31.12,1533.24984,3/16/21,11:07:14,23.96,47.76,31.12,1.312,8.4,-82.2,-3.4,-4.1,-4144,94.3,6.65,13,
25.87164962,-80.16635804,28:46.0,3/16/21,11,1.625,69.27,-7.046035247,0.84,78.2,73.39,0.42,-2.4,29,0.03,4.33,4.35,61,37,325.6,15,-2.5,D,541.3,1,69.755,2,1.86,175,85.03,-80.16566346,25.87170395,0,0,1,N,4.103154,56,56,11,109,109,67.79657,0,9999.99,4.31,4.437,2,9,26.3,0,26.29999924,15.59,1516.68032,3/16/21,11:07:15,23.98,25.55,15.59,1.323,8.4,-82.2,-3.3,-2.9,-2840,94.2,7.25,13,
25.87164772,-80.16635216,28:47.0,3/16/21,11,0.895,69.27,-7.046035247,0.84,76.8,72.05,3.95,5.37,29,0.02,4.22,4.23,61,37,325.6,15,-2.5,D,541.3,1,69.188,2,1.79,175,84.81,-80.16566346,25.87170395,0,0,1,N,4.327794,81,81,11,98,98,64.88139,0,9999.99,4.22,4.347,2,9,26.3,0,26.29999924,31.47,1533.62564,3/16/21,11:07:16,23.97,48.23,31.47,1.486,8.4,-82.5,-4.4,-3.4,-1990,94.1,6.62,12.8,
25.87164908,-80.16634354,28:48.0,3/16/21,11,1.771,77.52,-7.046035247,0.84,72.8,68.2,-2.03,6.12,29,0.01,4.38,4.39,61,38,325.6,15,-2.5,D,521.7,1,68.316,2,1.82,175,84.88,-80.16566346,25.87170395,0,0,1,N,4.211551,45,45,11,102,102,61.87812,0,9999.99,4.36,4.487,2,9,26.3,0,26.29999924,31.14,1533.27088,3/16/21,11:07:17,23.99,47.79,31.14,1.133,8.41,-82.6,-4,-5.6,-3524,94,6.62,13,
25.87165307,-80.16633469,28:49.0,3/16/21,11,1.921,74.35,-7.046035247,0.84,74,69.36,3.45,7.26,29,0.02,4.38,4.39,61,38,325.6,15,-2.5,D,521.7,1,67.395,2,1.77,175,85.18,-80.16566346,25.87170395,0,0,1,N,3.782635,78,78,11,102,102,63.085,0,9999.99,4.36,4.487,2,9,26.2,0,26.20000076,30.93,1532.8135,3/16/21,11:07:19,23.97,47.51,30.93,1.196,8.39,-81.9,-3.4,-1.6,-2059,94,6.64,12.9,
25.87165925,-80.16632551,28:50.0,3/16/21,11,1.554,63.32,-7.046035247,0.84,65.7,61.3,0.04,4.15,29,0,4.45,4.45,61,38,325.6,15,-2.5,D,521.7,1,66.425,2,1.83,175,85.71,-80.16566346,25.87170395,0,0,1,N,3.136448,57,57,11,150,150,66.97001,0,9999.99,4.48,4.607,2,9,26.2,0,26.20000076,30.93,1532.8135,3/16/21,11:07:19,23.97,47.51,30.93,1.196,8.39,-81.9,-3.4,-1.6,-2059,94,6.64,12.9,
25.8716649,-80.16631824,28:51.0,3/16/21,11,1.866,57.46,-7.046035247,0.84,68.7,64.22,1.35,-0.95,29.1,0,4.56,4.56,61,39,325.5,15,-2.6,D,515.5,1,65.655,2,1.8,175,86.21,-80.16566346,25.87170395,0,0,1,N,2.532528,60,60,11,159,159,70.81473,0,9999.99,4.56,4.687,2,9,26.2,0,26.20000076,30.91,1532.79075,3/16/21,11:07:20,23.97,47.47,30.91,1.177,8.39,-81.8,-3.7,-2.4,-3577,93.9,6.63,12.8,
25.87166993,-80.16630604,28:52.1,3/16/21,11,1.878,66.26,-7.046035247,0.84,73.3,68.68,2.55,3.89,29.1,0,4.62,4.62,61,39,325.5,15,-2.6,D,515.5,1,64.402,2,1.87,176,86.63,-80.16566346,25.87170395,0,0,1,N,2.004049,72,72,11,150,150,74.3138,0,9999.99,4.64,4.767,2,9,26.2,0,26.20000076,30.87,1532.74814,3/16/21,11:07:22,23.96,47.41,30.87,1.186,8.39,-81.9,-3.4,217.9,92563,93.7,6.62,13,
25.87167384,-80.16630215,28:53.1,3/16/21,11,1.743,56.8,-7.046035247,0.84,71.7,67.13,1.68,-2.13,29.1,0,4.63,4.63,61,39,325.5,15,-2.6,D,519.2,1,63.989,2,1.87,176,87,-80.16566346,25.87170395,0,0,1,N,1.574075,67,67,11,167,167,77.24553,0,9999.99,4.64,4.767,2,9,26.2,0,26.20000076,30.87,1532.74814,3/16/21,11:07:22,23.96,47.41,30.87,1.186,8.39,-81.9,-3.4,217.9,92563,93.7,6.62,13,
25.8716794,-80.16629318,28:54.1,3/16/21,11,2.11,55.85,-7.046035247,0.84,80.5,75.59,1.85,0.27,29.1,0,4.65,4.66,61,39,325.5,15,-2.6,D,519.2,1,63.063,2,1.8,176,87.52,-80.16566346,25.87170395,0,0,1,N,0.9724896,68,68,11,151,151,81.44569,0,9999.99,4.67,4.797,2,9,26.2,0,26.20000076,30.82,1532.69442,3/16/21,11:07:23,23.96,47.35,30.82,1.221,8.39,-81.8,-3.5,-7.4,-4394,93.6,6.61,12.9,
25.87168239,-80.16628427,28:55.1,3/16/21,11,1.6,63.68,-7.046035247,0.84,78,73.2,1.41,-0.78,29,0,4.65,4.66,61,39,325.5,15,-2.6,D,519.2,1,62.158,2,1.87,176,87.79,-80.16566346,25.87170395,0,0,1,N,0.673686,69,69,11,170,170,83.56316,0,9999.99,4.67,4.797,2,9,26.1,0,26.10000038,30.81,1532.44924,3/16/21,11:07:25,23.95,47.34,30.81,1.162,8.4,-82,-4.6,-3.3,-3054,93.5,6.6,13,
25.8716849,-80.1662741,28:56.1,3/16/21,11,1.973,68.93,-7.046035247,0.84,86.5,81.3,3.01,-0.14,29,0,4.67,4.67,61,39,325.5,15,-2.6,D,519.2,1,61.132,2,1.88,176,88.01,-80.16566346,25.87170395,0,0,1,N,0.4019516,75,75,11,144,144,85.50034,0,9999.99,4.7,4.827,2,9,26.1,0,26.10000038,30.81,1532.44924,3/16/21,11:07:25,23.95,47.34,30.81,1.162,8.4,-82,-4.6,-3.3,-3054,93.5,6.6,13,
25.87168678,-80.16626518,28:57.1,3/16/21,11,1.503,71.53,-7.046035247,0.84,87.6,82.34,-1.01,-0.12,29,0,4.68,4.68,61,38,325.5,15,-2.5,D,522.3,1,60.233,2,1.87,176,88.18,-80.16566346,25.87170395,0,0,1,N,0.2169295,52,52,11,145,145,86.82348,0,9999.99,4.67,4.797,2,9,26.1,0,26.10000038,30.8,1532.43836,3/16/21,11:07:26,23.94,47.32,30.8,1.217,8.4,-82.1,-4.1,-4.3,-460,93.4,6.6,13,
25.87168953,-80.16625658,28:58.1,3/16/21,11,1.936,71.67,-7.046035247,0.84,92.8,87.24,2.72,0.24,29,0.01,4.68,4.68,61,38,325.5,15,-2.5,D,522.1,1,59.364,2,1.89,176,88.45,-80.16566346,25.87170395,0,0,1,N,0.0695435,71,71,11,138,138,88.87471,0,9999.99,4.7,4.827,2,9,26.1,0,26.10000038,30.82,1532.46003,3/16/21,11:07:28,23.94,47.35,30.82,1.196,8.4,-82.5,-3.1,-4.6,-896,93.2,6.58,12.9,
25.87169066,-80.16624453,28:59.3,3/16/21,11,1.664,78.63,-7.046035247,0.84,93.9,88.27,-1.15,-0.63,29,0.01,4.72,4.73,61,38,325.5,15,-2.5,D,522.1,1,58.155,2,1.85,176,88.54,-80.16566346,25.87170395,0,0,1,N,0.1686418,50,50,11,132,132,89.58431,0,9999.99,4.73,4.857,2,9,26.1,0,26.10000038,30.82,1532.46003,3/16/21,11:07:28,23.94,47.35,30.82,1.196,8.4,-82.5,-3.1,-4.6,-896,93.2,6.58,12.9,
25.87169071,-80.16623505,29:00.3,3/16/21,11,1.722,83.71,-7.046035247,0.84,98.8,92.86,1.94,0.3,29,0,4.66,4.66,61,38,325.5,15,-2.5,D,522.1,1,57.207,2,1.88,176,88.53,-80.16566346,25.87170395,0,0,1,N,0.1585373,69,69,11,114,114,89.51193,0,9999.99,4.67,4.797,2,9,26.1,0,26.10000038,30.84,1532.48147,3/16/21,11:07:29,23.95,47.38,30.84,1.161,8.4,-82.5,-3.7,98,35219,93.1,6.58,13,
25.87169128,-80.16622445,29:01.3,3/16/21,11,1.948,86.55,-7.046035247,0.84,97.2,91.36,-1.44,-0.17,29,0,4.73,4.73,61,38,325.5,15,-2.5,D,522.1,1,56.145,2,1.85,176,88.56,-80.16566346,25.87170395,0,0,1,N,0.1852373,48,48,11,120,120,89.70309,0,9999.99,4.73,4.857,2,9,26.1,0,26.10000038,30.85,1532.49198,3/16/21,11:07:31,23.96,47.39,30.85,1.14,8.41,-83,-3.9,-1,3886,93.1,6.57,13,
25.87169162,-80.16621592,29:02.3,3/16/21,11,1.706,86.51,-7.046035247,0.84,98.9,92.95,1.97,-0.79,29,0.02,4.68,4.7,61,41,325.5,15,-2.7,D,494.4,1,55.291,2,1.84,176,88.58,-80.16566346,25.87170395,0,0,1,N,0.2048016,64,64,11,116,116,89.84303,0,9999.99,4.68,4.807,2,9,26.1,0,26.10000038,30.85,1532.49198,3/16/21,11:07:31,23.96,47.39,30.85,1.14,8.41,-83,-3.9,-1,3886,93.1,6.57,13,
25.87169033,-80.16620484,29:03.3,3/16/21,11,1.945,94.51,-7.046035247,0.84,98.5,92.58,-0.18,4.8,29.1,0.01,4.69,4.7,61,41,325.5,15,-2.7,D,494.4,1,54.187,2,1.88,176,88.4,-80.16566346,25.87170395,0,0,1,N,3.01E-02,56,56,11,111,111,88.592,0,9999.99,4.71,4.837,2,9,26,0,26.10000038,30.82,1532.461,3/16/21,11:07:33,23.96,47.35,30.82,1.158,8.41,-82.8,-3.2,0.4,-312,93.2,6.58,13,
25.87168963,-80.16619543,29:04.3,3/16/21,11,2.001,92.38,-7.046035247,0.84,97.1,91.27,-0.12,-0.27,29.1,0.02,4.63,4.65,61,41,325.5,15,-2.7,D,494.4,1,53.248,2,1.93,176,88.29,-80.16566346,25.87170395,0,0,1,N,7.81E-02,56,56,11,113,113,87.81723,0,9999.99,4.62,4.747,2,9,26,0,26.10000038,30.82,1532.461,3/16/21,11:07:33,23.96,47.35,30.82,1.158,8.41,-82.8,-3.2,0.4,-312,93.2,6.58,13,
25.87168951,-80.16618538,29:05.3,3/16/21,11,1.837,91.16,-7.046035247,0.84,98.9,92.95,3.87,1.86,29.1,0.02,4.55,4.57,61,39,325.4,15,-2.6,D,508.6,1,52.243,2,1.89,176,88.24,-80.16566346,25.87170395,0,0,1,N,0.1136275,80,80,11,105,105,87.56283,0,9999.99,4.57,4.697,2,9,26,0,26,30.84,1532.24757,3/16/21,11:07:34,23.95,47.37,30.84,1.486,8.42,-83.3,-4.2,-5.5,-1936,93.2,6.58,13,
25.87168967,-80.16617542,29:06.3,3/16/21,11,1.806,92.86,-7.046035247,0.84,96.7,90.89,-0.03,0.81,29.1,0,4.59,4.6,61,39,325.4,15,-2.6,D,508.6,1,51.246,2,1.9,176,88.22,-80.16566346,25.87170395,0,0,1,N,0.1298403,59,59,11,115,115,87.44672,0,9999.99,4.6,4.727,2,9,26,0,26,30.81,1532.21447,3/16/21,11:07:35,23.96,47.33,30.81,1.395,8.41,-83,-3.2,-2.3,-3075,93.2,6.58,13,
25.87169038,-80.1661648,29:07.3,3/16/21,11,1.972,90.74,-7.046035247,0.87,95.3,89.58,0.94,4.15,29.1,0,4.42,4.42,61,39,325.4,15,-2.6,D,508.6,1,50.182,2,1.88,176,88.28,-80.16566346,25.87170395,0,0,1,N,8.20E-02,63,63,11,120,120,87.78904,0,9999.99,4.42,4.547,2,9,26,0,26,30.81,1532.21385,3/16/21,11:07:36,23.95,47.34,30.81,1.17,8.41,-83,-3.6,205.4,69973,93.3,6.59,12.9,
25.87169167,-80.16615617,29:08.3,3/16/21,10,1.527,88.5,-7.046035247,0.87,95.3,89.58,-0.58,4.18,29.1,0,4.28,4.28,61,39,325.4,15,-2.6,D,508.6,1,49.315,2,1.91,177,88.41,-80.16566346,25.87170395,0,0,1,N,3.13E-02,54,54,11,123,123,88.6009,0,9999.99,4.28,4.407,2,9,26,0,26,30.78,1532.18148,3/16/21,11:07:38,23.95,47.3,30.78,1.173,8.42,-83.3,-3.1,-2.8,-972,93.4,6.6,13,
25.87169226,-80.16614757,29:09.3,3/16/21,11,1.821,88.83,-7.046035247,0.84,97.6,91.73,1.92,-1.42,29.1,0.01,4.44,4.44,61,39,325.4,15,-2.6,D,516,1,48.453,2,1.9,177,88.46,-80.16566346,25.87170395,0,0,1,N,8.06E-02,67,67,11,119,119,88.95383,0,9999.99,4.45,4.577,2,9,26,0,26,30.78,1532.18148,3/16/21,11:07:38,23.95,47.3,30.78,1.173,8.42,-83.3,-3.1,-2.8,-972,93.4,6.6,13,
25.87169206,-80.16613787,29:10.3,3/16/21,11,1.903,89.53,-7.046035247,0.87,96.8,90.99,0.97,3.88,29.1,0,4.55,4.55,61,39,325.4,15,-2.6,D,516,1,47.483,2,1.92,177,88.4,-80.16566346,25.87170395,0,0,1,N,3.02E-02,63,63,11,117,117,88.59246,0,9999.99,4.57,4.697,2,9,26,0,26,30.79,1532.19259,3/16/21,11:07:39,23.96,47.31,30.79,1.329,8.42,-83.1,-3.8,-4,-4378,93.4,6.6,13,
25.87169267,-80.16612619,29:11.3,3/16/21,10,2.036,90.96,-7.046035247,0.87,99.4,93.42,1.27,2.16,29.1,0,4.62,4.63,61,39,325.4,15,-2.6,D,516,1,46.313,2,1.94,177,88.45,-80.16566346,25.87170395,0,0,1,N,6.95E-02,65,65,11,109,109,88.87431,0,9999.99,4.64,4.767,2,9,26,0,26,30.79,1532.19222,3/16/21,11:07:41,23.97,47.3,30.79,1.182,8.42,-83.2,-2.9,-3.3,-1792,93.5,6.6,13,
25.8716919,-80.16611487,29:12.4,3/16/21,11,1.83,92.22,-7.046035247,0.84,96.5,90.71,1.23,1.42,29.1,0,4.7,4.7,61,40,325.4,15,-2.6,D,503.4,1,45.184,2,1.94,177,88.3,-80.16566346,25.87170395,0,0,1,N,0.0541917,64,64,11,116,116,87.98836,0,9999.99,4.71,4.837,2,9,26,0,26,30.79,1532.19222,3/16/21,11:07:41,23.97,47.3,30.79,1.182,8.42,-83.2,-2.9,-3.3,-1792,93.5,6.6,13,
25.87169081,-80.16610732,29:13.4,3/16/21,11,1.228,92.22,-7.046035247,0.84,97.5,91.64,1.87,-3.8,29.1,0,4.7,4.7,61,40,325.4,15,-2.6,D,503.4,1,44.433,2,1.96,177,88.12,-80.16566346,25.87170395,0,0,1,N,0.1895458,68,68,11,109,109,87.01918,0,9999.99,4.71,4.837,2,9,26,0,26,30.81,1532.2137,3/16/21,11:07:42,23.96,47.34,30.81,1.224,8.42,-83.3,-3.5,-0.9,-3968,93.6,6.61,13.1,
25.87168836,-80.16609882,29:14.4,3/16/21,11,2.015,99.19,-7.046035247,0.87,99.6,93.6,-1.69,4.39,29.1,0,4.75,4.75,61,40,325.4,15,-2.6,D,503.4,1,43.593,2,2.01,177,87.72,-80.16566346,25.87170395,0,0,1,N,0.4833042,47,47,11,92,92,84.91926,0,9999.99,4.75,4.877,2,9,26,0,26,30.8,1532.20288,3/16/21,11:07:44,23.97,47.31,30.8,1.157,8.42,-83.3,-3.9,-0.1,-3385,93.6,6.61,12.9,
25.87168794,-80.16608813,29:15.4,3/16/21,10,1.701,94.07,-7.046035247,0.87,95.8,90.05,2.35,1.88,29.2,0.01,4.65,4.66,61,40,325.4,15,-2.6,D,503.4,1,42.526,2,1.94,177,87.6,-80.16566346,25.87170395,0,0,1,N,0.5702286,71,71,11,104,104,84.29937,0,9999.99,4.67,4.797,2,9,25.9,0,26,30.8,1532.20288,3/16/21,11:07:44,23.97,47.31,30.8,1.157,8.42,-83.3,-3.9,-0.1,-3385,93.6,6.61,12.9,
25.87168867,-80.16607845,29:16.4,3/16/21,11,2.013,91.53,-7.046035247,0.87,96.5,90.71,0.3,7.83,29.2,0.01,4.7,4.7,61,39,325.4,15,-2.6,D,510.6,1,41.555,2,1.97,177,87.66,-80.16566346,25.87170395,0,0,1,N,0.5180654,59,59,11,103,103,84.67126,0,9999.99,4.7,4.827,2,9,25.9,0,25.89999962,30.8,1531.9674,3/16/21,11:07:45,23.97,47.32,30.8,1.285,8.41,-83.1,-2.8,-3,-1188,93.6,6.61,13,
25.87168857,-80.1660676,29:17.4,3/16/21,11,2.019,92.65,-7.046035247,0.84,92.6,87.05,1.38,-4.06,29.2,0,4.8,4.81,61,39,325.4,15,-2.6,D,510.6,1,40.471,2,1.95,177,87.58,-80.16566346,25.87170395,0,0,1,N,0.5676499,65,65,11,116,116,84.31773,0,9999.99,4.81,4.937,2,9,25.9,0,25.89999962,30.8,1531.96729,3/16/21,11:07:46,23.98,47.32,30.8,1.192,8.46,-86,-2.9,-5.7,-2126,93.6,6.61,13,
25.87168632,-80.16605602,29:18.4,3/16/21,11,2.217,99.92,-7.046035247,0.84,95.2,89.49,2.11,1.2,29.2,0,4.81,4.82,61,39,325.4,15,-2.6,D,510.6,1,39.325,2,1.94,177,87.14,-80.16566346,25.87170395,0,0,1,N,0.8411323,67,67,11,96,96,82.37434,0,9999.99,4.82,4.947,2,9,25.9,0,25.89999962,30.81,1531.97769,3/16/21,11:07:47,23.97,47.33,30.81,1.372,8.42,-83.2,-4.6,-5.6,-1440,93.7,6.61,13.1,
25.87168654,-80.16604641,29:19.4,3/16/21,11,1.739,88.93,-7.046035247,0.84,94.1,88.46,-0.9,4.24,29.1,0,4.79,4.79,61,40,325.3,15,-2.7,D,498.5,1,38.363,2,1.91,177,87.11,-80.16566346,25.87170395,0,0,1,N,0.8479927,53,53,11,102,102,82.32571,0,9999.99,4.8,4.927,2,9,25.9,0,25.89999962,30.8,1531.96703,3/16/21,11:07:49,23.96,47.32,30.8,1.129,8.42,-83.5,-4.6,-3.9,-3278,93.7,6.62,13,
25.87168754,-80.1660379,29:20.4,3/16/21,11,1.919,89.84,-7.046035247,0.84,93.5,87.9,2.18,4.59,29.1,0,4.77,4.78,61,40,325.3,15,-2.7,D,498.5,1,37.507,2,1.91,177,87.21,-80.16566346,25.87170395,0,0,1,N,0.7672462,72,72,11,113,113,82.89822,0,9999.99,4.79,4.917,2,9,25.9,0,25.89999962,30.8,1531.96703,3/16/21,11:07:49,23.96,47.32,30.8,1.129,8.42,-83.5,-4.6,-3.9,-3278,93.7,6.62,13,
25.87168951,-80.16602718,29:21.4,3/16/21,11,2,84.65,-7.046035247,0.84,88.4,83.09,0.71,3.86,29.1,0,4.79,4.8,61,40,325.3,15,-2.7,D,498.5,1,36.426,2,1.88,177,87.47,-80.16566346,25.87170395,0,0,1,N,0.5860879,61,61,11,131,131,84.18639,0,9999.99,4.81,4.937,2,9,25.9,0,25.89999962,30.78,1531.94562,3/16/21,11:07:50,23.98,47.3,30.78,1.327,8.42,-83.1,-3.5,-4.3,-2578,93.7,6.62,13,
25.87168995,-80.16601573,29:22.4,3/16/21,11,2.001,85.67,-7.046035247,0.84,95.9,90.14,1.02,3.49,29.2,0,4.85,4.85,61,40,325.3,15,-2.7,D,498.5,1,35.279,2,1.86,177,87.47,-80.16566346,25.87170395,0,0,1,N,0.5529948,61,61,11,109,109,84.42222,0,9999.99,4.85,4.977,2,9,25.9,0,25.89999962,30.75,1531.9133,3/16/21,11:07:51,23.95,47.25,30.75,1.22,8.43,-84,-3.3,-2.3,-4343,93.8,6.63,13,
25.87169143,-80.16600568,29:23.4,3/16/21,11,1.979,82.09,-7.046035247,0.84,92.2,86.67,-0.29,0.83,29.1,0,4.82,4.82,61,39,325.3,15,-2.6,D,514.2,1,34.268,2,1.86,177,87.67,-80.16566346,25.87170395,0,0,1,N,0.4243692,55,55,11,122,122,85.33997,0,9999.99,4.85,4.977,2,9,25.9,0,25.89999962,30.73,1531.89193,3/16/21,11:07:53,23.95,47.23,30.73,1.153,8.43,-83.9,-2.9,-3.2,-1441,93.8,6.63,13,
25.87169271,-80.16599504,29:24.4,3/16/21,11,2.022,83.54,-7.046035247,0.84,89.8,84.41,1.74,4.6,29.1,0.01,4.78,4.79,61,39,325.3,15,-2.6,D,514.2,1,33.199,2,1.85,177,87.84,-80.16566346,25.87170395,0,0,1,N,0.3163744,67,67,11,134,134,86.11177,0,9999.99,4.77,4.897,2,9,25.9,0,25.89999962,30.73,1531.89193,3/16/21,11:07:53,23.95,47.23,30.73,1.153,8.43,-83.9,-2.9,-3.2,-1441,93.8,6.63,13,
25.87169262,-80.16598523,29:25.4,3/16/21,11,1.917,85.73,-7.046035247,0.84,93.5,87.9,2.08,1.53,29.1,0.01,4.83,4.84,61,39,325.3,15,-2.6,D,514.2,1,32.218,2,1.85,177,87.76,-80.16566346,25.87170395,0,0,1,N,0.3471752,69,69,11,119,119,85.89155,0,9999.99,4.86,4.987,2,9,25.9,0,25.89999962,30.73,1531.89294,3/16/21,11:07:54,23.92,47.22,30.73,1.396,8.44,-84.4,-3.3,-0.2,145,93.9,6.64,13,
25.87169296,-80.16597481,29:26.5,3/16/21,11,1.921,90.01,-7.046035247,0.84,91.5,86.02,0.52,0.38,29.1,0,4.87,4.88,61,39,325.3,15,-2.6,D,514.2,1,31.175,2,1.86,177,87.75,-80.16566346,25.87170395,0,0,1,N,0.3452469,60,60,11,127,127,85.90535,0,9999.99,4.87,4.997,2,9,25.9,0,25.89999962,30.8,1531.96711,3/16/21,11:07:56,23.92,47.32,30.8,1.188,8.43,-83.8,-2.4,-8.1,-2230,93.9,6.64,12.9,
25.87169353,-80.1659664,29:27.5,3/16/21,11,1.732,90.02,-7.046035247,0.84,91.5,86.02,1.6,2.15,29.2,0,4.83,4.83,61,40,325.3,15,-2.6,D,507.4,1,30.332,2,1.85,177,87.81,-80.16566346,25.87170395,0,0,1,N,0.3070431,67,67,11,128,128,86.17854,0,9999.99,4.84,4.967,2,9,25.9,0,25.89999962,30.8,1531.96711,3/16/21,11:07:56,23.92,47.32,30.8,1.188,8.43,-83.8,-2.4,-8.1,-2230,93.9,6.64,12.9,
25.87169186,-80.16595719,29:28.5,3/16/21,11,1.94,94.65,-7.046035247,0.84,95.7,89.96,0.88,-6.58,29.2,0,4.91,4.91,61,40,325.3,15,-2.6,D,507.4,1,29.418,2,1.9,177,87.38,-80.16566346,25.87170395,0,0,1,N,0.5042133,62,62,11,106,106,84.77008,0,9999.99,4.92,5.047,2,9,25.9,0,25.89999962,30.75,1531.91326,3/16/21,11:07:57,23.93,47.25,30.75,1.195,8.44,-84.5,-3.7,-0.8,-1591,93.9,6.64,13,
25.87169185,-80.16594683,29:29.5,3/16/21,11,1.853,91.93,-7.046035247,0.84,91.5,86.02,1.48,6.83,29.1,0.01,4.83,4.83,61,40,325.3,15,-2.6,D,507.4,1,28.383,2,1.85,177,87.28,-80.16566346,25.87170395,0,0,1,N,0.5448676,70,70,11,123,123,84.48016,0,9999.99,4.85,4.977,2,9,25.9,0,25.89999962,30.76,1531.92431,3/16/21,11:07:59,23.92,47.27,30.76,1.249,8.43,-84.2,-2.6,-0.4,-2735,94.1,6.65,13,
25.87169229,-80.16593654,29:30.5,3/16/21,11,1.974,88.26,-7.046035247,0.84,96.1,90.33,-0.29,2.76,29.2,0,4.91,4.92,61,40,325.2,15,-2.6,D,506.3,1,27.352,2,1.95,177,87.28,-80.16566346,25.87170395,0,0,1,N,0.5144774,55,55,11,104,104,84.69693,0,9999.99,4.91,5.037,2,9,25.9,0,25.89999962,30.76,1531.92431,3/16/21,11:07:59,23.92,47.27,30.76,1.249,8.43,-84.2,-2.6,-0.4,-2735,94.1,6.65,13,
25.87169137,-80.16592693,29:31.5,3/16/21,11,1.703,93.89,-7.046035247,0.84,90.7,85.26,1.63,1.8,29.2,0,4.79,4.79,61,40,325.2,15,-2.6,D,506.3,1,26.397,2,1.91,177,86.96,-80.16566346,25.87170395,0,0,1,N,0.6566025,67,67,11,121,121,83.68445,0,9999.99,4.8,4.927,2,9,25.9,0,25.89999962,30.75,1531.91346,3/16/21,11:08:00,23.94,47.25,30.75,1.257,8.44,-84.5,-3.2,-2.9,-3403,94.1,6.65,12.8,
25.87168962,-80.16591649,29:32.5,3/16/21,11,1.852,99.08,-7.046035247,0.84,93,87.43,1.52,0.86,29.2,0,4.83,4.83,61,40,325.2,15,-2.6,D,506.3,1,25.366,2,1.95,177,86.4,-80.16566346,25.87170395,0,0,1,N,0.8733006,66,66,11,106,106,82.14671,0,9999.99,4.84,4.964146,2,9,25.8,0,25.89999962,30.7,1531.85967,3/16/21,11:08:02,23.92,47.18,30.7,1.179,8.44,-84.3,-2.3,-2.8,-3595,94.2,6.66,13,
25.87169031,-80.16590738,29:33.5,3/16/21,11,1.74,85.81,-7.046035247,0.84,93.5,87.9,1.04,7.25,29.3,0,4.85,4.85,61,40,325.2,15,-2.6,D,506.3,1,24.451,2,1.89,177,86.44,-80.16566346,25.87170395,0,0,1,N,0.8284197,66,66,11,108,108,82.46455,0,9999.99,4.87,4.997,2,9,25.8,0,25.89999962,30.7,1531.85967,3/16/21,11:08:02,23.92,47.18,30.7,1.179,8.44,-84.3,-2.3,-2.8,-3595,94.2,6.66,13,
25.87169109,-80.16589878,29:34.5,3/16/21,11,1.844,91.64,-7.046035247,0.84,90.9,85.45,0.87,1.28,29.2,0,4.89,4.89,61,39,325.2,15,-2.6,D,517.3,1,23.587,2,1.87,177,86.52,-80.16566346,25.87170395,0,0,1,N,0.7660858,62,62,11,117,117,82.90654,0,9999.99,4.9,5.027,2,9,25.8,0,25.79999924,30.72,1531.64418,3/16/21,11:08:03,23.94,47.21,30.72,1.178,8.44,-84.7,-3.5,2,-1275,94.2,6.66,13,
25.8716898,-80.16588849,29:35.5,3/16/21,11,1.801,93.53,-7.046035247,0.84,89,83.66,1.23,-1.05,29.2,0,4.85,4.86,61,39,325.2,15,-2.6,D,517.3,1,22.569,2,1.89,178,86,-80.16566346,25.87170395,0,0,1,N,0.9421054,64,64,11,119,119,81.66018,0,9999.99,4.86,4.987,2,9,25.8,0,25.79999924,30.73,1531.65484,3/16/21,11:08:05,23.94,47.23,30.73,1.158,8.43,-84.2,-3.3,-5.4,-6030,94.3,6.66,13.1,
25.87169031,-80.16587908,29:36.5,3/16/21,11,1.62,89.04,-7.046035247,0.84,91,85.55,1.15,2.19,29.3,0,4.88,4.88,61,39,325.2,15,-2.6,D,517.3,1,21.626,2,1.93,178,85.98,-80.16566346,25.87170395,0,0,1,N,0.9086905,64,64,11,112,112,81.8963,0,9999.99,4.88,5.007,2,9,25.8,0,25.79999924,30.73,1531.65484,3/16/21,11:08:05,23.94,47.23,30.73,1.158,8.43,-84.2,-3.3,-5.4,-6030,94.3,6.66,13.1,
25.87169161,-80.16587031,29:37.5,3/16/21,11,1.713,86.72,-7.046035247,0.84,88.9,83.57,1.77,3.94,29.3,0,4.87,4.87,61,40,325.2,14.9,-2.7,D,496.7,1,20.741,2,1.95,178,86.21,-80.16566346,25.87170395,0,0,1,N,0.7967972,68,68,11,123,123,82.68872,0,9999.99,4.88,5.007,2,9,25.8,0,25.79999924,30.73,1531.65493,3/16/21,11:08:06,23.95,47.22,30.73,1.151,8.44,-84.8,-3.8,-4.3,-3525,94.3,6.66,13,
25.87169264,-80.16586018,29:38.5,3/16/21,11,1.934,88.13,-7.046035247,0.84,90.1,84.7,1.21,3.16,29.2,0,4.89,4.89,61,40,325.2,14.9,-2.7,D,496.7,1,19.722,2,1.94,178,86.34,-80.16566346,25.87170395,0,0,1,N,0.7075458,64,64,11,121,121,83.32233,0,9999.99,4.9,5.027,2,9,25.8,0,25.79999924,30.69,1531.61201,3/16/21,11:08:08,23.95,47.17,30.69,1.21,8.44,-84.3,-2.7,-1.7,-2613,94.4,6.67,12.8,
25.8716931,-80.16585142,29:39.6,3/16/21,11,1.737,87.38,-7.046035247,0.84,92.3,86.77,-0.01,2.53,29.2,0,4.89,4.89,61,40,325.2,14.9,-2.7,D,496.7,1,18.844,2,1.92,178,86.33,-80.16566346,25.87170395,0,0,1,N,0.6778643,57,57,11,114,114,83.53341,0,9999.99,4.9,5.027,2,9,25.8,0,25.79999924,30.69,1531.61201,3/16/21,11:08:08,23.95,47.17,30.69,1.21,8.44,-84.3,-2.7,-1.7,-2613,94.4,6.67,12.8,
25.8716932,-80.16584044,29:40.6,3/16/21,11,1.954,90.11,-7.046035247,0.84,88.2,82.9,1.17,-0.54,29.2,0,4.88,4.88,61,40,325.2,14.9,-2.7,D,496.7,1,17.747,2,1.93,178,86.14,-80.16566346,25.87170395,0,0,1,N,0.703632,64,64,11,129,129,83.35024,0,9999.99,4.89,5.017,2,9,25.8,0,25.79999924,30.73,1531.65501,3/16/21,11:08:09,23.93,47.22,30.73,1.199,8.44,-84.4,-4.4,-1.8,-4525,94.4,6.68,13,
25.87169212,-80.16583229,29:41.6,3/16/21,11,1.857,87.33,-7.046035247,0.84,89.1,83.75,1.26,1.67,29.2,0,4.89,4.89,61,40,325.1,14.9,-2.7,D,495.9,1,16.943,2,1.91,178,85.55,-80.16566346,25.87170395,0,0,1,N,0.8461533,62,62,11,121,121,82.33906,0,9999.99,4.89,5.017,2,9,25.8,0,25.79999924,30.7,1531.62272,3/16/21,11:08:11,23.94,47.19,30.7,1.244,8.44,-84.3,-2.9,-2.3,-1261,94.4,6.68,13,
25.8716946,-80.16582246,29:42.6,3/16/21,11,1.99,81,-7.046035247,0.84,88.1,82.81,1.49,6.94,29.2,0,4.92,4.92,61,40,325.1,14.9,-2.7,D,495.9,1,15.942,2,1.96,178,86.26,-80.16566346,25.87170395,0,0,1,N,0.6020486,67,67,11,129,129,84.07292,0,9999.99,4.93,5.057,2,9,25.8,0,25.79999924,30.7,1531.62272,3/16/21,11:08:11,23.94,47.19,30.7,1.244,8.44,-84.3,-2.9,-2.3,-1261,94.4,6.68,13,
25.87169651,-80.16581344,29:43.6,3/16/21,11,1.923,81.1,-7.046035247,0.84,86.4,81.2,1.46,3.02,29.2,0,4.89,4.89,61,40,325.1,14.9,-2.7,D,495.9,1,15.029,2,1.94,178,86.84,-80.16566346,25.87170395,0,0,1,N,0.4168626,63,63,11,141,141,85.39388,0,9999.99,4.89,5.017,2,9,25.8,0,25.79999924,30.74,1531.66597,3/16/21,11:08:12,23.93,47.24,30.74,1.127,8.44,-84.4,-3.4,-7.1,-3021,94.5,6.68,12.9,
25.87169629,-80.16580213,29:44.6,3/16/21,11,1.927,84.78,-7.046035247,0.84,90.6,85.17,1.61,-0.71,29.2,0,4.92,4.93,61,40,325.1,14.9,-2.7,D,498.4,1,13.901,2,2,178,86.49,-80.16566346,25.87170395,0,0,1,N,0.4620293,66,66,11,127,127,85.07143,0,9999.99,4.92,5.047,2,9,25.8,0,25.79999924,30.71,1531.63349,3/16/21,11:08:14,23.95,47.2,30.71,1.14,8.44,-84.3,-2.6,-3,-3371,94.5,6.68,12.8,
25.87169734,-80.16579056,29:45.6,3/16/21,11,1.872,85.28,-7.046035247,0.84,87,81.77,0.59,4.68,29.2,0,4.9,4.9,61,40,325.1,14.9,-2.7,D,498.4,1,12.737,2,1.92,178,86.69,-80.16566346,25.87170395,0,0,1,N,0.3877569,61,61,11,142,142,85.60163,0,9999.99,4.92,5.047,2,9,25.8,0,25.79999924,30.71,1531.63349,3/16/21,11:08:14,23.95,47.2,30.71,1.14,8.44,-84.3,-2.6,-3,-3371,94.5,6.68,12.8,
25.87169877,-80.1657822,29:46.6,3/16/21,11,1.637,80.29,-7.046035247,0.84,89.6,84.23,-1,-2.8,29.2,0.02,4.94,4.96,61,40,325.1,14.9,-2.7,D,498.4,1,11.894,2,1.95,178,87.22,-80.16566346,25.87170395,0,0,1,N,0.2450879,51,51,11,137,137,86.62174,0,9999.99,4.9,5.027,2,9,25.8,0,25.79999924,30.65,1531.56936,3/16/21,11:08:15,23.94,47.11,30.65,1.243,8.44,-84.5,-3.8,-0.9,-3438,94.5,6.68,13,
25.87169829,-80.16577317,29:47.6,3/16/21,11,2.103,88.05,-7.046035247,0.86,91.3,85.83,5.02,2.76,29.2,0.04,4.83,4.87,61,40,325.1,14.9,-2.7,D,498.4,1,10.994,2,1.89,178,86.72,-80.16566346,25.87170395,0,0,1,N,0.3217672,87,87,11,128,128,86.07328,0,9999.99,4.84,4.967,2,9,25.8,0,25.79999924,30.65,1531.57187,3/16/21,11:08:17,23.95,47.11,30.65,1.497,8.44,-84.6,-2.7,-10.5,-3271,94.5,6.68,13,
25.87169826,-80.16576358,29:48.6,3/16/21,11,1.643,90.66,-7.046035247,0.84,92.1,86.58,-1.33,2.8,29.2,0.01,4.88,4.89,61,41,325.1,14.9,-2.7,D,485.7,1,10.037,2,1.87,178,86.39,-80.16566346,25.87170395,0,0,1,N,0.3541833,49,49,11,124,124,85.84163,0,9999.99,4.91,5.037,2,9,25.8,0,25.79999924,30.65,1531.57187,3/16/21,11:08:17,23.95,47.11,30.65,1.497,8.44,-84.6,-2.7,-10.5,-3271,94.5,6.68,13,
25.87169841,-80.16575465,29:49.6,3/16/21,11,1.958,90.62,-7.046035247,0.84,93.7,88.08,1.17,1.16,29.2,0,4.86,4.87,61,41,325.1,14.9,-2.7,D,485.7,1,9.144,2,1.94,178,86.14,-80.16566346,25.87170395,0,0,1,N,0.3551856,64,64,11,118,118,85.83448,0,9999.99,4.85,4.977,2,9,25.8,0,25.79999924,30.62,1531.5374,3/16/21,11:08:18,23.93,47.07,30.62,1.096,8.44,-84.7,-2.8,-2.8,103,94.5,6.68,13,
25.87170052,-80.1657472,29:50.6,3/16/21,11,1.61,88.09,-7.046035247,0.84,91,85.55,-1.44,7.63,29.2,0.01,4.73,4.74,61,41,325.1,14.9,-2.7,D,485.7,1,8.387,2,1.88,178,87.4,-80.16566346,25.87170395,0,0,1,N,0.1501436,48,48,11,134,134,87.30141,0,9999.99,4.76,4.887,2,9,25.7,0,25.70000076,30.63,1531.31034,3/16/21,11:08:20,23.93,47.09,30.63,1.312,8.45,-84.9,-3.1,-4.3,-549,94.5,6.69,12.8,
25.87170217,-80.16573597,29:51.6,3/16/21,11,1.978,87.62,-7.046035247,0.84,95.8,90.05,1.5,0.16,29.3,0.02,4.75,4.77,61,41,325,14.9,-2.7,D,492.9,1,7.258,2,1.96,178,88.44,-80.16566346,25.87170395,0,0,1,N,1.41E-02,58,58,11,118,118,88.47762,0,9999.99,4.73,4.857,2,9,25.7,0,25.70000076,30.63,1531.31034,3/16/21,11:08:20,23.93,47.09,30.63,1.312,8.45,-84.9,-3.1,-4.3,-549,94.5,6.69,12.8,
25.87170287,-80.16572499,29:52.6,3/16/21,11,1.989,86.74,-7.046035247,0.84,95.6,89.86,1.73,3.3,29.3,0.01,4.65,4.67,61,41,325,14.9,-2.7,D,492.9,1,6.157,2,1.91,178,88.88,-80.16566346,25.87170395,0,0,1,N,5.89E-02,73,73,11,119,119,88.79891,0,9999.99,4.69,4.817,2,9,25.7,0,25.70000076,30.61,1531.29,3/16/21,11:08:21,23.93,47.06,30.61,1.397,8.45,-84.9,-3.2,-0.8,-1411,94.6,6.69,13,
25.87170276,-80.16571431,29:53.6,3/16/21,11,1.849,88.41,-7.046035247,0.84,98.3,92.39,-0.45,8,29.3,0,4.78,4.78,61,41,325,14.9,-2.7,D,492.9,1,5.09,2,1.89,178,88.52,-80.16566346,25.87170395,0,0,1,N,1.64E-02,54,54,11,111,111,88.49404,0,9999.99,4.79,4.917,2,9,25.7,0,25.70000076,30.62,1531.29977,3/16/21,11:08:23,23.93,47.07,30.62,1.2,8.44,-84.8,-3.8,-6.7,-1550,94.6,6.69,13,
25.87170135,-80.16570439,29:54.6,3/16/21,11,1.815,94.65,-7.046035247,0.84,96.3,90.52,1.25,-1.95,29.2,0,4.83,4.83,61,41,325,14.9,-2.7,D,492.9,2,64.928,2,1.9,178,89.32,-80.16505548,25.87170828,0,0,1,N,0.2534231,65,65,11,119,119,88.57523,0,9999.99,4.84,4.967,2,9,25.7,0,25.70000076,30.62,1531.29977,3/16/21,11:08:23,23.93,47.07,30.62,1.2,8.44,-84.8,-3.8,-6.7,-1550,94.6,6.69,13,
25.87170111,-80.16569474,29:55.6,3/16/21,11,1.878,93.7,-7.046035247,0.84,97.5,91.64,0.24,-0.74,29.3,0,4.83,4.83,61,41,325,14.9,-2.7,D,493.2,2,63.963,2,1.91,178,89.29,-80.16505548,25.87170828,0,0,1,N,0.2826296,56,56,11,110,110,88.33988,0,9999.99,4.84,4.967,2,9,25.7,0,25.70000076,30.59,1531.26698,3/16/21,11:08:24,23.93,47.03,30.59,1.28,8.45,-85.4,-3.4,-2.7,-652,94.7,6.7,12.9,
25.87170098,-80.16568533,29:56.6,3/16/21,11,1.846,92.91,-7.046035247,0.84,96,90.24,-0.36,5.99,29.3,0,4.89,4.89,61,41,325,14.9,-2.7,D,493.2,2,63.022,2,1.86,178,89.26,-80.16505548,25.87170828,0,0,1,N,0.3117749,55,55,11,118,118,88.04178,0,9999.99,4.9,5.027,2,9,25.7,0,25.70000076,30.62,1531.2992,3/16/21,11:08:25,23.9,47.07,30.62,1.172,8.46,-85.5,-2.1,-2.1,-3584,94.7,6.71,13,
25.87169931,-80.16567602,29:57.6,3/16/21,11,1.983,98.15,-7.046035247,0.84,97.6,91.73,2.25,1.13,29.2,0.01,4.95,4.95,61,41,325,14.9,-2.7,D,493.2,2,62.094,2,1.9,178,89.08,-80.16505548,25.87170828,0,0,1,N,0.4989208,71,71,11,107,107,86.78162,0,9999.99,4.96,5.087,2,9,25.7,0,25.70000076,30.6,1531.27805,3/16/21,11:08:27,23.92,47.05,30.6,1.277,8.46,-85.5,-3.4,-0.5,-254,94.8,6.71,13,
25.87169898,-80.16566561,29:58.7,3/16/21,11,1.784,94.96,-7.046035247,0.84,95.3,89.58,0.08,7.92,29.3,0,4.97,4.98,61,40,325,14.9,-2.7,D,494.4,2,61.053,2,1.89,178,89.03,-80.16505548,25.87170828,0,0,1,N,0.5526074,57,57,11,112,112,85.86633,0,9999.99,4.98,5.107,2,9,25.7,0,25.70000076,30.63,1531.31048,3/16/21,11:08:28,23.9,47.08,30.63,1.255,8.46,-85.6,-4.8,-6,-3291,94.8,6.71,12.8,
25.87169893,-80.16565588,29:59.7,3/16/21,11,1.833,98.09,-7.046035247,0.84,96.9,91.08,1.79,2.25,29.3,0,4.95,4.95,61,40,325,14.9,-2.7,D,494.4,2,60.079,2,1.91,178,89.01,-80.16505548,25.87170828,0,0,1,N,0.5577547,68,68,11,105,105,85.55878,0,9999.99,4.96,5.087,2,9,25.7,0,25.70000076,30.63,1531.31048,3/16/21,11:08:28,23.9,47.08,30.63,1.255,8.46,-85.6,-4.8,-6,-3291,94.8,6.71,12.8,
25.87169775,-80.16564504,30:00.7,3/16/21,11,2.046,95.03,-7.046035247,0.84,95,89.3,1.29,1.88,29.4,0,4.97,4.98,61,40,325,14.9,-2.7,D,494.4,2,58.997,2,1.95,178,88.86,-80.16505548,25.87170828,0,0,1,N,0.7014645,65,65,11,108,108,84.53574,0,9999.99,4.99,5.117,2,9,25.7,0,25.70000076,30.64,1531.3207,3/16/21,11:08:29,23.89,47.1,30.64,1.274,8.46,-85.5,-4.3,-4.2,-3736,94.9,6.72,13,
25.87169809,-80.16563461,30:01.7,3/16/21,11,1.987,95.26,-7.046035247,0.84,96.4,90.61,-0.13,4.97,29.3,0,4.97,4.97,61,40,325,14.9,-2.7,D,494.4,2,57.954,2,1.92,178,88.88,-80.16505548,25.87170828,0,0,1,N,0.6703258,56,56,11,104,104,84.75689,0,9999.99,4.98,5.107,2,9,25.7,0,25.70000076,30.63,1531.31019,3/16/21,11:08:31,23.9,47.08,30.63,1.164,8.46,-85.7,-3.6,0.9,-2201,94.9,6.72,13,
25.871699,-80.16562283,30:02.7,3/16/21,11,1.962,89.35,-7.046035247,0.84,93,87.43,1.45,-0.89,29.2,0,4.89,4.89,61,40,324.9,14.9,-2.7,D,496,2,56.915,2,2,178,88.7,-80.16505548,25.87170828,0,0,1,N,0.8320193,66,66,11,112,112,83.60826,0,9999.99,4.9,5.024153,2,9,25.7,0,25.70000076,30.63,1531.31019,3/16/21,11:08:31,23.9,47.08,30.63,1.164,8.46,-85.7,-3.6,0.9,-2201,94.9,6.72,13,
25.87169817,-80.16561233,30:03.7,3/16/21,11,1.883,91.69,-7.046035247,0.84,89.4,84.04,1.36,8.5,29.2,0,4.97,4.97,61,40,324.9,14.9,-2.7,D,496,2,55.813,2,1.95,178,88.97,-80.16505548,25.87170828,0,0,1,N,0.5722837,65,65,11,133,133,85.45457,0,9999.99,4.97,5.097,2,9,25.7,0,25.70000076,30.63,1531.30993,3/16/21,11:08:32,23.88,47.09,30.63,1.304,8.46,-85.8,-3.7,-5.3,-2091,94.9,6.72,12.8,
25.87169767,-80.16560233,30:04.7,3/16/21,11,1.917,91.39,-7.046035247,0.84,97.4,91.55,1.31,8.8,29.2,0,4.98,4.99,61,40,324.9,14.9,-2.7,D,496,2,54.736,2,1.96,178,88.85,-80.16505548,25.87170828,0,0,1,N,0.6577841,68,68,11,103,103,84.84572,0,9999.99,4.99,5.117,2,9,25.7,0,25.70000076,30.62,1531.29918,3/16/21,11:08:34,23.9,47.07,30.62,1.149,8.46,-85.7,-4,-1.9,-1933,94.9,6.72,13,
25.87169728,-80.16559142,30:05.7,3/16/21,11,1.865,97.11,-7.046035247,0.84,88.6,83.28,0.86,-4.57,29.2,0.01,4.96,4.97,61,41,324.9,14.9,-2.7,D,488.9,2,53.635,2,1.96,178,88.69,-80.16505548,25.87170828,0,0,1,N,0.7622854,62,62,11,129,129,83.7652,0,9999.99,4.97,5.097,2,9,25.7,0,25.70000076,30.63,1531.31037,3/16/21,11:08:35,23.87,47.08,30.63,1.267,8.47,-86.3,-4.2,-3.2,-2313,95,6.73,13,
25.87169748,-80.16558195,30:06.7,3/16/21,11,1.826,87.82,-7.046035247,0.84,95.6,89.86,1.31,3.42,29.2,0,4.91,4.92,61,41,324.9,14.9,-2.7,D,492.8,2,52.688,2,1.89,178,88.69,-80.16505548,25.87170828,0,0,1,N,0.7875347,65,65,11,103,103,83.97189,0,9999.99,4.92,5.047,2,9,25.7,0,25.70000076,30.53,1531.20289,3/16/21,11:08:36,23.89,46.95,30.53,1.161,8.47,-86.1,-4,-0.7,-2476,95,6.73,13,
25.87169755,-80.16557277,30:07.7,3/16/21,11,1.823,88.64,-7.046035247,0.84,92.5,86.96,-0.66,7.31,29.3,0.01,4.94,4.95,61,41,324.9,14.9,-2.7,D,492.8,2,51.769,2,1.89,178,88.68,-80.16505548,25.87170828,0,0,1,N,0.7568225,53,53,11,115,115,83.92092,0,9999.99,4.97,5.097,2,9,25.7,0,25.70000076,30.52,1531.19231,3/16/21,11:08:37,23.9,46.93,30.52,1.188,8.47,-86,-3.9,-1.7,-4376,95,6.73,13,
25.87169811,-80.16556362,30:08.8,3/16/21,11,1.68,92.06,-7.046035247,0.84,89,83.66,3.36,6.82,29.2,0.01,4.91,4.92,61,41,324.9,14.9,-2.7,D,492.8,2,50.852,2,1.9,178,88.73,-80.16505548,25.87170828,0,0,1,N,0.7547885,77,77,11,129,129,84.2633,0,9999.99,4.9,5.027,2,9,25.7,0,25.70000076,30.52,1531.1924,3/16/21,11:08:38,23.88,46.93,30.52,1.284,8.47,-86.3,-4.2,-2.2,-2738,95.1,6.74,13,
25.87169708,-80.16555449,30:09.8,3/16/21,11,1.649,94.52,-7.046035247,0.87,89.5,84.13,1.53,3.8,29.2,0.01,4.86,4.86,61,40,324.9,14.9,-2.6,D,500.4,2,49.942,2,1.84,178,88.57,-80.16505548,25.87170828,0,0,1,N,0.7109578,66,66,11,124,124,83.42864,0,9999.99,4.88,5.007,2,9,25.7,0,25.70000076,30.52,1531.19245,3/16/21,11:08:39,23.87,46.93,30.52,1.135,8.47,-86.4,-4.1,0.7,-4204,95.2,6.74,13,
25.87169666,-80.16554609,30:10.8,3/16/21,11,1.613,93.11,-7.046035247,0.84,92.7,87.14,-0.28,1.66,29.2,0.01,4.93,4.94,61,40,324.9,14.9,-2.6,D,500.4,2,49.103,2,1.9,178,88.49,-80.16505548,25.87170828,0,0,1,N,0.8307202,49,49,11,103,103,83.11619,0,9999.99,4.94,5.067,2,9,25.7,0,25.70000076,30.49,1531.16037,3/16/21,11:08:40,23.89,46.89,30.49,1.12,8.47,-86.2,-3.3,-2.6,-2886,95.1,6.74,12.9,
25.87169721,-80.16553681,30:11.8,3/16/21,11,1.829,92.82,-7.046035247,0.84,91.3,85.83,1.83,2.98,29.2,0.02,4.88,4.89,61,40,324.9,14.9,-2.6,D,500.4,2,48.173,2,1.83,178,88.54,-80.16505548,25.87170828,0,0,1,N,0.8573263,68,68,11,118,118,83.45467,0,9999.99,4.88,5.007,2,9,25.6,0,25.60000038,30.47,1530.90114,3/16/21,11:08:41,23.89,46.86,30.47,1.399,8.48,-86.6,-3.4,-4.1,-2422,95.2,6.74,13,
25.87169762,-80.16552646,30:12.8,3/16/21,11,1.918,90.8,-7.046035247,0.84,90.2,84.79,0.57,5.48,29.2,0,4.9,4.9,61,40,324.9,14.9,-2.6,D,500.4,2,47.137,2,1.9,178,88.56,-80.16505548,25.87170828,0,0,1,N,0.7862178,64,64,11,127,127,83.66137,0,9999.99,4.92,5.047,2,9,25.7,0,25.60000038,30.48,1530.91139,3/16/21,11:08:42,23.87,46.88,30.48,1.133,8.47,-86.4,-3.9,-0.7,-2762,95.2,6.74,12.9,
25.87169995,-80.16551727,30:13.8,3/16/21,11,1.556,85.84,-7.046035247,0.84,87,81.77,0.9,-3.89,29.2,0,4.95,4.95,61,40,324.8,14.9,-2.6,D,505.2,2,46.212,2,1.92,178,88.85,-80.16505548,25.87170828,0,0,1,N,0.7633237,62,62,11,142,142,85.45045,0,9999.99,4.95,5.077,2,9,25.6,0,25.60000038,30.46,1530.88909,3/16/21,11:08:43,23.88,46.85,30.46,1.178,8.47,-86.4,-4,-4.3,-4083,95.1,6.74,13,
25.87170074,-80.16550794,30:14.8,3/16/21,11,2.04,87.36,-7.046035247,0.84,90.5,85.07,1.44,3.99,29.2,0,4.85,4.85,61,40,324.8,14.9,-2.6,D,505.2,2,45.277,2,1.89,179,88.94,-80.16505548,25.87170828,0,0,1,N,0.5062487,66,66,11,131,131,86.05964,0,9999.99,4.86,4.987,2,9,25.6,0,25.60000038,30.44,1530.86755,3/16/21,11:08:44,23.9,46.83,30.44,1.252,8.48,-87,-4.2,-1.6,-1190,95.2,6.74,12.9,
25.87170113,-80.16549961,30:15.8,3/16/21,11,1.559,88.85,-7.046035247,0.84,87.2,81.96,2.3,-0.25,29.2,0,4.91,4.92,61,40,324.8,14.9,-2.6,D,505.2,2,44.442,2,1.93,179,88.97,-80.16505548,25.87170828,0,0,1,N,0.4566925,71,71,11,144,144,86.2782,0,9999.99,4.93,5.057,2,9,25.6,0,25.60000038,30.44,1530.86749,3/16/21,11:08:45,23.89,46.82,30.44,1.189,8.47,-86.6,-4.5,-6.1,906,95.2,6.74,13,
25.87170251,-80.1654905,30:16.8,3/16/21,11,1.933,86.45,-7.046035247,0.84,93.7,88.08,1.56,-0.93,29.2,0.01,4.86,4.87,61,42,324.8,14.9,-2.8,D,480.9,2,43.528,2,1.82,179,89.15,-80.16505548,25.87170828,0,0,1,N,0.3807774,58,58,11,124,124,87.41795,0,9999.99,4.88,5.007,2,9,25.6,0,25.60000038,30.45,1530.87868,3/16/21,11:08:46,23.87,46.83,30.45,1.176,8.47,-86.5,-4.6,-2.3,-2353,95.3,6.75,13.1,
25.87170254,-80.16547987,30:17.8,3/16/21,11,1.852,91.8,-7.046035247,0.84,92.2,86.67,2.67,8,29.2,0.02,4.85,4.87,61,42,324.8,14.9,-2.8,D,480.9,2,42.465,2,1.91,179,89.14,-80.16505548,25.87170828,0,0,1,N,0.3045766,73,73,11,130,130,87.36574,0,9999.99,4.88,5.007,2,9,25.6,0,25.60000038,30.43,1530.85806,3/16/21,11:08:47,23.88,46.81,30.43,1.362,8.48,-86.6,-3.7,-4.2,-3428,95.3,6.75,13.1,
25.87170405,-80.16547102,30:18.8,3/16/21,11,1.685,89.75,-7.046035247,0.84,93.5,87.9,-1.89,0.47,29.2,0.01,4.92,4.92,61,42,324.8,14.9,-2.8,D,480.9,2,41.577,2,1.91,179,89.35,-80.16505548,25.87170828,0,0,1,N,0.1423831,46,46,11,130,130,88.52638,0,9999.99,4.93,5.057,2,9,25.6,0,25.60000038,30.42,1530.84718,3/16/21,11:08:48,23.9,46.79,30.42,1.095,8.48,-86.8,-4.3,66,92491,95.3,6.75,12.9,
25.87170427,-80.1654638,30:19.8,3/16/21,11,1.894,96.52,-7.046035247,0.84,96.2,90.43,3.04,5.11,29.2,0.01,4.83,4.83,61,42,324.8,14.9,-2.8,D,480.9,2,40.855,2,1.87,179,89.37,-80.16505548,25.87170828,0,0,1,N,0.1511688,73,73,11,114,114,88.72597,0,9999.99,4.82,4.947,2,9,25.6,0,25.60000038,30.39,1530.81416,3/16/21,11:08:49,23.9,46.75,30.39,1.475,8.47,-86.4,-3.8,-3.7,-3109,95.3,6.75,13,
25.87170534,-80.16545474,30:20.8,3/16/21,11,1.747,85.98,-7.046035247,0.84,95.3,89.58,-0.97,5.42,29.2,0,4.9,4.9,61,41,324.8,14.9,-2.7,D,490.3,2,39.948,2,1.96,179,89.53,-80.16505548,25.87170828,0,0,1,N,0.1135244,56,56,11,129,129,89.47122,0,9999.99,4.93,5.057,2,9,25.6,0,25.60000038,30.42,1530.84629,3/16/21,11:08:50,23.89,46.8,30.42,1.163,8.48,-86.7,-4.7,-0.3,-2170,95.4,6.76,13,
25.87170579,-80.16544502,30:21.8,3/16/21,11,1.663,88.87,-7.046035247,0.84,97.3,91.45,0.79,0.96,29.2,0,4.93,4.93,61,41,324.8,14.9,-2.7,D,490.3,2,38.974,2,1.91,179,89.59,-80.16505548,25.87170828,0,0,1,N,3.51E-02,62,62,11,120,120,89.79748,0,9999.99,4.92,5.047,2,9,25.6,0,25.60000038,30.44,1530.86756,3/16/21,11:08:51,23.87,46.83,30.44,1.301,8.48,-86.9,-5.4,8.1,-846,95.5,6.77,13,
25.87170347,-80.16543693,30:22.8,3/16/21,11,1.91,99.9,-7.046035247,0.84,96.4,90.61,0.61,7.32,29.2,0,4.85,4.86,61,41,324.8,14.9,-2.7,D,490.3,2,38.168,2,1.93,179,89.2,-80.16505548,25.87170828,0,0,1,N,8.52E-03,61,61,11,116,116,87.91057,0,9999.99,4.87,4.997,2,9,25.6,0,25.60000038,30.44,1530.86755,3/16/21,11:08:52,23.88,46.83,30.44,1.288,8.48,-86.7,-4.4,0.9,-800,95.5,6.77,12.9,
25.87170062,-80.16542792,30:23.8,3/16/21,11,1.834,103.72,-7.046035247,0.84,97,91.17,0.88,8,29.2,0.01,4.87,4.88,61,42,324.7,14.9,-2.8,D,481,2,37.273,2,1.94,179,88.69,-80.16505548,25.87170828,0,0,1,N,0.2688957,64,64,11,104,104,85.60931,0,9999.99,4.88,5.007,2,9,25.6,0,25.60000038,30.43,1530.85732,3/16/21,11:08:53,23.9,46.81,30.43,1.262,8.47,-86.5,-3.6,-1.8,-4661,95.5,6.77,13.1,
25.87169905,-80.16541752,30:24.8,3/16/21,11,1.934,96.25,-7.046035247,0.84,96.7,90.89,0.83,6.55,29.2,0.01,4.89,4.9,61,42,324.7,14.9,-2.8,D,481,2,36.237,2,1.92,179,88.38,-80.16505548,25.87170828,0,0,1,N,0.7329771,62,62,11,101,101,84.31104,0,9999.99,4.9,5.027,2,9,25.6,0,25.60000038,30.44,1530.86791,3/16/21,11:08:54,23.9,46.82,30.44,1.123,8.48,-86.9,-3.9,-6.1,-3050,95.5,6.77,13.1,
25.87170033,-80.16540859,30:25.8,3/16/21,11,2.093,89.55,-7.046035247,0.84,95.2,89.49,0.55,-1.08,29.2,0,4.9,4.9,61,42,324.7,14.9,-2.8,D,481,2,35.34,2,1.92,179,88.57,-80.16505548,25.87170828,0,0,1,N,0.7487801,60,60,11,110,110,85.2347,0,9999.99,4.91,5.037,2,9,25.6,0,25.60000038,30.46,1530.88941,3/16/21,11:08:55,23.88,46.85,30.46,1.29,8.48,-86.8,-5.2,-2.3,-2239,95.5,6.77,13,
25.87170184,-80.16539874,30:26.8,3/16/21,11,1.689,89.85,-7.046035247,0.84,95.8,90.05,1.32,6.31,29.3,0,4.91,4.91,61,42,324.7,14.9,-2.8,D,481,2,34.351,2,1.96,179,88.8,-80.16505548,25.87170828,0,0,1,N,0.6032453,65,65,11,112,112,86.36964,0,9999.99,4.92,5.047,2,9,25.6,0,25.60000038,30.46,1530.88895,3/16/21,11:08:56,23.88,46.86,30.46,1.22,8.48,-86.8,-4.5,-3.2,-3296,95.6,6.77,12.9,
25.87170035,-80.1653884,30:27.8,3/16/21,11,2.042,97.03,-7.046035247,0.89,91.9,86.39,1.9,9.2,29.2,0,4.91,4.91,61,42,324.7,14.9,-2.8,D,480,2,33.321,2,1.97,179,88.48,-80.16505548,25.87170828,0,0,1,N,0.4546166,66,66,11,113,113,85.12199,0,9999.99,4.91,5.037,2,9,25.6,0,25.60000038,30.46,1530.88923,3/16/21,11:08:57,23.9,46.85,30.46,1.123,8.47,-86.6,-3.2,-1.4,-1698,95.6,6.77,13,
25.87170127,-80.16537711,30:28.8,3/16/21,11,2.052,85.88,-7.046035247,0.84,94.8,89.11,1.41,1.23,29.2,0.01,4.89,4.89,61,42,324.7,14.9,-2.8,D,480,2,32.189,2,1.98,179,88.61,-80.16505548,25.87170828,0,0,1,N,0.520584,65,65,11,114,114,85.82284,0,9999.99,4.9,5.027,2,9,25.6,0,25.60000038,30.46,1530.88938,3/16/21,11:08:58,23.91,46.86,30.46,1.185,8.48,-86.7,-3.9,-2,-4398,95.6,6.77,13.1,
25.87170113,-80.16536976,30:29.8,3/16/21,10,1.591,87.75,-7.046035247,0.87,96.2,90.43,-0.59,-0.14,29.1,0.01,4.81,4.82,61,42,324.7,14.9,-2.8,D,480,2,31.454,2,1.93,179,88.55,-80.16505548,25.87170828,0,0,1,N,0.5430452,53,53,11,108,108,85.67692,0,9999.99,4.83,4.957,2,9,25.6,0,25.60000038,30.46,1530.88945,3/16/21,11:08:59,23.9,46.86,30.46,1.303,8.48,-86.8,-4.1,-2.9,-2376,95.6,6.77,13.1,
25.87170235,-80.1653599,30:30.8,3/16/21,10,1.957,83.87,-7.046035247,0.87,95.2,89.49,1.71,5.78,29.2,0.01,4.84,4.85,61,42,324.7,14.9,-2.8,D,479.3,2,30.465,2,1.97,179,88.76,-80.16505548,25.87170828,0,0,1,N,0.4976395,67,67,11,115,115,86.54719,0,9999.99,4.84,4.967,2,9,25.6,0,25.60000038,30.47,1530.90037,3/16/21,11:09:00,23.89,46.86,30.47,1.369,8.48,-86.9,-4.2,0.7,-1180,95.6,6.77,13,
25.87170249,-80.1653492,30:31.8,3/16/21,10,1.942,91.12,-7.046035247,0.87,94.2,88.55,-2.08,3.16,29.2,0.01,4.85,4.86,61,42,324.7,14.9,-2.8,D,479.3,2,29.394,2,2.01,179,88.75,-80.16505548,25.87170828,0,0,1,N,0.4228486,45,45,11,116,116,86.61821,0,9999.99,4.87,4.997,2,9,25.6,0,25.60000038,30.45,1530.87862,3/16/21,11:09:01,23.87,46.83,30.45,1.124,8.48,-86.9,-5,-1.9,-1959,95.7,6.78,12.9,
25.87170312,-80.16533724,30:32.9,3/16/21,10,2.047,89.47,-7.046035247,0.87,98.7,92.76,0.78,5.62,29.2,0.01,4.73,4.74,61,42,324.7,14.9,-2.8,D,479.3,2,28.196,2,1.96,179,88.83,-80.16505548,25.87170828,0,0,1,N,0.3886955,62,62,11,110,110,87.08005,0,9999.99,4.72,4.847,2,9,25.6,0,25.60000038,30.46,1530.88975,3/16/21,11:09:02,23.87,46.86,30.46,1.441,8.48,-87.1,-4.2,-4.6,-3353,95.8,6.79,13,
25.87170279,-80.16532535,30:33.9,3/16/21,10,1.914,92.36,-7.046035247,0.87,91.5,86.02,0.11,9.7,29.2,0,4.62,4.62,61,42,324.7,14.9,-2.8,D,479.3,2,27.008,2,2.07,179,88.7,-80.16505548,25.87170828,0,0,1,N,0.4036193,58,58,11,130,130,86.65778,0,9999.99,4.63,4.757,2,9,25.6,0,25.60000038,30.45,1530.87892,3/16/21,11:09:03,23.87,46.84,30.45,1.29,8.48,-87.1,-3.1,-1.2,-958,95.8,6.79,13,
25.87170306,-80.16531687,30:34.9,3/16/21,9,1.492,92.36,-7.046035247,0.9,90.3,84.89,0.36,2.18,29.2,0.04,4.73,4.76,61,42,324.6,14.9,-2.8,D,475.8,2,26.158,2,2.05,179,88.73,-80.16505548,25.87170828,0,0,1,N,0.3791517,53,53,11,131,131,86.83259,0,9999.99,4.71,4.837,2,9,25.6,0,25.60000038,30.1,1530.50486,3/16/21,11:09:04,23.87,46.35,30.1,1.112,8.49,-87.4,-2.9,83.7,-1156,95.8,6.8,12.9,
25.8717029,-80.16530836,30:35.9,3/16/21,10,1.69,92.36,-7.046035247,0.88,92.1,86.58,6.76,4.52,29.2,0.04,4.67,4.7,61,42,324.6,14.9,-2.8,D,475.8,2,25.308,2,1.91,179,88.64,-80.16505548,25.87170828,0,0,1,N,0.4033208,98,98,11,127,127,86.6599,0,9999.99,4.67,4.797,2,9,25.6,0,25.60000038,30.3,1530.72058,3/16/21,11:09:05,23.87,46.63,30.3,1.592,8.49,-87.3,-4.2,-3.1,-3361,95.8,6.8,13,
25.87170284,-80.16529771,30:36.9,3/16/21,10,2.026,90.82,-7.046035247,0.88,95.1,89.4,-2.69,0.71,29.3,0.01,4.77,4.78,61,42,324.6,14.9,-2.8,D,475.8,2,24.243,2,1.9,179,88.57,-80.16505548,25.87170828,0,0,1,N,0.412228,43,43,11,116,116,86.59629,0,9999.99,4.83,4.957,2,9,25.6,0,25.60000038,30.06,1530.46193,3/16/21,11:09:06,23.87,46.29,30.06,1.278,8.49,-87.6,-3.8,-0.6,-2903,95.8,6.8,13,
25.87170511,-80.1652895,30:37.9,3/16/21,10,1.719,85.8,-7.046035247,0.88,94.3,88.65,0.43,2.78,29.2,0.03,4.79,4.82,61,42,324.6,14.9,-2.8,D,480.4,2,23.416,2,1.95,179,89.14,-80.16505548,25.87170828,0,0,1,N,0.1722274,58,58,11,134,134,88.31275,0,9999.99,4.77,4.897,2,9,25.6,0,25.60000038,30.06,1530.46149,3/16/21,11:09:07,23.87,46.3,30.06,1.417,8.49,-87.7,462.4,0.3,521,95.8,6.81,13,
25.87170665,-80.16528109,30:38.9,3/16/21,10,1.517,84.98,-7.046035247,0.88,88.3,83,2.61,-2.81,29.2,0.01,4.67,4.69,61,42,324.6,14.9,-2.8,D,480.4,2,22.573,2,1.9,179,89.54,-80.16505548,25.87170828,0,0,1,N,0.0170443,73,73,11,153,153,89.42399,0,9999.99,4.68,4.807,2,9,25.6,0,25.60000038,30.06,1530.46093,3/16/21,11:09:08,23.86,46.31,30.06,1.447,8.49,-87.6,-4.5,-2.2,-2460,95.9,6.82,12.8,
25.87170661,-80.16527247,30:39.9,3/16/21,10,1.62,89.83,-7.046035247,0.88,94,88.36,-3.14,-1.74,29.3,0.01,4.75,4.76,61,42,324.6,14.9,-2.8,D,480.4,2,21.711,2,1.95,179,89.51,-80.16505548,25.87170828,0,0,1,N,1.86E-02,43,43,11,131,131,89.41317,0,9999.99,4.75,4.877,2,9,25.6,0,25.60000038,30.03,1530.42793,3/16/21,11:09:09,23.85,46.26,30.03,1.059,8.49,-87.6,-3.7,-4.2,-2931,96.1,6.83,13,
25.87170443,-80.16526357,30:40.9,3/16/21,10,1.602,89.83,-7.046035247,0.9,98.2,92.3,5.18,6.4,29.3,0.03,4.59,4.62,61,42,324.6,14.9,-2.8,D,480.4,2,20.824,2,1.89,179,88.82,-80.16505548,25.87170828,0,0,1,N,0.2597736,88,88,11,109,109,87.68626,0,9999.99,4.57,4.697,2,9,25.6,0,25.60000038,30.06,1530.46186,3/16/21,11:09:10,23.82,46.3,30.06,1.65,8.5,-88,-4.7,-5.3,-1511,96.1,6.83,13.1,
25.87170903,-80.16525523,30:41.9,3/16/21,10,1.671,84.21,-7.046035247,0.88,99.1,93.14,-0.89,2.87,29.3,0.01,4.57,4.58,61,41,324.5,14.9,-2.7,D,486.7,2,19.985,2,1.9,179,90.24,-80.16505548,25.87170828,0,0,1,N,0.252051,52,52,11,120,120,91.35068,0,9999.99,4.62,4.747,2,9,25.5,0,25.5,30.01,1530.16753,3/16/21,11:09:11,23.81,46.23,30.01,1.419,8.5,-87.9,-4.6,-7.2,-704,96.3,6.85,13,
25.87170974,-80.16524551,30:42.9,3/16/21,10,1.878,90.61,-7.046035247,0.88,98.5,92.58,0.5,2.67,29.2,0,4.66,4.66,61,41,324.5,14.9,-2.7,D,486.7,2,19.013,2,1.92,179,90.49,-80.16505548,25.87170828,0,0,1,N,0.3201771,60,60,11,124,124,91.83797,0,9999.99,4.65,4.777,2,9,25.5,0,25.5,29.98,1530.1338,3/16/21,11:09:12,23.81,46.18,29.98,1.233,8.49,-87.8,-4,-3.7,-4209,96.3,6.85,12.8,
25.87170598,-80.16523733,30:43.9,3/16/21,10,1.55,100.49,-7.046035247,0.88,101,94.91,-3.97,8.9,29.3,0,4.4,4.4,61,41,324.5,14.9,-2.7,D,486.7,2,18.196,2,1.94,179,89.2,-80.16505548,25.87170828,0,0,1,N,9.89E-02,43,43,11,101,101,88.83815,0,9999.99,4.41,4.537,2,9,25.5,0,25.5,30.02,1530.17677,3/16/21,11:09:13,23.8,46.24,30.02,1.261,8.51,-88.4,-3.5,-3.7,-2324,96.3,6.85,13.1,
25.87170433,-80.16522966,30:44.9,3/16/21,10,1.465,105.39,-7.046035247,0.88,98.4,92.48,0.69,2.77,29.2,0.02,4.3,4.32,61,41,324.5,14.9,-2.7,D,485.5,2,17.433,2,1.96,179,88.56,-80.16505548,25.87170828,0,0,1,N,0.2889246,54,54,11,108,108,87.47781,0,9999.99,4.26,4.387,2,9,25.5,0,25.5,17.84,1517.10487,3/16/21,11:09:14,23.83,28.89,17.84,1.478,8.5,-88,329.8,1.3,-1612,96.5,7.36,13,
25.87170187,-80.16521603,30:45.9,3/16/21,10,1.81,102.76,-7.046035247,0.88,97.6,91.73,4.09,4.42,29.3,0.01,4.23,4.25,61,41,324.5,14.9,-2.7,D,489.1,2,16.079,2,1.92,179,87.46,-80.16505548,25.87170828,0,0,1,N,0.5776281,85,85,11,98,98,85.41637,0,9999.99,4.24,4.367,2,9,25.5,0,25.5,30.05,1530.2107,3/16/21,11:09:15,23.82,46.29,30.05,1.54,8.49,-87.6,-3.7,-1.6,-2591,96.5,6.86,13.2,
25.87170203,-80.165202,30:46.9,3/16/21,10,2.051,95.93,-7.046035247,0.88,98.4,92.48,-2.22,-3.11,29.2,0,4.57,4.58,61,41,324.5,14.9,-2.7,D,489.1,2,14.676,2,1.93,179,87.29,-80.16505548,25.87170828,0,0,1,N,0.5702971,44,44,11,99,99,85.46867,0,9999.99,4.61,4.737,2,9,25.5,0,25.5,29.9,1530.04897,3/16/21,11:09:16,23.82,46.07,29.9,1.104,8.49,-87.4,-3.6,-2.9,-3556,96.5,6.87,12.8,
25.8717011,-80.16518905,30:47.9,3/16/21,10,1.837,97.49,-7.046035247,0.88,96.9,91.08,2.08,5.84,29.2,0.02,4.53,4.54,61,41,324.5,14.9,-2.7,D,489.1,2,13.387,2,1.91,179,86.58,-80.16505548,25.87170828,0,0,1,N,0.6860231,67,67,11,105,105,84.64494,0,9999.99,4.51,4.637,2,9,25.5,0,25.5,29.87,1530.01696,3/16/21,11:09:17,23.82,46.04,29.87,1.475,8.5,-88,-3.6,-4.2,-4166,96.5,6.87,13,
25.87169661,-80.16517971,30:48.9,3/16/21,10,1.692,103.35,-7.046035247,0.88,94.8,89.11,0.58,5.45,29.3,0,4.53,4.53,61,42,324.5,14.9,-2.8,D,479.5,2,12.497,2,1.91,179,84.04,-80.16505548,25.87170828,0,0,1,N,1.194995,62,62,11,93,93,81.05009,0,9999.99,4.55,4.677,2,9,25.5,0,25.5,29.98,1530.13439,3/16/21,11:09:18,23.81,46.18,29.98,1.336,8.49,-87.6,-3.2,-5.9,-828,96.6,6.87,12.9,
25.87169504,-80.16516931,30:49.9,3/16/21,10,1.836,100.85,-7.046035247,0.88,91.9,86.39,1.04,2.59,29.3,0,4.58,4.58,61,42,324.5,14.9,-2.8,D,479.5,2,11.484,2,1.94,179,82.64,-80.16505548,25.87170828,0,0,1,N,1.383248,63,63,11,100,100,79.73605,0,9999.99,4.59,4.717,2,9,25.5,0,25.5,29.88,1530.02654,3/16/21,11:09:19,23.82,46.05,29.88,1.249,8.49,-87.6,-3.1,-3.5,-1923,96.6,6.88,13.1,
25.87169544,-80.16515901,30:50.9,3/16/21,10,1.893,98.04,-7.046035247,0.88,87,81.77,-0.49,-4.79,29.2,0,4.51,4.51,61,42,324.5,14.9,-2.8,D,479.5,2,10.456,2,1.98,179,82.15,-80.16505548,25.87170828,0,0,1,N,1.356287,54,54,11,120,120,79.92389,0,9999.99,4.52,4.647,2,9,25.5,0,25.5,29.9,1530.04778,3/16/21,11:09:20,23.81,46.08,29.9,1.236,8.5,-88,-4.9,-0.5,51,96.7,6.88,12.9,
25.87169849,-80.16514963,30:52.0,3/16/21,10,1.896,81.57,-7.046035247,0.88,90.3,84.89,1.35,-5.79,29.2,0,4.53,4.53,61,42,324.5,14.9,-2.8,D,479.5,2,9.482,2,1.98,179,83.41,-80.16505548,25.87170828,0,0,1,N,1.021189,65,65,11,117,117,82.27142,0,9999.99,4.52,4.647,2,9,25.5,0,25.5,29.92,1530.0695,3/16/21,11:09:21,23.81,46.1,29.92,1.228,8.49,-87.6,-4,-2.6,-1916,96.7,6.88,13.1,
25.87169803,-80.16514018,30:53.0,3/16/21,10,1.935,92.69,-7.046035247,0.88,86.6,81.39,1.55,3.32,29.3,0,4.56,4.56,61,42,324.5,14.9,-2.8,D,480.7,2,8.551,2,1.97,179,82.34,-80.16505548,25.87170828,0,0,1,N,1.092785,66,66,11,129,129,81.76735,0,9999.99,4.57,4.697,2,9,25.5,0,25.5,29.96,1530.11252,3/16/21,11:09:22,23.81,46.16,29.96,1.239,8.5,-87.8,-3.7,0.9,-1144,96.8,6.89,13,
25.87169896,-80.16513109,30:54.0,3/16/21,10,1.858,91.76,-7.046035247,0.88,84.2,79.12,-0.1,-0.73,29.2,0,4.54,4.54,61,42,324.4,14.9,-2.8,D,478.6,2,7.636,2,1.95,179,82.2,-80.16505548,25.87170828,0,0,1,N,0.9940581,56,56,11,140,140,82.46261,0,9999.99,4.55,4.677,2,9,25.5,0,25.5,30,1530.15532,3/16/21,11:09:23,23.81,46.21,30,1.133,8.5,-87.9,-3.9,-3.5,-998,96.8,6.88,13,
25.87169964,-80.16512138,30:55.0,3/16/21,10,2.038,86.95,-7.046035247,0.88,92.2,86.67,1.04,2.91,29.2,0,4.5,4.5,61,42,324.4,14.9,-2.8,D,478.6,2,6.662,2,1.91,179,81.71,-80.16505548,25.87170828,0,0,1,N,0.9148383,63,63,11,114,114,83.0219,0,9999.99,4.5,4.627,2,9,25.5,0,25.5,30.02,1530.17683,3/16/21,11:09:24,23.81,46.25,30.02,1.32,8.49,-87.5,-4.5,-1.8,-647,96.8,6.89,13,
25.87170104,-80.16511067,30:56.0,3/16/21,10,1.976,89.5,-7.046035247,0.88,93.3,87.71,-1.2,11.5,29.3,0,4.42,4.42,61,42,324.4,14.9,-2.8,D,478.6,2,5.58,2,1.94,179,81.7,-80.16505548,25.87170828,0,0,1,N,0.7606795,55,55,11,113,113,84.11433,0,9999.99,4.43,4.557,2,9,25.5,0,25.5,29.95,1530.10154,3/16/21,11:09:25,23.81,46.15,29.95,1.14,8.5,-87.9,-3.3,-6.7,-2601,96.8,6.89,13,
25.87170351,-80.16509865,30:57.0,3/16/21,10,1.982,84.56,-7.046035247,0.88,93.1,87.52,-0.82,3.52,29.3,0.01,4.26,4.28,61,42,324.4,14.9,-2.8,D,478.6,3,40.512,2,1.99,179,78.97,-80.16470122,25.87177324,0,0,1,N,0.3662491,52,52,11,97,97,79.93418,0,9999.99,4.25,4.378941,2,9,25.5,0,25.5,29.93,1530.08021,3/16/21,11:09:26,23.81,46.11,29.93,1.199,8.5,-87.9,-3.5,-0.6,-2778,96.8,6.89,13,
25.87170509,-80.16508938,30:58.0,3/16/21,10,1.783,82.59,-7.046035247,0.88,93.8,88.18,1.67,4.32,29.3,0,4.2,4.2,61,42,324.4,14.9,-2.8,D,477.3,3,39.568,2,1.96,179,78.96,-80.16470122,25.87177324,0,0,1,N,0.353558,67,67,11,94,94,80.02284,0,9999.99,4.19,4.317,2,9,25.5,0,25.5,29.92,1530.06985,3/16/21,11:09:27,23.81,46.11,29.92,1.399,8.5,-88,-3.8,-6,-2873,96.8,6.89,13,
25.87170626,-80.16508113,30:59.0,3/16/21,10,1.751,83.29,-7.046035247,0.88,90.2,84.79,0.51,3.82,29.2,0,4.29,4.3,61,42,324.4,14.9,-2.8,D,477.3,3,38.733,2,1.98,179,78.91,-80.16470122,25.87177324,0,0,1,N,0.3197067,59,59,11,101,101,80.00901,0,9999.99,4.3,4.427,2,9,25.5,0,25.5,29.87,1530.01582,3/16/21,11:09:28,23.81,46.04,29.87,1.091,8.5,-88,-3.2,-4.5,-1279,96.8,6.89,12.9,
25.87170776,-80.16507221,31:00.0,3/16/21,10,1.851,87.33,-7.046035247,0.92,90.4,84.98,0.45,2.36,29.3,0,4.24,4.24,61,42,324.4,14.9,-2.8,D,477.3,3,37.825,2,1.92,179,78.9,-80.16470122,25.87177324,0,0,1,N,0.2967925,55,55,11,113,113,80.07407,0,9999.99,4.24,4.367,2,9,25.5,0,25.5,29.87,1530.0158,3/16/21,11:09:29,23.8,46.03,29.87,1.307,8.5,-88,-3.3,0,-496,96.9,6.9,13,
25.87170767,-80.16505937,31:01.0,3/16/21,10,2.396,86.38,-7.046035247,0.88,99.3,93.32,-0.33,-3.14,29.2,0.01,4.31,4.32,61,42,324.4,14.9,-2.8,D,477.3,3,36.568,2,1.87,179,78.5,-80.16470122,25.87177324,0,0,1,N,4.69E-02,55,55,11,69,69,78.78839,0,9999.99,4.31,4.437,2,9,25.5,0,25.5,29.93,1530.08036,3/16/21,11:09:30,23.8,46.11,29.93,1.273,8.5,-88.1,-2.6,-1.8,-3244,96.9,6.9,13,
25.87170656,-80.16505277,31:02.0,3/16/21,10,0.999,86.38,-7.046035247,0.88,86.9,81.68,1.22,4.16,29.2,0.04,4.31,4.35,61,40,324.3,14.9,-2.6,D,503.5,3,35.946,2,1.96,179,78.1,-80.16470122,25.87177324,0,0,1,N,0.231244,64,64,11,108,108,76.81297,0,9999.99,4.31,4.437,2,9,25.5,0,25.5,23.91,1523.61448,3/16/21,11:09:31,23.78,37.69,23.91,1.432,8.5,-88,104.4,4.6,-1765,96.9,7.14,13,
25.87170713,-80.16504339,31:03.0,3/16/21,10,2.255,83.74,-7.046035247,0.88,87,81.77,-3.11,4.01,29.3,0.01,4.31,4.32,61,40,324.3,14.9,-2.6,D,503.5,3,35.015,2,1.91,179,77.88,-80.16470122,25.87177324,0,0,1,N,0.3482996,43,43,11,104,104,75.98701,0,9999.99,4.32,4.447,2,9,25.5,0,25.5,30.01,1530.16746,3/16/21,11:09:32,23.78,46.23,30.01,1.375,8.5,-88.2,-4,-1.1,-3756,96.9,6.9,12.9,
25.87171144,-80.16503665,31:04.0,3/16/21,10,0.494,83.74,-7.046035247,0.88,80.8,75.88,-3.99,-0.36,29.3,0.06,4.39,4.45,61,40,324.3,14.9,-2.6,D,503.5,3,34.256,2,1.93,179,78.43,-80.16470122,25.87177324,0,0,1,N,3.80E-02,43,43,11,136,136,78.20896,0,9999.99,4.36,4.487,2,9,25.5,0,25.5,29.97,1530.12604,3/16/21,11:09:33,23.78,46.17,29.97,1.106,8.5,-88.2,154.6,-5,46406,97,6.91,13,
25.87171312,-80.16503165,31:05.0,3/16/21,10,1.459,83.74,-7.046035247,0.88,87.1,81.86,1.9,2.72,29.3,0.1,4.22,4.32,61,41,324.3,14.9,-2.7,D,485.8,3,33.729,2,1.82,179,78.57,-80.16470122,25.87177324,0,0,1,N,5.53E-02,68,68,11,115,115,78.87694,0,9999.99,4.2,4.327,2,9,25.5,0,25.5,30.35,1530.53649,3/16/21,11:09:34,23.8,46.69,30.35,1.992,8.5,-87.9,-3.6,-6.5,-3412,97,6.89,13,
25.87171483,-80.16502267,31:06.0,3/16/21,10,1.645,83.74,-7.046035247,0.9,84.9,79.78,3.08,5.1,29.2,0.03,4.26,4.29,61,41,324.3,14.9,-2.7,D,485.8,3,32.811,2,1.87,179,78.58,-80.16470122,25.87177324,0,0,1,N,0.0561203,83,83,11,129,129,78.88304,0,0.4,4.28,4.807,2,9,25.5,0,25.5,30.36,1530.54633,3/16/21,11:09:35,23.8,46.71,30.36,1.757,8.49,-87.6,-3.8,-0.5,-2147,97.1,6.89,13,
25.87171806,-80.16500884,31:07.0,3/16/21,10,2.12,81.06,-7.046035247,0.88,87.4,82.15,-0.16,-4.62,29.3,0,4.48,4.48,61,41,324.3,14.9,-2.7,D,485.8,3,31.383,2,1.82,179,78.73,-80.16470122,25.87177324,0,0,1,N,0.1470252,56,56,11,123,123,79.534,0,9999.99,4.51,4.637,2,9,25.5,0,25.5,30.22,1530.39202,3/16/21,11:09:36,23.79,46.52,30.22,1.084,8.5,-88.2,-3.7,-1.7,-2554,97.1,6.9,12.9,
25.87172016,-80.16499995,31:08.0,3/16/21,10,1.522,79.92,-7.046035247,0.88,80.8,75.88,0.83,1.77,29.3,0,4.48,4.48,61,41,324.3,14.9,-2.7,D,485.8,3,30.465,2,1.86,179,78.83,-80.16470122,25.87177324,0,0,1,N,0.1861442,62,62,11,143,143,79.81405,0,9999.99,4.48,4.607,2,9,25.4,0,25.39999962,29.99,1529.90426,3/16/21,11:09:37,23.79,46.2,29.99,1.195,8.5,-88,-3.6,-1.2,-734,97.2,6.91,13.1,
