Latitude,Longitude,Time,Date,Number of Sats,GPS Speed (Kn),GPS True Heading,GPS Magnetic Variation,HDOP,C Magnetic Heading,C True Heading,Pitch Angle,Roll Angle,C Inside Temp (c),DFS Depth (m),DTB Height (m),Total Water Column (m),Batt Percent,Power Watts,Watt-Hours,Batt Volts,Batt Ampers,Batt State,Time to Empty,Current Step,Dist To Next (m),Next Speed (kn),Vehicle Speed (kn),Motor Speed CMD,Next Heading,Next Long,Next Lat,Next Depth (m),Depth Goal (m),Vehicle State,Error State,Distance to Track (m),Fin Pitch R,Fin Pitch L,Pitch Goal,Fin Yaw T,Fin Yaw B,Yaw Goal,Fin Roll,DVL-Depth (m),DVL -Altitude (m),DVL -Water Column (m),DVL-FixType,DVL-FixQuality,DVL-Temperature,Conductivity (mmhos/cm),Temperature (c),Salinity (ppt),Sound Speed (m/s),Date m/d/y   ,Time hh:mm:ss,Temp C,SpCond mS/cm,Sal ppt,Depth feet,pH,pH mV,Turbid+ NTU,Chl ug/L,BGA-PC cells/mL,ODOsat %,ODO mg/L,Battery volts,ROSEM Command Type
25.912806,-80.13782083,06:40.9,1/30/21,11,0.095,304.92,-7.056835252,0.83,131,122.7,1.24,-3.63,24,0,3.66,3.66,81,21,438.6,15.7,-1.3,D,1341.8,0,6.11,2,0.08,128,189.21,-80.13783061,25.91275176,0,0,1,N,4.94774,64,64,11,250,250,269.4884,0,9999.99,3.67,3.797,2,9,22.7,0,22.70000076,36.21,1529.9782,1/30/21,13:45:36,22,54.62,36.21,1.085,8.47,-85.8,-2.3,-6.8,-2010,90.1,6.38,13.3,
25.91280632,-80.13782126,06:42.0,1/30/21,11,0.104,304.92,-7.056835252,0.83,130,121.77,1.06,-3.55,24,0,3.66,3.66,81,21,438.6,15.7,-1.3,D,1341.8,1,39.518,2,0.11,174,140.76,-80.13757133,25.91253107,0,0,1,N,5.131235,63,63,11,250,250,154.9436,0,9999.99,3.67,3.797,2,9,22.7,0,22.70000076,36.21,1529.97847,1/30/21,13:45:37,22,54.62,36.21,1.083,8.47,-85.5,-3.1,-5.1,-2850,90.1,6.38,13.3,
25.91280692,-80.137822,06:43.0,1/30/21,10,0.131,304.92,-7.056835252,0.83,128.2,120.1,2.3,0.69,24,0.01,3.67,3.68,81,21,438.6,15.7,-1.3,D,1341.8,1,39.615,2,0.11,174,140.74,-80.13757133,25.91253107,0,0,1,N,5.044875,71,71,11,250,250,154.2909,0,9999.99,3.68,3.807,2,9,22.7,0,22.70000076,36.21,1529.97852,1/30/21,13:45:39,22,54.62,36.21,1.073,8.46,-85.5,-3.8,-2.3,-2673,90.1,6.38,13.2,
25.91280643,-80.13782127,06:44.0,1/30/21,9,0.288,304.92,-7.056835252,0.83,130.5,122.23,1.17,-1.41,24.1,0.02,3.67,3.68,81,31,438.6,15.6,-2,D,912.1,1,39.528,2,0.04,174,140.77,-80.13757133,25.91253107,0,0,1,N,5.054808,64,64,11,250,250,154.4956,0,9999.99,3.68,3.807,2,9,22.7,0,22.70000076,36.21,1529.97852,1/30/21,13:45:39,22,54.62,36.21,1.073,8.46,-85.5,-3.8,-2.3,-2673,90.1,6.38,13.2,
25.9128042,-80.13781837,06:45.0,1/30/21,10,0.715,202.28,-7.056835252,0.83,135.1,126.51,1.68,3.17,24,0.01,3.66,3.66,81,31,438.6,15.6,-2,D,912.1,1,39.152,2,0.27,174,140.87,-80.13757133,25.91253107,0,0,1,N,5.073226,67,67,11,242,242,155.3385,0,9999.99,3.67,3.797,2,9,22.7,0,22.70000076,36.2,1529.96829,1/30/21,13:45:40,22,54.61,36.2,1.129,8.46,-85.3,-2.2,-2,-2197,90.2,6.39,13.3,
25.91280102,-80.13781351,06:46.0,1/30/21,10,1.065,144.95,-7.056835252,0.83,141.6,132.59,0.95,1.24,23.9,0.01,3.67,3.68,81,38,438.6,15.6,-2.4,D,752.1,1,38.571,2,0.55,174,141.1,-80.13757133,25.91253107,0,0,1,N,5.151738,65,65,11,231,231,157.029,0,9999.99,3.69,3.817,2,9,22.7,0,22.70000076,36.21,1529.97885,1/30/21,13:45:42,22,54.62,36.21,1.094,8.47,-85.5,-2.6,-6.6,-4031,90.2,6.39,13.3,
25.91279644,-80.1378078,06:47.0,1/30/21,10,1.322,138.04,-7.056835252,0.83,148.8,139.38,2.02,0.26,23.9,0.01,3.67,3.68,81,38,438.6,15.6,-2.4,D,752.1,1,37.817,2,0.8,174,141.29,-80.13757133,25.91253107,0,0,1,N,5.1825,69,69,11,206,206,159.2518,0,9999.99,3.68,3.807,2,9,22.7,0,22.70000076,36.21,1529.97885,1/30/21,13:45:42,22,54.62,36.21,1.094,8.47,-85.5,-2.6,-6.6,-4031,90.2,6.39,13.3,
25.91279073,-80.13780165,06:48.0,1/30/21,10,1.432,137.52,-7.056835252,0.83,154.7,145,1.75,0.42,23.9,0.01,3.64,3.65,81,38,438.6,15.6,-2.4,D,738.6,1,36.936,2,1.01,174,141.42,-80.13757133,25.91253107,0,0,1,N,5.151955,67,67,11,195,195,162.0739,0,9999.99,3.66,3.787,2,9,22.7,0,22.70000076,36.21,1529.97887,1/30/21,13:45:43,22,54.61,36.21,1.152,8.46,-85.4,-3,-8.5,513,90.3,6.4,13.2,
25.91278452,-80.13779699,06:49.0,1/30/21,10,1.484,141.44,-7.056835252,0.83,161.5,151.54,1.16,-1.09,24,0.01,3.66,3.67,81,38,438.6,15.6,-2.4,D,738.6,1,36.106,2,1.18,174,141.31,-80.13757133,25.91253107,0,0,1,N,4.9814,65,65,11,181,181,164.798,0,9999.99,3.68,3.807,2,9,22.7,0,22.70000076,36.2,1529.96791,1/30/21,13:45:45,21.99,54.61,36.2,1.092,8.47,-85.5,-3.3,0.5,-2907,90.2,6.39,13.2,
25.91277716,-80.137793,06:50.0,1/30/21,10,1.588,149.27,-7.056835252,0.83,166,155.92,1.55,1.78,23.9,0,3.63,3.63,81,38,438.6,15.6,-2.4,D,738.6,1,35.219,2,1.35,174,140.98,-80.13757133,25.91253107,0,0,1,N,4.667169,66,66,11,158,158,163.6862,0,9999.99,3.64,3.767,2,9,22.7,0,22.70000076,36.2,1529.96791,1/30/21,13:45:45,21.99,54.61,36.2,1.092,8.47,-85.5,-3.3,0.5,-2907,90.2,6.39,13.2,
25.9127702,-80.13778942,06:51.0,1/30/21,10,1.706,154.42,-7.056835252,0.83,168.7,158.56,1.07,0.92,23.9,0.01,3.61,3.62,81,38,438.6,15.6,-2.4,D,751.7,1,34.392,2,1.48,174,140.64,-80.13757133,25.91253107,0,0,1,N,4.36322,62,62,11,138,138,162.0282,0,9999.99,3.62,3.747,2,9,22.7,0,22.70000076,36.21,1529.97831,1/30/21,13:45:46,21.99,54.62,36.21,1.157,8.47,-85.5,-3.3,-4.9,-1931,90.2,6.39,13.3,
25.91276197,-80.13778642,06:52.0,1/30/21,10,1.78,159.74,-7.056835252,0.83,171.2,161.02,1.07,1.65,24,0,3.56,3.56,81,38,438.6,15.6,-2.4,D,751.7,1,33.496,2,1.56,174,140.04,-80.13757133,25.91253107,0,0,1,N,3.908262,63,63,11,121,121,159.459,0,9999.99,3.57,3.697,2,9,22.7,0,22.70000076,36.21,1529.97872,1/30/21,13:45:48,22,54.62,36.21,1.105,8.47,-85.6,-2.9,-6.8,-1358,90.2,6.39,13.2,
25.91275381,-80.13778392,06:53.0,1/30/21,10,1.829,162.61,-7.056835252,0.83,171.4,161.22,1.31,0.98,24,0,3.54,3.54,81,38,438.6,15.6,-2.4,D,751,1,32.643,2,1.66,174,139.35,-80.13757133,25.91253107,0,0,1,N,3.419541,65,65,11,108,108,156.5638,0,9999.99,3.55,3.677,2,9,22.7,0,22.70000076,36.21,1529.97872,1/30/21,13:45:48,22,54.62,36.21,1.105,8.47,-85.6,-2.9,-6.8,-1358,90.2,6.39,13.2,
25.91274469,-80.13778162,06:54.0,1/30/21,10,1.857,165.06,-7.056835252,0.83,170.9,160.72,1.02,3.18,24,0,3.46,3.46,81,38,438.6,15.6,-2.4,D,751,1,31.727,2,1.74,174,138.48,-80.13757133,25.91253107,0,0,1,N,2.843115,63,63,11,96,96,152.985,0,9999.99,3.47,3.597,2,9,22.7,0,22.70000076,36.21,1529.97848,1/30/21,13:45:49,22,54.62,36.21,1.126,8.47,-85.6,-2.5,-3.2,-2264,90.2,6.39,13.2,
25.91273638,-80.13777874,06:55.0,1/30/21,10,1.92,165.22,-7.056835252,0.83,170.3,160.13,1.34,1.16,23.9,0,3.39,3.39,81,38,438.6,15.6,-2.4,D,751,1,30.846,2,1.76,175,137.74,-80.13757133,25.91253107,0,0,1,N,2.373018,65,65,11,86,86,149.9425,0,9999.99,3.4,3.527,2,9,22.7,0,22.70000076,36.19,1529.95633,1/30/21,13:45:51,21.99,54.6,36.19,1.136,8.46,-85.5,-2.4,-8.6,-3077,90.1,6.38,13.2,
25.91272756,-80.13777574,06:56.0,1/30/21,10,1.933,166.19,-7.056835252,0.83,167.5,157.39,1.21,2.85,23.9,0,3.42,3.42,81,38,438.6,15.6,-2.4,D,751,1,29.922,2,1.8,175,136.9,-80.13757133,25.91253107,0,0,1,N,1.861859,64,64,11,84,84,146.5212,0,9999.99,3.43,3.557,2,9,22.7,0,22.70000076,36.19,1529.95633,1/30/21,13:45:51,21.99,54.6,36.19,1.136,8.46,-85.5,-2.4,-8.6,-3077,90.1,6.38,13.2,
25.91271818,-80.13777201,06:57.0,1/30/21,10,2.042,163.05,-7.056835252,0.83,165,154.94,1.23,2.61,24,0,3.48,3.48,81,39,438.5,15.6,-2.5,D,723.6,1,28.91,2,1.88,175,136.03,-80.13757133,25.91253107,0,0,1,N,1.354395,63,63,11,77,77,143.0291,0,9999.99,3.49,3.617,2,9,22.7,0,22.70000076,36.2,1529.96734,1/30/21,13:45:52,21.99,54.61,36.2,1.125,8.47,-85.5,-3,-5.6,217,90.1,6.39,13.3,
25.91270888,-80.13776822,06:58.0,1/30/21,10,1.959,162.68,-7.056835252,0.83,163.9,153.87,0.56,2.99,24,0,3.48,3.48,81,39,438.5,15.6,-2.5,D,723.6,1,27.905,2,1.93,175,135.12,-80.13757133,25.91253107,0,0,1,N,0.8665789,60,60,11,70,70,139.6019,0,9999.99,3.49,3.617,2,9,22.6,0,22.70000076,36.19,1529.95632,1/30/21,13:45:54,21.97,54.59,36.19,1.111,8.47,-85.7,-2.8,-1.2,-1339,90.1,6.39,13.3,
25.91270082,-80.13776454,06:59.0,1/30/21,10,1.995,161.03,-7.056835252,0.83,160.8,150.87,0.48,2.77,24,0,3.46,3.46,81,39,438.5,15.6,-2.5,D,723.6,1,27.013,2,1.93,175,134.33,-80.13757133,25.91253107,0,0,1,N,0.4627053,60,60,11,70,70,136.7298,0,9999.99,3.47,3.597,2,9,22.6,0,22.70000076,36.19,1529.95632,1/30/21,13:45:54,21.97,54.59,36.19,1.111,8.47,-85.7,-2.8,-1.2,-1339,90.1,6.39,13.3,
25.91269261,-80.13776033,07:00.0,1/30/21,10,2,159.38,-7.056835252,0.83,157.8,147.97,1.1,2.7,24,0,3.47,3.47,81,39,438.5,15.6,-2.5,D,717,1,26.076,2,1.93,175,133.54,-80.13757133,25.91253107,0,0,1,N,7.94E-02,64,64,11,71,71,133.9884,0,9999.99,3.48,3.607,2,9,22.6,0,22.60000038,36.19,1529.70107,1/30/21,13:45:56,21.96,54.59,36.19,1.127,8.47,-85.6,-2.5,-8,-1805,90.2,6.4,13.2,
25.91268387,-80.1377558,07:01.0,1/30/21,10,1.917,158.13,-7.056835252,0.83,153.5,143.85,0.77,2.74,24,0,3.47,3.48,81,39,438.5,15.6,-2.5,D,717,1,25.081,2,1.95,175,132.64,-80.13757133,25.91253107,0,0,1,N,0.3209799,63,63,11,72,72,131.1219,0,9999.99,3.48,3.607,2,9,22.6,0,22.60000038,36.19,1529.70107,1/30/21,13:45:56,21.96,54.59,36.19,1.127,8.47,-85.6,-2.5,-8,-1805,90.2,6.4,13.2,
25.91267729,-80.13775196,07:02.0,1/30/21,10,1.902,154.83,-7.056835252,0.83,150.7,141.18,0.85,3.13,24,0,3.47,3.48,81,39,438.5,15.6,-2.5,D,717,1,24.305,2,1.97,175,131.99,-80.13757133,25.91253107,0,0,1,N,0.5926543,62,62,11,77,77,129.1827,0,9999.99,3.48,3.607,2,9,22.6,0,22.60000038,36.2,1529.71223,1/30/21,13:45:57,21.95,54.61,36.2,1.134,8.47,-85.7,-2.1,-2.6,-2037,90.1,6.39,13.2,
25.91266881,-80.13774574,07:03.0,1/30/21,11,1.966,149.95,-7.056835252,1.22,147.5,138.15,0.98,3.81,24,0,3.49,3.49,81,39,438.5,15.6,-2.5,D,717,1,23.214,2,1.96,175,131.28,-80.13757133,25.91253107,0,0,1,N,0.8575374,63,63,11,82,82,127.3012,0,9999.99,3.5,3.627,2,9,22.6,0,22.60000038,36.21,1529.72312,1/30/21,13:45:58,21.95,54.62,36.21,1.12,8.47,-85.7,-3.9,-4,-2767,90.2,6.39,13.2,
25.91266126,-80.1377393,07:04.0,1/30/21,11,1.999,146.83,-7.056835252,1.22,145.2,135.98,0.88,2.56,24,0,3.49,3.5,81,40,438.5,15.6,-2.5,D,712.7,1,22.176,2,1.98,175,130.75,-80.13757133,25.91253107,0,0,1,N,1.030367,62,62,11,87,87,126.0804,0,9999.99,3.5,3.627,2,9,22.6,0,22.60000038,36.2,1529.71213,1/30/21,13:46:00,21.96,54.61,36.2,1.146,8.47,-85.8,-2.9,-2.1,-2934,90.2,6.4,13.3,
25.91265366,-80.13773307,07:05.0,1/30/21,11,2.024,145.8,-7.056835252,1.22,142.3,133.25,1.24,3.14,24,0,3.51,3.51,81,40,438.5,15.6,-2.5,D,712.7,1,21.154,2,2,175,130.12,-80.13757133,25.91253107,0,0,1,N,1.221037,63,63,11,92,92,124.7414,0,9999.99,3.52,3.647,2,9,22.6,0,22.60000038,36.2,1529.71213,1/30/21,13:46:00,21.96,54.61,36.2,1.146,8.47,-85.8,-2.9,-2.1,-2934,90.2,6.4,13.3,
25.9126475,-80.1377268,07:06.0,1/30/21,11,2.011,141.25,-7.056835252,0.8,139.8,130.9,0.88,2.8,24,0,3.53,3.53,81,40,438.5,15.6,-2.5,D,712.7,1,20.234,2,1.97,175,129.78,-80.13757133,25.91253107,0,0,1,N,1.293303,62,62,11,100,100,124.2364,0,9999.99,3.54,3.667,2,9,22.6,0,22.60000038,36.21,1529.72295,1/30/21,13:46:01,21.96,54.62,36.21,1.146,8.47,-85.8,-3.6,-3.9,-3055,90.2,6.39,13.2,
25.91264076,-80.13772,07:07.0,1/30/21,11,1.945,139.18,-7.056835252,0.8,138,129.22,0.85,2.08,24,0,3.53,3.54,81,39,438.5,15.6,-2.5,D,722.2,1,19.232,2,2.04,175,129.36,-80.13757133,25.91253107,0,0,1,N,1.374335,62,62,11,105,105,123.6717,0,9999.99,3.54,3.667,2,9,22.6,0,22.60000038,36.21,1529.7229,1/30/21,13:46:03,21.97,54.62,36.21,1.111,8.46,-85.4,-3.2,-3.9,-2772,90.2,6.39,13.2,
25.91263361,-80.13771254,07:08.0,1/30/21,11,2.044,136.89,-7.056835252,0.8,137.4,128.66,0.79,1.98,24.1,0,3.54,3.55,81,39,438.5,15.6,-2.5,D,722.2,1,18.151,2,2.02,175,128.91,-80.13757133,25.91253107,0,0,1,N,1.437586,62,62,11,105,105,123.2323,0,9999.99,3.55,3.677,2,9,22.6,0,22.60000038,36.21,1529.7229,1/30/21,13:46:03,21.97,54.62,36.21,1.111,8.46,-85.4,-3.2,-3.9,-2772,90.2,6.39,13.2,
25.91262705,-80.13770468,07:09.0,1/30/21,11,1.973,134.38,-7.056835252,0.8,135.7,127.07,0.74,2.33,24.1,0,3.56,3.56,81,39,438.5,15.6,-2.5,D,722.2,1,17.082,2,1.99,175,128.67,-80.13757133,25.91253107,0,0,1,N,1.429207,61,61,11,112,112,123.2904,0,9999.99,3.57,3.697,2,9,22.6,0,22.60000038,36.2,1529.71207,1/30/21,13:46:04,21.97,54.61,36.2,1.149,8.47,-85.8,-2.6,-3.4,-205,90.3,6.4,13.3,
25.91262075,-80.13769813,07:10.0,1/30/21,11,2.002,134.3,-7.056835252,0.8,135.7,127.07,0.26,2.38,24,0,3.56,3.57,81,39,438.5,15.6,-2.5,D,722.2,1,16.133,2,2,175,128.18,-80.13757133,25.91253107,0,0,1,N,1.484592,59,59,11,110,110,122.9066,0,9999.99,3.57,3.697,2,9,22.6,0,22.60000038,36.21,1529.72303,1/30/21,13:46:06,21.97,54.62,36.21,1.147,8.47,-85.5,-2.4,-0.9,-1019,90.2,6.4,13.3,
25.91261472,-80.13769065,07:11.0,1/30/21,11,1.993,131.8,-7.056835252,0.8,135,126.42,0.52,0.46,24,0.01,3.58,3.58,81,39,438.4,15.6,-2.5,D,723.9,1,15.131,2,2.02,175,127.93,-80.13757133,25.91253107,0,0,1,N,1.45804,60,60,11,114,114,123.0906,0,9999.99,3.58,3.707,2,9,22.6,0,22.60000038,36.19,1529.70134,1/30/21,13:46:07,21.97,54.59,36.19,1.166,8.47,-85.6,-3.3,-6,-1644,90.3,6.4,13.1,
25.91260786,-80.13768129,07:12.1,1/30/21,11,2.054,131.39,-7.056835252,0.8,135.2,126.6,0.8,1.28,24,0,3.59,3.59,81,39,438.4,15.6,-2.5,D,723.9,1,13.924,2,2.02,175,127.83,-80.13757133,25.91253107,0,0,1,N,1.370188,62,62,11,115,115,123.7006,0,9999.99,3.59,3.717,2,9,22.6,0,22.60000038,36.19,1529.70134,1/30/21,13:46:07,21.97,54.59,36.19,1.166,8.47,-85.6,-3.3,-6,-1644,90.3,6.4,13.1,
25.91260139,-80.13767256,07:13.1,1/30/21,11,1.982,131.07,-7.056835252,0.8,134.1,125.58,0.55,2.71,24,0,3.6,3.61,81,38,438.4,15.6,-2.4,D,733.8,1,12.792,2,2.01,175,127.68,-80.13757133,25.91253107,0,0,1,N,1.296995,60,60,11,122,122,124.2105,0,9999.99,3.61,3.737,2,9,22.6,0,22.60000038,36.2,1529.71225,1/30/21,13:46:08,21.97,54.6,36.2,1.155,8.47,-85.7,-2.9,-2,-5676,90.3,6.4,13.2,
25.91259585,-80.13766456,07:14.1,1/30/21,11,1.997,129.98,-7.056835252,0.8,134.8,126.23,0.56,2.43,24,0,3.62,3.62,81,38,438.4,15.6,-2.4,D,733.8,1,11.783,2,2.02,175,127.69,-80.13757133,25.91253107,0,0,1,N,1.189963,60,60,11,122,122,124.9593,0,9999.99,3.62,3.747,2,9,22.6,0,22.60000038,36.2,1529.71211,1/30/21,13:46:10,21.97,54.6,36.2,1.163,8.47,-85.6,-3.2,-0.2,-3218,90.3,6.4,13.3,
25.9125906,-80.13765769,07:15.1,1/30/21,11,1.939,130.57,-7.056835252,0.8,135.1,126.51,0.59,3.11,24,0,3.61,3.61,81,38,438.4,15.6,-2.4,D,733.8,1,10.882,2,2,175,127.47,-80.13757133,25.91253107,0,0,1,N,1.143351,61,61,11,122,122,125.286,0,9999.99,3.62,3.747,2,9,22.6,0,22.60000038,36.2,1529.71211,1/30/21,13:46:10,21.97,54.6,36.2,1.163,8.47,-85.6,-3.2,-0.2,-3218,90.3,6.4,13.3,
25.91258448,-80.13764968,07:16.1,1/30/21,11,2.002,130.37,-7.056835252,0.8,135.3,126.7,0.39,2.62,23.9,0,3.61,3.61,81,39,438.4,15.6,-2.4,D,732.2,1,9.832,2,2.01,175,127.16,-80.13757133,25.91253107,0,0,1,N,1.087576,59,59,11,123,123,125.6775,0,9999.99,3.62,3.747,2,9,22.6,0,22.60000038,36.2,1529.71192,1/30/21,13:46:11,21.96,54.6,36.2,1.129,8.47,-85.6,-2.7,-2.2,-2614,90.4,6.41,13.2,
25.91257838,-80.13764147,07:17.1,1/30/21,11,2.068,130.82,-7.056835252,0.8,135.1,126.51,0.96,3.08,24,0,3.61,3.61,81,39,438.4,15.6,-2.4,D,732.2,1,8.768,2,2.04,175,126.87,-80.13757133,25.91253107,0,0,1,N,1.01822,62,62,11,126,126,126.1661,0,9999.99,3.61,3.737,2,9,22.6,0,22.60000038,36.2,1529.71189,1/30/21,13:46:13,21.95,54.6,36.2,1.16,8.46,-85.4,-3.5,-3.8,-3473,90.4,6.41,13.1,
25.91257293,-80.1376341,07:18.1,1/30/21,11,2.043,130.92,-7.056835252,0.8,135.4,126.79,0.9,3.55,24,0,3.61,3.61,81,39,438.4,15.6,-2.4,D,732.2,1,7.815,2,2.04,175,126.56,-80.13757133,25.91253107,0,0,1,N,0.9506185,62,62,11,128,128,126.643,0,9999.99,3.61,3.737,2,9,22.6,0,22.60000038,36.2,1529.71197,1/30/21,13:46:14,21.95,54.6,36.2,1.157,8.47,-85.7,-2.2,-4.6,-4947,90.5,6.42,13.1,
25.91256838,-80.13762517,07:19.1,1/30/21,11,2.319,128.72,-7.056835252,0.8,135.5,126.88,0.52,3.43,24,0,3.63,3.63,81,39,438.4,15.6,-2.4,D,732.2,1,6.798,2,2.02,175,127.62,-80.13757133,25.91253107,0,0,1,N,0.7023059,61,61,11,134,134,128.4026,0,9999.99,3.64,3.767,2,9,22.6,0,22.60000038,36.2,1529.71197,1/30/21,13:46:14,21.95,54.6,36.2,1.157,8.47,-85.7,-2.2,-4.6,-4947,90.5,6.42,13.1,
25.91256257,-80.13761713,07:20.1,1/30/21,11,1.987,128.37,-7.056835252,0.8,136.1,127.44,0.69,4.61,24,0,3.63,3.64,81,39,438.4,15.6,-2.4,D,731,1,5.767,2,2,175,127.4,-80.13757133,25.91253107,0,0,1,N,0.6196828,61,61,11,133,133,128.9903,0,9999.99,3.64,3.767,2,9,22.6,0,22.60000038,36.2,1529.712,1/30/21,13:46:15,21.95,54.61,36.2,1.157,8.47,-85.5,-3.4,-4.5,-3534,90.6,6.43,13.1,
25.9125556,-80.1376084,07:21.1,1/30/21,11,2.027,129.25,-7.056835252,0.8,137.7,128.94,0.47,3.72,24,0,3.64,3.64,81,39,438.4,15.6,-2.4,D,731,2,21.263,2,2.03,175,150.18,-80.13750269,25.91238969,0,0,1,N,0.5794136,61,61,11,178,178,141.4958,0,9999.99,3.65,3.777,2,9,22.6,0,22.60000038,36.2,1529.71206,1/30/21,13:46:17,21.95,54.6,36.2,1.139,8.47,-85.8,-3.2,-5,-2791,90.6,6.42,13.3,
25.9125501,-80.13760144,07:22.1,1/30/21,11,1.999,129.56,-7.056835252,0.8,140.7,131.75,0.27,8.1,24,0,3.63,3.63,81,39,438.4,15.6,-2.4,D,731,2,20.389,2,2.01,175,151.02,-80.13750269,25.91238969,0,0,1,N,1.962705,59,59,11,190,190,146.6454,0,9999.99,3.63,3.757,2,9,22.6,0,22.60000038,36.2,1529.71206,1/30/21,13:46:17,21.95,54.6,36.2,1.139,8.47,-85.8,-3.2,-5,-2791,90.6,6.42,13.3,
25.9125434,-80.13759352,07:23.1,1/30/21,11,1.959,129.11,-7.056835252,0.8,144.8,135.6,1.03,0.62,24,0,3.64,3.65,81,38,438.3,15.6,-2.4,D,751.4,2,19.356,2,1.99,175,152.01,-80.13750269,25.91238969,0,0,1,N,1.531407,63,63,11,177,177,148.0207,0,9999.99,3.65,3.777,2,9,22.6,0,22.60000038,36.2,1529.71208,1/30/21,13:46:18,21.95,54.61,36.2,1.154,8.47,-85.5,-3.5,1,-5182,90.5,6.42,13.2,
25.91253662,-80.13758628,07:24.1,1/30/21,11,1.952,130.81,-7.056835252,0.8,149.7,140.23,1.83,1.77,24,0,3.63,3.63,81,38,438.3,15.6,-2.4,D,751.4,2,18.353,2,1.99,175,152.9,-80.13750269,25.91238969,0,0,1,N,1.159557,68,68,11,163,163,149.3493,0,9999.99,3.64,3.767,2,9,22.6,0,22.60000038,36.2,1529.71197,1/30/21,13:46:20,21.95,54.6,36.2,1.12,8.47,-85.8,-2.7,-2.4,-2128,90.5,6.42,13.2,
25.91252971,-80.13758006,07:25.1,1/30/21,11,1.914,134.44,-7.056835252,0.8,153.8,144.14,2.13,1.44,24,0.01,3.63,3.64,81,38,438.3,15.6,-2.4,D,751.4,2,17.386,2,1.96,175,153.57,-80.13750269,25.91238969,0,0,1,N,0.8848259,70,70,11,154,154,150.3576,0,9999.99,3.65,3.777,2,9,22.6,0,22.60000038,36.2,1529.71197,1/30/21,13:46:20,21.95,54.6,36.2,1.12,8.47,-85.8,-2.7,-2.4,-2128,90.5,6.42,13.2,
25.91252162,-80.13757446,07:26.1,1/30/21,11,1.936,140.47,-7.056835252,0.8,157,147.2,2.47,2.25,24,0.01,3.65,3.66,81,38,438.3,15.6,-2.4,D,751.4,2,16.332,2,1.93,175,153.93,-80.13750269,25.91238969,0,0,1,N,0.7258495,72,72,11,143,143,151.2257,0,9999.99,3.67,3.797,2,9,22.6,0,22.60000038,36.2,1529.7125,1/30/21,13:46:21,21.95,54.6,36.2,1.107,8.47,-85.7,-3.2,-2.9,-2877,90.6,6.42,13.4,
25.91251379,-80.13757036,07:27.1,1/30/21,11,1.862,147.01,-7.056835252,0.8,159.3,149.42,1.74,1.6,24,0.01,3.65,3.66,81,38,438.3,15.6,-2.4,D,737.7,2,15.369,2,1.94,175,153.87,-80.13750269,25.91238969,0,0,1,N,0.6979887,67,67,11,135,135,151.4226,0,9999.99,3.67,3.797,2,9,22.6,0,22.60000038,36.21,1529.72357,1/30/21,13:46:22,21.95,54.61,36.21,1.076,8.46,-85.4,-3.8,-2.6,-5307,90.6,6.43,13.2,
25.91250661,-80.13756614,07:28.1,1/30/21,11,1.818,149.29,-7.056835252,0.8,161,151.06,1.59,2.8,24,0,3.67,3.68,81,38,438.3,15.6,-2.4,D,737.7,2,14.467,2,1.92,175,153.98,-80.13750269,25.91238969,0,0,1,N,0.627555,67,67,11,130,130,151.9244,0,9999.99,3.69,3.817,2,9,22.6,0,22.60000038,36.21,1529.72331,1/30/21,13:46:24,21.95,54.62,36.21,1.1,8.47,-85.8,-3.6,-2.2,-3036,90.8,6.44,13.4,
25.91249816,-80.13756209,07:29.1,1/30/21,11,1.928,152.68,-7.056835252,0.8,162.3,152.32,1.53,1.68,24,0,3.69,3.69,81,38,438.3,15.6,-2.4,D,737.7,2,13.445,2,1.94,175,153.78,-80.13750269,25.91238969,0,0,1,N,0.6270968,66,66,11,125,125,151.9274,0,9999.99,3.7,3.827,2,9,22.6,0,22.60000038,36.21,1529.72331,1/30/21,13:46:24,21.95,54.62,36.21,1.1,8.47,-85.8,-3.6,-2.2,-3036,90.8,6.44,13.4,
25.91249057,-80.13755855,07:30.1,1/30/21,11,1.885,153.78,-7.056835252,0.8,163.1,153.1,1.61,1.49,24,0,3.7,3.7,81,39,438.3,15.6,-2.5,D,727.3,2,12.532,2,1.94,175,153.53,-80.13750269,25.91238969,0,0,1,N,0.6378131,66,66,11,120,120,151.8512,0,9999.99,3.71,3.837,2,9,22.6,0,22.60000038,36.2,1529.71196,1/30/21,13:46:25,21.95,54.61,36.2,1.103,8.47,-85.5,-2.3,-5.3,-3299,90.8,6.44,13.3,
25.91248301,-80.13755463,07:31.1,1/30/21,11,1.955,155.88,-7.056835252,0.8,163.8,153.78,1.05,1.64,24,0,3.71,3.71,81,39,438.3,15.6,-2.5,D,727.3,2,11.604,2,1.94,175,153.41,-80.13750269,25.91238969,0,0,1,N,0.6149751,63,63,11,120,120,152.0136,0,9999.99,3.72,3.847,2,9,22.6,0,22.60000038,36.21,1529.72315,1/30/21,13:46:27,21.95,54.61,36.21,1.12,8.47,-85.9,-4.1,-2.8,-2925,90.8,6.44,13.2,
25.91247392,-80.13755084,07:32.1,1/30/21,11,1.996,157.13,-7.056835252,0.8,164.1,154.07,0.73,1.89,24.1,0,3.73,3.73,81,39,438.3,15.6,-2.5,D,727.3,2,10.531,2,1.92,175,152.79,-80.13750269,25.91238969,0,0,1,N,0.6707393,61,61,11,117,117,151.6171,0,9999.99,3.74,3.867,2,9,22.6,0,22.60000038,36.22,1529.73407,1/30/21,13:46:28,21.95,54.63,36.22,1.14,8.47,-85.7,-3.2,-4.6,-3014,90.9,6.44,13.2,
25.91246468,-80.13754636,07:33.1,1/30/21,11,2.016,157.72,-7.056835252,0.8,164.7,154.65,1.02,2.01,24,0,3.73,3.74,81,39,438.3,15.6,-2.5,D,727.3,2,9.414,2,1.95,175,152.36,-80.13750269,25.91238969,0,0,1,N,0.6707758,63,63,11,115,115,151.6166,0,9999.99,3.74,3.867,2,9,22.6,0,22.60000038,36.22,1529.73407,1/30/21,13:46:28,21.95,54.63,36.22,1.14,8.47,-85.7,-3.2,-4.6,-3014,90.9,6.44,13.2,
25.91245624,-80.13754225,07:34.1,1/30/21,11,1.985,157.01,-7.056835252,0.8,164.5,154.46,1.07,1.77,24,0,3.75,3.75,81,39,438.3,15.6,-2.4,D,732.3,2,8.39,2,1.97,175,151.87,-80.13750269,25.91238969,0,0,1,N,0.6709463,63,63,11,116,116,151.6157,0,9999.99,3.76,3.887,2,9,22.6,0,22.60000038,36.21,1529.72304,1/30/21,13:46:29,21.95,54.61,36.21,1.154,8.47,-85.6,-3.4,-2.9,-3635,90.9,6.44,13.3,
25.91244738,-80.1375382,07:35.1,1/30/21,11,2.039,158.76,-7.056835252,0.8,165.4,155.33,0.31,1.75,23.9,0,3.76,3.76,81,39,438.3,15.6,-2.4,D,732.3,2,7.332,2,1.98,175,151.03,-80.13750269,25.91238969,0,0,1,N,0.6933566,59,59,11,111,111,151.4557,0,9999.99,3.77,3.897,2,9,22.6,0,22.60000038,36.22,1529.73404,1/30/21,13:46:31,21.94,54.63,36.22,1.132,8.47,-85.9,-2.2,-2,-2000,90.9,6.44,13.1,
25.91243801,-80.13753508,07:36.1,1/30/21,11,1.979,160.49,-7.056835252,0.8,164.7,154.65,0.69,1.57,24,0,3.77,3.77,81,39,438.3,15.6,-2.4,D,732.3,2,6.274,2,1.98,175,148.91,-80.13750269,25.91238969,0,0,1,N,0.8222306,61,61,11,109,109,150.5408,0,9999.99,3.77,3.897,2,9,22.6,0,22.60000038,36.22,1529.73404,1/30/21,13:46:31,21.94,54.63,36.22,1.132,8.47,-85.9,-2.2,-2,-2000,90.9,6.44,13.1,
25.9124287,-80.13753145,07:37.1,1/30/21,11,2.038,159.94,-7.056835252,0.8,165.3,155.24,0.88,1.58,24,0,3.77,3.77,81,39,438.2,15.6,-2.4,D,730.7,3,19.479,2,2,175,138.95,-80.13740356,25.91229659,0,0,1,N,0.9643882,62,62,11,68,68,140.5152,0,9999.99,3.78,3.907,2,9,22.6,0,22.60000038,36.21,1529.72298,1/30/21,13:46:32,21.94,54.62,36.21,1.157,8.47,-85.7,-2.9,-5.4,-4211,90.8,6.44,13.1,
25.91242034,-80.13752766,07:38.1,1/30/21,11,2.103,158.68,-7.056835252,0.8,162.6,152.61,0.82,0.01,24,0,3.8,3.81,81,39,438.2,15.6,-2.5,D,727.2,3,18.531,2,1.99,175,137.95,-80.13740356,25.91229659,0,0,1,N,0.5876724,62,62,11,73,73,139.0409,0,9999.99,3.81,3.937,2,9,22.6,0,22.60000038,36.21,1529.72298,1/30/21,13:46:34,21.94,54.62,36.21,1.143,8.47,-85.7,-4,-3.5,-1381,90.9,6.44,13.3,
25.91241165,-80.13752378,07:39.1,1/30/21,11,2.081,159.92,-7.056835252,0.8,159.1,149.23,0.81,4.29,24,0,3.82,3.82,81,39,438.2,15.6,-2.5,D,727.2,3,17.558,2,1.98,175,136.78,-80.13740356,25.91229659,0,0,1,N,0.1893429,62,62,11,79,79,137.2172,0,9999.99,3.82,3.947,2,9,22.6,0,22.60000038,36.21,1529.72313,1/30/21,13:46:35,21.94,54.62,36.21,1.14,8.47,-85.8,-4,-0.1,-2857,90.9,6.44,13.1,
25.91240286,-80.13751939,07:40.1,1/30/21,11,2.054,158.81,-7.056835252,0.8,155.3,145.57,1.16,3.9,24,0,3.82,3.82,81,39,438.2,15.6,-2.5,D,727.2,3,16.548,2,1.93,175,135.57,-80.13740356,25.91229659,0,0,1,N,0.1738613,64,64,11,84,84,135.2525,0,9999.99,3.83,3.957,2,9,22.6,0,22.60000038,36.21,1529.72313,1/30/21,13:46:35,21.94,54.62,36.21,1.14,8.47,-85.8,-4,-0.1,-2857,90.9,6.44,13.1,
25.91239559,-80.13751541,07:41.1,1/30/21,11,2.05,156.63,-7.056835252,0.8,152.8,143.18,0.91,2.73,24,0,3.81,3.81,80,40,438.2,15.6,-2.5,D,710.2,3,15.695,2,1.97,175,134.54,-80.13740356,25.91229659,0,0,1,N,0.45122,64,64,11,87,87,133.4707,0,9999.99,3.82,3.947,2,9,22.6,0,22.60000038,36.21,1529.72304,1/30/21,13:46:36,21.94,54.62,36.21,1.126,8.47,-85.7,-3.6,2.6,-2061,90.9,6.45,13.2,
25.91238827,-80.13750976,07:42.1,1/30/21,11,1.997,152.24,-7.056835252,0.8,150.3,140.8,0.88,2.37,24.1,0,3.79,3.79,80,40,438.2,15.6,-2.5,D,710.2,3,14.722,2,2.01,175,133.83,-80.13740356,25.91229659,0,0,1,N,0.6133221,61,61,11,91,91,132.0856,0,9999.99,3.79,3.917,2,9,22.6,0,22.60000038,36.22,1529.73428,1/30/21,13:46:38,21.94,54.63,36.22,1.129,8.46,-85.4,-3.7,-3.8,-3932,91,6.45,13.3,
25.91238083,-80.13750361,07:43.1,1/30/21,11,2.074,149.13,-7.056835252,0.8,148.1,138.72,0.72,2.77,24,0,3.81,3.81,80,40,438.2,15.6,-2.5,D,710.2,3,13.707,2,2,175,133.11,-80.13740356,25.91229659,0,0,1,N,0.750209,61,61,11,96,96,130.8791,0,9999.99,3.82,3.947,2,9,22.6,0,22.60000038,36.22,1529.73428,1/30/21,13:46:38,21.94,54.63,36.22,1.129,8.46,-85.4,-3.7,-3.8,-3932,91,6.45,13.3,
25.91237267,-80.13749707,07:44.1,1/30/21,10,2.078,147.43,-7.056835252,0.8,145.9,136.64,1,2.61,24,0,3.81,3.82,80,40,438.2,15.6,-2.5,D,710.2,3,12.611,2,2.02,175,132.13,-80.13740356,25.91229659,0,0,1,N,0.9083878,63,63,11,98,98,129.7579,0,9999.99,3.82,3.947,2,9,22.6,0,22.60000038,36.22,1529.7341,1/30/21,13:46:39,21.94,54.64,36.22,1.112,8.47,-85.6,-4.4,-3.8,-2799,90.9,6.45,13.2,
25.9123644,-80.13749056,07:45.1,1/30/21,11,2.058,146.35,-7.056835252,0.8,144.1,134.94,0.75,2.73,24,0.01,3.84,3.85,80,39,438.2,15.6,-2.5,D,723.4,3,11.514,2,2.03,175,130.91,-80.13740356,25.91229659,0,0,1,N,1.074415,60,60,11,99,99,128.5883,0,9999.99,3.85,3.977,2,9,22.6,0,22.60000038,36.23,1529.74517,1/30/21,13:46:41,21.94,54.65,36.23,1.106,8.47,-85.6,-3.9,-3.2,-3304,91,6.45,13.2,
25.91235717,-80.13748449,07:46.1,1/30/21,11,2.057,143.88,-7.056835252,0.8,143.2,134.09,0.62,3.43,24,0.01,3.84,3.85,80,39,438.2,15.6,-2.5,D,723.4,3,10.531,2,1.99,175,129.77,-80.13740356,25.91229659,0,0,1,N,1.192714,61,61,11,102,102,127.7575,0,9999.99,3.85,3.977,2,9,22.6,0,22.60000038,36.23,1529.74517,1/30/21,13:46:41,21.94,54.65,36.23,1.106,8.47,-85.6,-3.9,-3.2,-3304,91,6.45,13.2,
25.91235088,-80.13747819,07:47.1,1/30/21,11,2.071,139.73,-7.056835252,0.8,141.4,132.4,0.87,1.97,24.1,0,3.83,3.84,80,39,438.2,15.6,-2.5,D,723.4,3,9.6,2,2,175,128.96,-80.13740356,25.91229659,0,0,1,N,1.223347,62,62,11,108,108,127.5429,0,9999.99,3.84,3.967,2,9,22.6,0,22.60000038,36.22,1529.73433,1/30/21,13:46:42,21.93,54.64,36.22,1.128,8.47,-85.7,-4.7,-2.6,-2897,91,6.46,13.2,
25.91234341,-80.13747039,07:48.1,1/30/21,11,2.049,140.19,-7.056835252,0.8,140.9,131.93,0.9,3.39,24.1,0,3.85,3.85,80,39,438.1,15.6,-2.5,D,721,3,8.473,2,1.99,175,127.92,-80.13740356,25.91229659,0,0,1,N,1.236445,62,62,11,109,109,127.4517,0,9999.99,3.85,3.977,2,9,22.6,0,22.60000038,36.22,1529.73408,1/30/21,13:46:44,21.94,54.64,36.22,1.121,8.47,-85.5,-3.7,-1.9,-3393,91,6.45,13.3,
25.9123365,-80.13746285,07:49.1,1/30/21,11,2.116,138.84,-7.056835252,0.8,139.8,130.9,0.69,2.86,24.1,0,3.86,3.87,80,39,438.1,15.6,-2.5,D,721,3,7.407,2,1.99,175,126.81,-80.13740356,25.91229659,0,0,1,N,1.226595,61,61,11,113,113,127.5205,0,9999.99,3.87,3.997,2,9,22.6,0,22.60000038,36.23,1529.7451,1/30/21,13:46:45,21.94,54.65,36.23,1.125,8.47,-85.7,-3.9,0.4,-3461,91,6.45,13.3,
25.91233021,-80.13745618,07:50.1,1/30/21,11,2.02,137.35,-7.056835252,0.8,139.6,130.71,0.57,2.43,24,0,3.85,3.86,80,39,438.1,15.6,-2.5,D,721,3,6.456,2,2,175,125.38,-80.13740356,25.91229659,0,0,1,N,1.226856,60,60,11,114,114,127.5189,0,9999.99,3.86,3.987,2,9,22.6,0,22.60000038,36.23,1529.7451,1/30/21,13:46:45,21.94,54.65,36.23,1.125,8.47,-85.7,-3.9,0.4,-3461,91,6.45,13.3,
25.91232388,-80.13744877,07:51.1,1/30/21,11,1.978,136.16,-7.056835252,0.92,139.4,130.53,0.82,3.16,24.1,0.01,3.84,3.85,80,39,438.1,15.6,-2.5,D,721,4,14.394,2,2.02,175,169.53,-80.13742262,25.91219659,0,0,1,N,1.181709,62,62,11,208,208,150.843,0,9999.99,3.85,3.977,2,9,22.6,0,22.60000038,36.23,1529.74536,1/30/21,13:46:47,21.94,54.65,36.23,1.151,8.47,-85.6,-2.6,-3.2,-4830,91,6.45,13,
25.91231687,-80.13744156,07:52.1,1/30/21,11,1.913,135.14,-7.056835252,0.8,144.2,135.03,-0.03,9.5,24,0,3.85,3.85,80,39,438.1,15.6,-2.5,D,727.6,4,13.508,2,2.02,175,171.94,-80.13742262,25.91219659,0,0,1,N,4.235683,56,56,11,250,250,164.8084,0,9999.99,3.86,3.987,2,9,22.6,0,22.60000038,36.23,1529.74541,1/30/21,13:46:48,21.94,54.64,36.23,1.133,8.47,-85.7,-5.3,-6.4,-2759,91.1,6.46,13.3,
25.91231093,-80.13743454,07:53.1,1/30/21,11,1.853,131.63,-7.056835252,0.8,151.3,141.75,1.98,-5.17,24,0,3.87,3.87,80,39,438.1,15.6,-2.5,D,727.6,4,12.769,2,1.96,175,174.64,-80.13742262,25.91219659,0,0,1,N,3.407028,68,68,11,244,244,169.5881,0,9999.99,3.87,3.997,2,9,22.6,0,22.60000038,36.23,1529.74491,1/30/21,13:46:49,21.94,54.64,36.23,1.141,8.47,-85.5,-4.3,2.8,-2783,91.1,6.46,13.3,
25.91230557,-80.13743002,07:54.1,1/30/21,11,1.77,133.93,-7.056835252,0.8,159.9,150,3.24,2.38,24,0.01,3.85,3.86,80,39,438.1,15.6,-2.5,D,727.6,4,12.141,2,1.85,175,176.5,-80.13742262,25.91219659,0,0,1,N,2.845006,76,76,11,214,214,171.6559,0,9999.99,3.88,4.007,2,9,22.6,0,22.60000038,36.23,1529.74491,1/30/21,13:46:49,21.94,54.64,36.23,1.141,8.47,-85.5,-4.3,2.8,-2783,91.1,6.46,13.3,
25.91229836,-80.1374251,07:55.1,1/30/21,11,1.796,137.47,-7.056835252,0.8,168.2,158.07,3.67,-0.12,24,0.02,3.86,3.88,80,40,438.1,15.6,-2.5,D,708,4,11.318,2,1.75,175,178.74,-80.13742262,25.91219659,0,0,1,N,2.215255,79,79,11,192,192,174.296,0,9999.99,3.89,4.017,2,9,22.6,0,22.60000038,36.23,1529.74572,1/30/21,13:46:50,21.94,54.64,36.23,1.096,8.47,-85.8,-4.2,1.7,-3231,91,6.45,13.3,
25.91229146,-80.13742209,07:56.1,1/30/21,11,1.651,145.07,-7.056835252,0.8,175.6,165.38,3.03,0.6,24.1,0.01,3.87,3.88,80,40,438.1,15.6,-2.5,D,708,4,10.549,2,1.71,176,180.29,-80.13742262,25.91219659,0,0,1,N,1.775708,79,79,11,176,176,177.2153,0,9999.99,3.9,4.027,2,9,22.6,0,22.60000038,36.21,1529.7243,1/30/21,13:46:52,21.95,54.61,36.21,1.095,8.47,-85.7,-4.1,-0.9,-1346,91,6.45,13.2,
25.91228452,-80.13742001,07:57.1,1/30/21,11,1.742,154.76,-7.056835252,0.8,181.3,171.07,2.49,1.38,24,0.01,3.9,3.91,80,40,438.1,15.6,-2.5,D,708,4,9.78,2,1.69,176,181.53,-80.13742262,25.91219659,0,0,1,N,1.427984,73,73,11,165,165,179.606,0,9999.99,3.92,4.047,2,9,22.6,0,22.60000038,36.2,1529.71294,1/30/21,13:46:53,21.94,54.6,36.2,1.134,8.47,-85.5,-4.9,-3.8,-2103,91,6.46,13.2,
25.91227581,-80.13741794,07:58.1,1/30/21,11,1.76,165.13,-7.056835252,0.8,185.5,175.3,1.51,1.74,24.1,0,3.91,3.91,80,40,438.1,15.6,-2.5,D,708,4,8.821,2,1.72,176,183.04,-80.13742262,25.91219659,0,0,1,N,1.054782,66,66,11,155,155,182.2172,0,9999.99,3.92,4.047,2,9,22.6,0,22.60000038,36.2,1529.71294,1/30/21,13:46:53,21.94,54.6,36.2,1.134,8.47,-85.5,-4.9,-3.8,-2103,91,6.46,13.2,
25.91226798,-80.1374183,07:59.1,1/30/21,11,1.853,173.97,-7.056835252,0.8,187.7,177.53,0.76,4.01,24,0,3.92,3.92,80,40,438.1,15.6,-2.5,D,707.1,4,7.95,2,1.73,176,183.11,-80.13742262,25.91219659,0,0,1,N,0.9386967,62,62,11,149,149,183.0359,0,9999.99,3.93,4.057,2,9,22.6,0,22.60000038,36.21,1529.7231,1/30/21,13:46:54,21.93,54.61,36.21,1.119,8.47,-85.9,-3.8,-1.2,-1525,91.1,6.46,13.3,
25.91225903,-80.1374187,08:00.1,1/30/21,11,1.996,176.59,-7.056835252,0.8,191.3,181.19,0.89,1.29,24,0,3.93,3.93,80,40,438.1,15.6,-2.5,D,707.1,4,6.954,2,1.76,177,183.23,-80.13742262,25.91219659,0,0,1,N,0.8010736,62,62,11,138,138,184.0097,0,9999.99,3.94,4.067,2,9,22.6,0,22.60000038,36.22,1529.73413,1/30/21,13:46:55,21.93,54.63,36.22,1.129,8.47,-85.6,-5.3,-1.3,-3776,91.1,6.46,13.1,
25.91225037,-80.13742,08:01.1,1/30/21,11,1.887,180.07,-7.056835252,0.8,193.6,183.55,0.83,3.12,24,0,3.93,3.93,80,40,438,15.6,-2.5,D,712.1,4,5.986,2,1.78,177,182.51,-80.13742262,25.91219659,0,0,1,N,0.7607248,62,62,11,130,130,184.2958,0,9999.99,3.94,4.067,2,9,22.6,0,22.60000038,36.21,1529.72292,1/30/21,13:46:57,21.93,54.62,36.21,1.126,8.47,-85.5,-3.9,-8,-3584,91,6.46,13.1,
25.91224172,-80.13741915,08:02.1,1/30/21,11,1.944,183.93,-7.056835252,0.8,193.8,183.75,0.7,2.05,24,0,3.97,3.97,80,40,438,15.6,-2.5,D,712.1,5,14.606,2,1.85,177,153.5,-80.13735399,25.91212417,0,0,1,N,3.602842,61,61,11,25,25,158.3823,0,9999.99,3.98,4.107,2,9,22.6,0,22.60000038,36.21,1529.72292,1/30/21,13:46:57,21.93,54.62,36.21,1.126,8.47,-85.5,-3.9,-8,-3584,91,6.46,13.1,
25.91223158,-80.13742012,08:03.2,1/30/21,11,1.924,184.88,-7.056835252,0.8,187.9,177.73,0.96,0.1,24,0,3.94,3.95,80,40,438,15.6,-2.5,D,712.1,5,13.653,2,1.82,177,151.03,-80.13735399,25.91212417,0,0,1,N,2.789192,63,63,11,37,37,155.2415,0,9999.99,3.95,4.077,2,9,22.6,0,22.60000038,36.21,1529.72305,1/30/21,13:46:58,21.93,54.62,36.21,1.156,8.47,-85.8,-4,-10.9,-1072,90.9,6.45,13.3,
25.91222327,-80.13742057,08:04.2,1/30/21,11,1.931,190.45,-7.056835252,0.8,181.9,171.67,1.3,7.4,24.1,0,3.97,3.97,80,42,438,15.6,-2.7,D,664.7,5,12.876,2,1.84,177,148.86,-80.13735399,25.91212417,0,0,1,N,2.135447,65,65,11,45,45,151.0925,0,9999.99,3.98,4.107,2,9,22.6,0,22.60000038,36.21,1529.72307,1/30/21,13:47:00,21.92,54.62,36.21,1.118,8.47,-85.5,-4,-1.4,-2824,90.9,6.45,13.2,
25.91221503,-80.13742027,08:05.2,1/30/21,11,1.907,183.63,-7.056835252,0.8,174.1,163.89,2.03,6.45,24,0.01,3.95,3.96,80,42,438,15.6,-2.7,D,664.7,5,12.084,2,1.88,177,146.73,-80.13735399,25.91212417,0,0,1,N,1.553167,70,70,11,62,62,148.6668,0,9999.99,3.97,4.097,2,9,22.6,0,22.60000038,36.21,1529.72307,1/30/21,13:47:00,21.92,54.62,36.21,1.118,8.47,-85.5,-4,-1.4,-2824,90.9,6.45,13.2,
25.91220585,-80.13741881,08:06.2,1/30/21,11,1.943,181.93,-7.056835252,0.8,168.8,158.66,2.23,7.71,24,0,3.91,3.91,80,42,438,15.6,-2.7,D,664.7,5,11.16,2,1.84,177,144.48,-80.13735399,25.91212417,0,0,1,N,0.9939733,70,70,11,77,77,146.0495,0,9999.99,3.93,4.057,2,9,22.6,0,22.60000038,36.22,1529.734,1/30/21,13:47:02,21.92,54.64,36.22,1.107,8.47,-85.5,-4.8,3.7,-3370,90.8,6.44,13.3,
25.91219705,-80.13741598,08:07.2,1/30/21,11,1.986,171.31,-7.056835252,0.8,164.1,154.07,1.95,3.89,24,0,3.95,3.95,80,42,438,15.6,-2.7,D,664.7,5,10.204,2,1.89,177,142.58,-80.13735399,25.91212417,0,0,1,N,0.5621675,69,69,11,85,85,143.5766,0,9999.99,3.97,4.097,2,9,22.6,0,22.60000038,36.21,1529.72298,1/30/21,13:47:03,21.92,54.62,36.21,1.085,8.46,-85.3,-3.7,-6.4,-2180,90.8,6.44,13.2,
25.91218897,-80.13741232,08:08.2,1/30/21,11,1.938,166.15,-7.056835252,0.8,159.7,149.8,1.32,4.65,24,0,3.94,3.95,80,60,438,15.6,3.8,C,-1,5,9.272,2,1.91,177,141,-80.13735399,25.91212417,0,0,1,N,0.2507765,65,65,11,93,93,141.3511,0,9999.99,3.96,4.087,2,9,22.6,0,22.60000038,36.19,1529.70094,1/30/21,13:47:04,21.92,54.59,36.19,1.122,8.47,-85.6,-4.8,-3.5,-3215,90.8,6.44,13.2,
25.91218113,-80.13740824,08:09.2,1/30/21,11,1.998,160.92,-7.056835252,0.8,156.8,147.01,1.03,4.63,24,0,3.94,3.94,80,60,438,15.6,3.8,C,-1,5,8.34,2,1.92,177,139.42,-80.13735399,25.91212417,0,0,1,N,6.10E-03,63,63,11,93,93,139.5123,0,9999.99,3.95,4.077,2,9,22.6,0,22.60000038,36.2,1529.71198,1/30/21,13:47:05,21.91,54.6,36.2,1.139,8.46,-85.4,-2.9,-3.9,-3155,90.8,6.44,13.2,
25.91217284,-80.13740367,08:10.2,1/30/21,11,1.953,158.44,-7.056835252,0.8,155.8,146.05,0.83,3.31,24,0,3.95,3.95,80,60,438,15.6,3.8,C,-1,5,7.347,2,1.95,177,137.45,-80.13735399,25.91212417,0,0,1,N,0.2588439,63,63,11,92,92,137.7029,0,9999.99,3.96,4.087,2,9,22.6,0,22.60000038,36.2,1529.7121,1/30/21,13:47:06,21.91,54.61,36.2,1.117,8.46,-85.4,-4,-3.4,-3958,90.8,6.45,13.3,
25.91216506,-80.13739857,08:11.2,1/30/21,11,2.04,153.88,-7.056835252,0.8,154.1,144.43,0.67,2.21,24,0,3.94,3.94,80,41,437.9,15.6,-2.6,D,687.7,5,6.368,2,2.04,177,135.56,-80.13735399,25.91212417,0,0,1,N,0.4381952,60,60,11,95,95,136.4209,0,9999.99,3.94,4.067,2,9,22.6,0,22.60000038,36.19,1529.70091,1/30/21,13:47:07,21.9,54.59,36.19,1.138,8.47,-85.6,-3.3,-4.3,-2211,90.8,6.45,13.1,
25.9121566,-80.13739292,08:12.2,1/30/21,11,1.976,151.86,-7.056835252,0.8,152.1,142.52,0.4,3.12,24,0,3.93,3.93,80,41,437.9,15.6,-2.6,D,687.7,5,5.307,2,2.06,177,132.8,-80.13735399,25.91212417,0,0,1,N,0.6192143,59,59,11,93,93,135.1304,0,9999.99,3.94,4.067,2,9,22.6,0,22.60000038,36.21,1529.72293,1/30/21,13:47:08,21.9,54.62,36.21,1.159,8.46,-85.4,-4.8,-1.6,-4704,90.8,6.44,13.3,
25.91214862,-80.13738738,08:13.2,1/30/21,11,2.074,150.18,-7.056835252,0.8,151.5,141.95,0.91,4.85,24.1,0,3.96,3.96,80,41,437.9,15.6,-2.6,D,687.7,6,24.772,2,2.09,177,142.26,-80.13723579,25.91197244,0,0,1,N,1.18482,62,62,11,118,118,139.7543,0,9999.99,3.96,4.087,2,9,22.6,0,22.60000038,36.2,1529.712,1/30/21,13:47:09,21.9,54.6,36.2,1.145,8.46,-85.2,-3.8,-6.4,-3314,90.7,6.44,13.2,
25.91214079,-80.13738154,08:14.2,1/30/21,11,2.074,147.46,-7.056835252,0.8,151.7,142.14,0.22,1.91,24.1,0,3.98,3.99,80,41,437.9,15.6,-2.6,D,687.7,6,23.726,2,2.08,177,142.09,-80.13723579,25.91197244,0,0,1,N,1.204093,58,58,11,115,115,139.1527,0,9999.99,3.99,4.117,2,9,22.6,0,22.60000038,36.21,1529.723,1/30/21,13:47:10,21.9,54.62,36.21,1.156,8.47,-85.6,-3.2,-5.6,-1531,90.8,6.44,13.3,
25.91213286,-80.13737531,08:15.2,1/30/21,11,2.132,146.5,-7.056835252,0.8,150.9,141.37,0.8,2.48,24.1,0,3.99,3.99,80,41,437.9,15.6,-2.6,D,693.7,6,22.648,2,2.09,177,141.97,-80.13723579,25.91197244,0,0,1,N,1.198802,63,63,11,115,115,138.4853,0,9999.99,3.99,4.117,2,9,22.6,0,22.60000038,36.2,1529.71218,1/30/21,13:47:11,21.9,54.61,36.2,1.148,8.46,-85.4,-3.5,-0.4,-520,90.8,6.44,13.1,
25.91212508,-80.13736863,08:16.2,1/30/21,11,2.023,146.18,-7.056835252,0.8,151.4,141.85,0.83,2.54,24,0,3.99,4,80,41,437.9,15.6,-2.6,D,693.7,6,21.555,2,2.1,177,141.95,-80.13723579,25.91197244,0,0,1,N,1.150767,62,62,11,111,111,137.9062,0,9999.99,4,4.127,2,9,22.6,0,22.60000038,36.21,1529.72311,1/30/21,13:47:12,21.9,54.61,36.21,1.115,8.46,-85.3,-2.8,-3.1,-4381,90.7,6.44,13.2,
25.91211749,-80.13736355,08:17.2,1/30/21,11,2.056,145.95,-7.056835252,0.8,151.4,141.85,0.59,1.98,24,0,3.99,3.99,80,41,437.9,15.6,-2.6,D,693.7,6,20.577,2,2.07,177,141.61,-80.13723579,25.91197244,0,0,1,N,1.219269,61,61,11,105,105,136.4498,0,9999.99,3.99,4.117,2,9,22.6,0,22.60000038,36.21,1529.72304,1/30/21,13:47:13,21.9,54.61,36.21,1.149,8.46,-85.4,-3.2,0.5,-3137,90.8,6.44,13.2,
25.91210999,-80.13735825,08:18.2,1/30/21,11,2.077,145.76,-7.056835252,0.8,151.3,141.75,0.48,2.58,24,0,3.99,4,80,41,437.9,15.6,-2.6,D,690.5,6,19.595,2,2.05,177,141.31,-80.13723579,25.91197244,0,0,1,N,1.261138,60,60,11,104,104,136.0234,0,9999.99,4,4.127,2,9,22.6,0,22.60000038,36.2,1529.71196,1/30/21,13:47:14,21.9,54.61,36.2,1.159,8.46,-85.4,-3.6,1.5,-1948,90.7,6.44,13.3,
25.91210224,-80.13735292,08:19.2,1/30/21,11,2.163,147.95,-7.056835252,0.8,150.6,141.09,0.59,3.41,24.1,0,4.01,4.02,80,41,437.9,15.6,-2.6,D,690.5,6,18.589,2,2.04,177,140.94,-80.13723579,25.91197244,0,0,1,N,1.32094,61,61,11,104,104,135.605,0,9999.99,4.02,4.147,2,9,22.6,0,22.60000038,36.2,1529.71193,1/30/21,13:47:15,21.89,54.6,36.2,1.148,8.46,-85.2,-4.3,-1.9,-2157,90.7,6.44,13.1,
25.91209415,-80.13734666,08:20.2,1/30/21,11,2.165,146.68,-7.056835252,0.8,149.8,140.33,0.67,2.78,24,0,3.99,3.99,80,40,437.9,15.6,-2.6,D,697.5,6,17.496,2,2.08,177,140.67,-80.13723579,25.91197244,0,0,1,N,1.327751,61,61,11,107,107,135.558,0,9999.99,4,4.127,2,9,22.6,0,22.60000038,36.2,1529.71188,1/30/21,13:47:16,21.89,54.6,36.2,1.159,8.46,-85.3,-3.7,-2.4,-3840,90.6,6.43,13.4,
25.9120855,-80.13733937,08:21.2,1/30/21,11,2.15,145.99,-7.056835252,0.8,150.7,141.18,0.1,2.33,24,0.01,4.01,4.02,80,40,437.9,15.6,-2.6,D,697.5,6,16.29,2,2.07,177,140.51,-80.13723579,25.91197244,0,0,1,N,1.282799,59,59,11,107,107,135.8714,0,9999.99,4.02,4.147,2,9,22.6,0,22.60000038,36.2,1529.71203,1/30/21,13:47:17,21.89,54.6,36.2,1.179,8.46,-85.4,-3.6,-5.5,-1952,90.6,6.43,13.3,
25.91207743,-80.13733285,08:22.2,1/30/21,11,2.123,145.87,-7.056835252,0.8,150.3,140.8,0.67,2.38,24,0,4.02,4.02,80,40,437.9,15.6,-2.6,D,697.5,6,15.183,2,2.09,177,140.26,-80.13723579,25.91197244,0,0,1,N,1.262443,61,61,11,108,108,136.0135,0,9999.99,4.02,4.147,2,9,22.6,0,22.60000038,36.19,1529.70128,1/30/21,13:47:18,21.88,54.59,36.19,1.157,8.46,-85.1,-4.2,-7.2,146,90.5,6.43,13.3,
25.91206948,-80.13732703,08:23.2,1/30/21,11,2.158,145.08,-7.056835252,0.8,149.3,139.85,0.59,2.16,23.9,0,4,4,80,40,437.9,15.6,-2.6,D,697.5,6,14.131,2,2.09,177,139.78,-80.13723579,25.91197244,0,0,1,N,1.294397,62,62,11,109,109,135.7906,0,9999.99,4,4.127,2,9,22.6,0,22.60000038,36.2,1529.71205,1/30/21,13:47:19,21.87,54.6,36.2,1.157,8.46,-85.2,-3.4,-2.2,-1754,90.5,6.43,13.1,
25.91206091,-80.13732016,08:24.2,1/30/21,12,2.131,145.9,-7.056835252,0.77,149,139.57,0.85,2.57,23.9,0,4.05,4.05,80,41,437.8,15.6,-2.6,D,689.8,6,12.96,2,2.1,177,139.38,-80.13723579,25.91197244,0,0,1,N,1.279005,61,61,11,111,111,135.8979,0,9999.99,4.05,4.177,2,9,22.6,0,22.60000038,36.2,1529.71197,1/30/21,13:47:20,21.87,54.61,36.2,1.153,8.46,-85,-4.8,-0.7,-3525,90.5,6.42,13.3,
25.91205354,-80.13731427,08:25.2,1/30/21,12,2.111,146.31,-7.056835252,0.77,149.9,140.42,0.69,3.03,24,0,4.05,4.06,80,41,437.8,15.6,-2.6,D,689.8,6,11.955,2,2.07,177,138.96,-80.13723579,25.91197244,0,0,1,N,1.264991,61,61,11,109,109,135.996,0,9999.99,4.06,4.187,2,9,22.6,0,22.60000038,36.19,1529.70092,1/30/21,13:47:21,21.87,54.6,36.19,1.167,8.46,-85.1,-3.7,-4.9,-3171,90.4,6.42,13.2,
25.91204651,-80.13730867,08:26.2,1/30/21,12,2.058,145.23,-7.056835252,0.77,149.3,139.85,0.38,2.43,24,0,4.08,4.08,80,41,437.8,15.6,-2.6,D,689.8,6,10.999,2,2.05,177,138.49,-80.13723579,25.91197244,0,0,1,N,1.255803,59,59,11,112,112,136.0597,0,9999.99,4.09,4.217,2,9,22.6,0,22.60000038,36.19,1529.70094,1/30/21,13:47:22,21.87,54.59,36.19,1.158,8.46,-85.1,-4.7,-4.1,-4664,90.4,6.42,13.3,
25.91203833,-80.13730166,08:27.2,1/30/21,12,2.027,144.27,-7.056835252,0.77,148.7,139.29,0.53,4.41,24,0,4.07,4.07,80,40,437.8,15.6,-2.6,D,695.8,6,9.853,2,2.05,177,138.04,-80.13723579,25.91197244,0,0,1,N,1.206984,60,60,11,115,115,136.4013,0,9999.99,4.07,4.197,2,9,22.6,0,22.60000038,36.19,1529.70093,1/30/21,13:47:23,21.86,54.59,36.19,1.198,8.46,-85.2,-4.7,-6.5,-839,90.4,6.42,13.1,
25.91203066,-80.13729529,08:28.2,1/30/21,12,2.058,144.38,-7.056835252,0.77,149.4,139.95,0.55,1.87,24,0,4.02,4.02,80,40,437.8,15.6,-2.6,D,695.8,6,8.793,2,2.06,177,137.41,-80.13723579,25.91197244,0,0,1,N,1.171446,60,60,11,114,114,136.6504,0,9999.99,4.02,4.147,2,9,22.6,0,22.60000038,36.22,1529.73406,1/30/21,13:47:24,21.86,54.63,36.22,1.168,8.45,-84.7,-5.2,-4.3,-946,90.3,6.41,13.3,
25.91202348,-80.13728901,08:29.2,1/30/21,12,2.164,144.47,-7.056835252,0.77,149.1,139.66,0.34,3.01,24,0,4.05,4.05,80,40,437.8,15.6,-2.6,D,695.8,6,7.781,2,2.08,177,136.84,-80.13723579,25.91197244,0,0,1,N,1.114954,59,59,11,117,117,137.0474,0,9999.99,4.05,4.177,2,9,22.6,0,22.60000038,36.22,1529.7342,1/30/21,13:47:25,21.87,54.63,36.22,1.151,8.46,-85.2,-2.5,0.8,-4602,90.3,6.42,13.1,
25.91201569,-80.13728206,08:30.2,1/30/21,12,2.129,143.31,-7.056835252,0.77,148.8,139.38,0.64,3,24,0,4.1,4.1,80,40,437.8,15.6,-2.6,D,695.8,6,6.675,2,2.08,177,136.1,-80.13723579,25.91197244,0,0,1,N,1.045185,61,61,11,120,120,137.5375,0,9999.99,4.1,4.227,2,9,22.5,0,22.5,36.21,1529.4672,1/30/21,13:47:26,21.87,54.62,36.21,1.153,8.46,-85.3,-4.6,-1.9,-920,90.3,6.41,13.3,
25.91200699,-80.13727432,08:31.2,1/30/21,12,2.211,143.89,-7.056835252,0.77,148.7,139.29,0.92,2.62,23.9,0,4.12,4.12,80,41,437.8,15.6,-2.6,D,690.8,6,5.44,2,2.08,177,134.91,-80.13723579,25.91197244,0,0,1,N,0.9672555,62,62,11,122,122,138.0867,0,9999.99,4.12,4.247,2,9,22.6,0,22.60000038,36.2,1529.71216,1/30/21,13:47:27,21.87,54.6,36.2,1.153,8.46,-85.1,-3.4,-2.9,-2202,90.2,6.41,13.1,
25.91199993,-80.13726905,08:32.2,1/30/21,12,2.078,143.82,-7.056835252,0.77,150.1,140.61,0.65,2.82,24,0,4.15,4.15,80,41,437.8,15.6,-2.6,D,690.8,7,16.388,2,2.08,177,152.68,-80.13719384,25.91186899,0,0,1,N,2.118464,61,61,11,161,161,149.4039,0,9999.99,4.16,4.287,2,9,22.5,0,22.5,36.21,1529.46688,1/30/21,13:47:28,21.87,54.61,36.21,1.163,8.45,-84.8,-2.3,-2.7,-1773,90.2,6.4,13.3,
25.91199145,-80.13726157,08:33.2,1/30/21,12,2.034,143.76,-7.056835252,0.77,153.1,143.47,0.51,3.78,24,0,4.16,4.16,80,41,437.8,15.6,-2.6,D,690.8,7,15.209,2,2.08,177,153.55,-80.13719384,25.91186899,0,0,1,N,1.732788,60,60,11,155,155,150.4711,0,9999.99,4.17,4.297,2,9,22.5,0,22.5,36.22,1529.47789,1/30/21,13:47:29,21.86,54.63,36.22,1.156,8.46,-85.1,-2.9,-6.7,-352,90.1,6.4,13.3,
25.91198374,-80.13725581,08:34.2,1/30/21,12,2.074,144.09,-7.056835252,0.77,154.2,144.52,0.87,2.2,24,0,4.17,4.17,80,40,437.7,15.6,-2.5,D,707.3,7,14.185,2,2.07,177,154.09,-80.13719384,25.91186899,0,0,1,N,1.487755,62,62,11,153,153,151.0909,0,9999.99,4.17,4.297,2,9,22.5,0,22.5,36.21,1529.46692,1/30/21,13:47:30,21.86,54.62,36.21,1.132,8.46,-85.1,-3.8,-5.1,-572,90.2,6.4,13.3,
25.91197593,-80.13725043,08:35.2,1/30/21,12,2.087,144.9,-7.056835252,0.77,157.3,147.49,0.87,1.51,24,0,4.15,4.16,80,40,437.7,15.6,-2.5,D,707.3,7,13.169,2,2.06,177,154.55,-80.13719384,25.91186899,0,0,1,N,1.273724,62,62,11,146,146,151.661,0,9999.99,4.16,4.287,2,9,22.5,0,22.5,36.22,1529.47821,1/30/21,13:47:31,21.86,54.63,36.22,1.161,8.46,-84.9,-3.4,-4.5,-2703,90.2,6.4,13,
25.9119675,-80.13724529,08:36.2,1/30/21,12,2.082,147.52,-7.056835252,0.77,159.6,149.71,1.08,1.56,24,0,4.12,4.13,80,40,437.7,15.6,-2.5,D,707.3,7,12.103,2,2.05,177,154.84,-80.13719384,25.91186899,0,0,1,N,1.103148,63,63,11,137,137,152.1194,0,9999.99,4.13,4.257,2,9,22.5,0,22.5,36.22,1529.47818,1/30/21,13:47:32,21.87,54.64,36.22,1.168,8.46,-85,-4.2,-3.8,1068,90.1,6.4,13.2,
25.91195939,-80.13724061,08:37.3,1/30/21,12,2.006,150.35,-7.056835252,0.77,161.8,151.83,0.78,2.44,24,0,4.11,4.11,80,40,437.7,15.6,-2.5,D,707.3,7,11.087,2,2.06,177,155.04,-80.13719384,25.91186899,0,0,1,N,0.9728906,62,62,11,132,132,153.0284,0,9999.99,4.12,4.247,2,9,22.5,0,22.5,36.22,1529.47791,1/30/21,13:47:33,21.87,54.63,36.22,1.137,8.46,-85.2,-2.6,-2.5,-3192,90.1,6.4,13.4,
25.91195131,-80.13723643,08:38.3,1/30/21,12,2.08,153.29,-7.056835252,0.77,163.2,153.19,0.82,3.28,24.1,0,4.13,4.13,80,40,437.7,15.6,-2.5,D,704.3,7,10.096,2,2.06,177,155.05,-80.13719384,25.91186899,0,0,1,N,0.8820298,62,62,11,129,129,153.6698,0,9999.99,4.13,4.257,2,9,22.5,0,22.5,36.21,1529.46714,1/30/21,13:47:34,21.87,54.62,36.21,1.147,8.46,-85,-3.3,-2.9,-3530,90.2,6.4,13.3,
25.91194305,-80.13723251,08:39.3,1/30/21,12,2.084,154.69,-7.056835252,0.77,164.4,154.36,0.73,2.52,24,0,4.14,4.15,80,40,437.7,15.6,-2.5,D,704.3,7,9.099,2,2.07,177,154.84,-80.13719384,25.91186899,0,0,1,N,0.8239711,61,61,11,126,126,154.08,0,9999.99,4.15,4.277,2,9,22.5,0,22.5,36.22,1529.4781,1/30/21,13:47:35,21.87,54.63,36.22,1.15,8.46,-85.1,-3,-4.5,-4689,90,6.39,13.1,
25.91193449,-80.13722813,08:40.3,1/30/21,12,1.986,154.4,-7.056835252,0.77,166,155.92,0.43,2.92,24,0,4.14,4.15,80,40,437.7,15.6,-2.5,D,704.3,7,8.05,2,2.1,177,154.79,-80.13719384,25.91186899,0,0,1,N,0.7348665,60,60,11,122,122,154.7125,0,9999.99,4.15,4.277,2,9,22.5,0,22.5,36.23,1529.48906,1/30/21,13:47:36,21.87,54.64,36.23,1.139,8.46,-85.1,-2,-2.4,-6134,90,6.39,13.3,
25.91192581,-80.13722324,08:41.3,1/30/21,12,1.999,154.08,-7.056835252,0.77,166.7,156.6,0.64,2.08,24,0.01,4.17,4.17,80,41,437.6,15.6,-2.6,D,694.5,7,6.969,2,2.08,177,155.04,-80.13719384,25.91186899,0,0,1,N,0.6067186,61,61,11,123,123,155.6238,0,9999.99,4.17,4.297,2,9,22.5,0,22.5,36.24,1529.50013,1/30/21,13:47:37,21.87,54.66,36.24,1.15,8.46,-85.3,-3.2,0,-1296,90,6.39,13.3,
25.9119165,-80.13721887,08:42.3,1/30/21,12,2.156,156.53,-7.056835252,0.77,166.5,156.41,0.37,4.1,24,0,4.18,4.18,80,41,437.6,15.6,-2.6,D,694.5,7,5.846,2,2.08,177,154.65,-80.13719384,25.91186899,0,0,1,N,0.5496101,59,59,11,125,125,156.0308,0,9999.99,4.18,4.307,2,9,22.5,0,22.5,36.26,1529.52221,1/30/21,13:47:38,21.88,54.69,36.26,1.184,8.46,-85.2,-3.3,-2.2,-2514,90,6.39,13.2,
25.91190816,-80.13721531,08:43.3,1/30/21,12,2.072,158.25,-7.056835252,0.77,167.4,157.29,1.03,2.16,24,0,4.19,4.19,80,41,437.6,15.6,-2.6,D,694.5,8,16.334,2,2.08,177,154.22,-80.13714428,25.91177589,0,0,1,N,5.02E-02,63,63,11,115,115,154.1731,0,9999.99,4.19,4.317,2,9,22.5,0,22.5,36.25,1529.51098,1/30/21,13:47:39,21.9,54.68,36.25,1.15,8.46,-85.2,-2.5,-4.7,-382,90,6.38,13.1,
25.91190032,-80.1372115,08:44.3,1/30/21,11,1.996,159.52,-7.056835252,0.77,167.4,157.29,0.81,2.46,24,0,4.19,4.2,80,41,437.6,15.6,-2.6,D,694.5,8,15.383,2,2.06,177,154.08,-80.13714428,25.91177589,0,0,1,N,8.23E-02,62,62,11,114,114,153.9897,0,9999.99,4.2,4.327,2,9,22.5,0,22.5,36.23,1529.48895,1/30/21,13:47:40,21.91,54.65,36.23,1.106,8.46,-85.3,-2.6,-4.8,-4211,90.1,6.39,13.4,
25.91189205,-80.13720766,08:45.3,1/30/21,12,2.063,159.45,-7.056835252,0.77,167.1,156.99,0.44,2.67,24,0,4.16,4.17,80,41,437.6,15.6,-2.6,D,693.4,8,14.389,2,2.08,177,153.86,-80.13714428,25.91177589,0,0,1,N,0.1344925,60,60,11,115,115,153.6632,0,9999.99,4.17,4.297,2,9,22.5,0,22.5,36.24,1529.50016,1/30/21,13:47:41,21.91,54.65,36.24,1.146,8.46,-85.4,-2.8,-4.8,-1816,90,6.39,13.2,
25.91188301,-80.13720447,08:46.3,1/30/21,12,2.056,161.68,-7.056835252,0.77,168.4,158.27,0.48,2.58,24,0,4.17,4.17,80,41,437.6,15.6,-2.6,D,693.4,8,13.346,2,2.08,177,153.19,-80.13714428,25.91177589,0,0,1,N,0.2792235,61,61,11,105,105,152.7132,0,9999.99,4.17,4.297,2,9,22.5,0,22.5,36.29,1529.5552,1/30/21,13:47:42,21.91,54.73,36.29,1.153,8.46,-85.3,-2.7,-3,-2885,90.1,6.39,13.4,
25.91187273,-80.13720107,08:47.3,1/30/21,12,2.056,162.91,-7.056835252,0.77,170.7,160.53,0.22,1.86,24,0,4.2,4.21,80,41,437.6,15.6,-2.6,D,693.4,8,12.175,2,2.09,177,152.19,-80.13714428,25.91177589,0,0,1,N,0.4602818,58,58,11,91,91,151.4657,0,9999.99,4.21,4.337,2,9,22.5,0,22.5,36.29,1529.5552,1/30/21,13:47:43,21.93,54.73,36.29,1.15,8.47,-85.6,-3.8,-0.5,-1784,90.1,6.39,13.2,
25.91186408,-80.13719867,08:48.3,1/30/21,12,2.013,164.41,-7.056835252,0.77,168.2,158.07,0.56,2.75,24,0,4.22,4.22,80,41,437.6,15.6,-2.6,D,693.4,8,11.214,2,2.09,177,150.98,-80.13714428,25.91177589,0,0,1,N,0.6643735,62,62,11,92,92,149.6623,0,9999.99,4.22,4.347,2,9,22.5,0,22.5,36.29,1529.5551,1/30/21,13:47:44,21.94,54.73,36.29,1.181,8.46,-85.4,-3,-8.6,-2243,90.1,6.38,13.3,
25.91185589,-80.13719619,08:49.3,1/30/21,12,2.066,165.46,-7.056835252,0.77,166.6,156.51,0.62,1.59,24,0,4.2,4.2,80,41,437.6,15.6,-2.6,D,688.1,8,10.3,2,2.04,177,149.73,-80.13714428,25.91177589,0,0,1,N,0.8376462,61,61,11,93,93,148.4363,0,9999.99,4.2,4.327,2,9,22.5,0,22.5,36.28,1529.54419,1/30/21,13:47:45,21.95,54.71,36.28,1.168,8.47,-85.5,-2.6,-3.9,-1933,90.1,6.39,13.2,
25.91184676,-80.13719308,08:50.3,1/30/21,12,2.038,164.42,-7.056835252,0.77,166,155.92,0.43,3.22,24.1,0,4.23,4.24,80,41,437.6,15.6,-2.6,D,688.1,8,9.269,2,2.04,177,148.23,-80.13714428,25.91177589,0,0,1,N,0.9983041,60,60,11,93,93,147.3009,0,9999.99,4.24,4.367,2,9,22.6,0,22.60000038,36.28,1529.80023,1/30/21,13:47:46,21.96,54.71,36.28,1.152,8.47,-85.7,-3.4,-2.4,-1475,90.2,6.39,13.4,
25.91183731,-80.13718955,08:51.3,1/30/21,12,2.08,164.15,-7.056835252,0.77,165,154.94,0.7,2.28,24,0,4.18,4.18,80,41,437.6,15.6,-2.6,D,688.1,8,8.194,2,2.04,177,146.46,-80.13714428,25.91177589,0,0,1,N,1.134877,61,61,11,93,93,146.34,0,9999.99,4.18,4.307,2,9,22.5,0,22.5,36.27,1529.53289,1/30/21,13:47:47,21.96,54.7,36.27,1.175,8.47,-85.6,-3.3,-5.1,-4553,90.1,6.39,13.1,
25.91182814,-80.13718612,08:52.4,1/30/21,12,2.138,162.9,-7.056835252,0.77,163.1,153.1,0.65,2.58,24,0,4.19,4.2,80,41,437.5,15.6,-2.6,D,682.6,8,7.16,2,2.05,177,144.24,-80.13714428,25.91177589,0,0,1,N,1.268686,61,61,11,95,95,145.4039,0,9999.99,4.2,4.327,2,9,22.6,0,22.60000038,36.28,1529.80002,1/30/21,13:47:48,21.96,54.71,36.28,1.169,8.47,-85.6,-3.1,-4.5,-3658,90.2,6.39,13.2,
25.91181913,-80.13718239,08:53.4,1/30/21,12,2.052,161.62,-7.056835252,0.77,161.4,151.45,0.53,2.27,24,0,4.18,4.19,80,41,437.5,15.6,-2.6,D,682.6,8,6.136,2,2.06,177,141.59,-80.13714428,25.91177589,0,0,1,N,1.370688,60,60,11,100,100,144.6923,0,9999.99,4.19,4.317,2,9,22.6,0,22.60000038,36.28,1529.80008,1/30/21,13:47:49,21.96,54.71,36.28,1.159,8.47,-85.8,-3.2,-6.8,-3436,90.2,6.39,13.3,
25.91181154,-80.13717831,08:54.4,1/30/21,12,2.077,159.67,-7.056835252,0.77,160.8,150.87,0.72,2.41,24,0,4.06,4.06,80,41,437.5,15.6,-2.6,D,682.6,8,5.226,2,2.08,177,139.35,-80.13714428,25.91177589,0,0,1,N,1.366714,60,60,11,102,102,144.7207,0,9999.99,4.06,4.187,2,9,22.6,0,22.60000038,36.27,1529.78896,1/30/21,13:47:50,21.97,54.71,36.27,1.169,8.47,-85.8,-2.7,-3.4,-1954,90.2,6.39,13.1,
25.91180182,-80.13717389,08:55.4,1/30/21,12,2.146,159.63,-7.056835252,0.77,159.9,150,0.17,5.59,24,0,4.19,4.19,80,41,437.5,15.6,-2.6,D,682.6,9,15.144,2,2.07,177,167.24,-80.13714046,25.91166899,0,0,1,N,2.934411,59,59,11,178,178,162.3886,0,9999.99,4.2,4.327,2,9,22.6,0,22.60000038,36.28,1529.80002,1/30/21,13:47:51,21.96,54.71,36.28,1.148,8.47,-85.5,-2.1,-5.9,-3811,90.2,6.39,13.2,
25.91179262,-80.13717002,08:56.4,1/30/21,12,2.092,158.4,-7.056835252,0.77,165.7,155.63,0.38,2.48,24,0,4.19,4.19,80,42,437.5,15.6,-2.6,D,676.5,9,14.061,2,2.14,177,167.86,-80.13714046,25.91166899,0,0,1,N,2.567704,59,59,11,157,157,163.0933,0,9999.99,4.19,4.317,2,9,22.6,0,22.60000038,36.27,1529.78897,1/30/21,13:47:52,21.97,54.7,36.27,1.14,8.47,-85.7,-3,-4.2,-3558,90.2,6.39,13.3,
25.91178473,-80.13716612,08:57.4,1/30/21,12,2.067,154.26,-7.056835252,0.77,166.2,156.11,1.03,1.12,24,0,4.2,4.2,80,42,437.5,15.6,-2.6,D,676.5,9,13.123,2,2.06,177,168.72,-80.13714046,25.91166899,0,0,1,N,2.198149,63,63,11,159,159,164.1729,0,9999.99,4.2,4.327,2,9,22.5,0,22.5,36.27,1529.53309,1/30/21,13:47:53,21.97,54.71,36.27,1.127,8.47,-85.9,-2.6,-2.1,-4302,90.3,6.4,13.2,
25.911777,-80.137163,08:58.4,1/30/21,12,2.005,158.76,-7.056835252,0.77,171.5,161.32,1.06,1.96,24,0,4.21,4.22,80,42,437.5,15.6,-2.6,D,676.5,9,12.041,2,2.02,177,169.63,-80.13714046,25.91166899,0,0,1,N,1.824229,63,63,11,144,144,165.5558,0,9999.99,4.22,4.347,2,9,22.6,0,22.60000038,36.28,1529.80028,1/30/21,13:47:54,21.97,54.71,36.28,1.157,8.47,-85.8,-1.3,-2.3,-1786,90.4,6.41,13.3,
25.91176817,-80.13716033,08:59.4,1/30/21,12,1.946,162.18,-7.056835252,0.77,172.5,162.3,1.7,2.36,24,0,4.22,4.22,80,40,437.5,15.6,-2.5,D,706.6,9,11.207,2,1.98,177,170.11,-80.13714046,25.91166899,0,0,1,N,1.605092,67,67,11,145,145,166.8181,0,9999.99,4.23,4.357,2,9,22.6,0,22.60000038,36.28,1529.80025,1/30/21,13:47:55,21.97,54.71,36.28,1.168,8.47,-85.7,-2.8,-5.7,-3263,90.5,6.41,13.1,
25.91175983,-80.13715833,09:00.4,1/30/21,12,1.903,164.45,-7.056835252,0.77,175.7,165.47,1.16,2.92,24,0,4.13,4.14,80,40,437.5,15.6,-2.5,D,706.6,9,10.207,2,1.94,177,170.3,-80.13714046,25.91166899,0,0,1,N,1.419812,64,64,11,137,137,168.095,0,9999.99,4.15,4.277,2,9,22.6,0,22.60000038,36.28,1529.80007,1/30/21,13:47:56,21.97,54.71,36.28,1.127,8.47,-85.9,-2.9,0,-1666,90.5,6.41,13.3,
25.911751,-80.1371565,09:01.4,1/30/21,12,1.988,167.42,-7.056835252,0.77,177.4,167.17,1.13,1.98,23.9,0,4.21,4.21,80,40,437.5,15.6,-2.5,D,706.6,9,9.272,2,1.95,177,170.39,-80.13714046,25.91166899,0,0,1,N,1.275589,65,65,11,136,136,169.0999,0,9999.99,4.22,4.347,2,9,22.6,0,22.60000038,36.28,1529.80007,1/30/21,13:47:57,21.97,54.71,36.28,1.151,8.47,-85.8,-2,-8,-3371,90.5,6.41,13.2,
25.91174171,-80.13715527,09:02.4,1/30/21,12,1.838,171.1,-7.056835252,0.77,179.6,169.36,1.22,3.4,24,0,4.2,4.2,80,40,437.5,15.6,-2.5,D,706.6,9,8.221,2,1.97,177,169.62,-80.13714046,25.91166899,0,0,1,N,1.151327,64,64,11,127,127,169.3599,0,9999.99,4.21,4.337,2,9,22.6,0,22.60000038,36.28,1529.80007,1/30/21,13:47:58,21.97,54.71,36.28,1.143,8.47,-85.9,-3.2,-4.2,-2956,90.6,6.42,13.3,
25.91173321,-80.13715462,09:03.4,1/30/21,12,1.959,174.4,-7.056835252,0.77,181.3,171.07,0.82,2.89,24,0,4.21,4.21,80,40,437.4,15.6,-2.5,D,701.1,9,7.279,2,1.97,177,168.78,-80.13714046,25.91166899,0,0,1,N,1.076604,62,62,11,121,121,169.6104,0,9999.99,4.22,4.347,2,9,22.6,0,22.60000038,36.28,1529.79992,1/30/21,13:47:59,21.98,54.71,36.28,1.149,8.47,-85.6,-2.6,-1.4,-2107,90.6,6.42,13.1,
25.9117255,-80.1371535,09:04.4,1/30/21,12,1.913,174.5,-7.056835252,0.77,181.5,171.27,0.98,2.48,24,0,4.23,4.23,80,40,437.4,15.6,-2.5,D,701.1,9,6.34,2,1.97,177,168.52,-80.13714046,25.91166899,0,0,1,N,1.075708,64,64,11,124,124,170.5009,0,9999.99,4.23,4.357,2,9,22.6,0,22.60000038,36.28,1529.79998,1/30/21,13:48:00,21.97,54.71,36.28,1.152,8.47,-86,-2.7,-3.2,-3994,90.6,6.42,13.3,
25.911715,-80.13715261,09:05.5,1/30/21,12,2.013,175.38,-7.056835252,0.77,182,171.77,0.75,3.95,24,0,4.2,4.21,80,40,437.4,15.6,-2.5,D,701.1,10,26.8,2,2.04,177,187.21,-80.13718622,25.91147589,0,0,1,N,0.9732836,61,61,11,163,163,180.7407,0,9999.99,4.21,4.337,2,9,22.6,0,22.60000038,36.27,1529.78897,1/30/21,13:48:01,21.98,54.7,36.27,1.137,8.47,-85.8,-1.9,-2.3,-5498,90.6,6.42,13.2,
25.91170566,-80.13715231,09:06.5,1/30/21,12,1.981,177.45,-7.056835252,0.77,184.2,173.99,0.71,6.33,24,0,4.19,4.2,80,41,437.4,15.6,-2.6,D,690.1,10,25.773,2,2.04,177,187.56,-80.13718622,25.91147589,0,0,1,N,1.914315,60,60,11,164,164,182.8188,0,9999.99,4.2,4.327,2,9,22.6,0,22.60000038,36.28,1529.80021,1/30/21,13:48:02,21.97,54.71,36.28,1.164,8.47,-85.8,-2.7,-4.1,-3359,90.5,6.41,13.2,
25.91169651,-80.13715222,09:07.5,1/30/21,12,2.033,177.42,-7.056835252,0.77,186.6,176.41,0.43,2.82,23.9,0,4.19,4.2,80,41,437.4,15.6,-2.6,D,690.1,10,24.766,2,2.01,177,187.89,-80.13718622,25.91147589,0,0,1,N,1.72514,60,60,11,153,153,183.0213,0,9999.99,4.2,4.327,2,9,22.6,0,22.60000038,36.29,1529.81113,1/30/21,13:48:03,21.97,54.72,36.29,1.143,8.47,-85.6,-2.9,-3.1,-3360,90.5,6.41,13.2,
25.91168732,-80.13715213,09:08.5,1/30/21,12,2.026,178.6,-7.056835252,0.77,189.3,179.16,0.76,2.18,24,0,4.19,4.19,80,41,437.4,15.6,-2.6,D,690.1,10,23.756,2,1.98,177,188.25,-80.13718622,25.91147589,0,0,1,N,1.564209,62,62,11,143,143,183.2403,0,9999.99,4.2,4.327,2,9,22.6,0,22.60000038,36.3,1529.82192,1/30/21,13:48:05,21.97,54.73,36.3,1.14,8.47,-86,-2.1,-4.3,496,90.7,6.42,13.4,
25.91167851,-80.13715301,09:09.5,1/30/21,12,1.946,182.76,-7.056835252,0.77,191.5,181.4,0.73,3.58,23.9,0,4.17,4.17,80,41,437.4,15.6,-2.6,D,690.1,10,22.774,2,1.96,177,188.39,-80.13718622,25.91147589,0,0,1,N,1.355194,61,61,11,133,133,182.9499,0,9999.99,4.18,4.307,2,9,22.6,0,22.60000038,36.3,1529.82192,1/30/21,13:48:05,21.97,54.73,36.3,1.14,8.47,-86,-2.1,-4.3,496,90.7,6.42,13.4,
25.91166919,-80.13715487,09:10.5,1/30/21,12,2.012,186.76,-7.056835252,0.77,192.6,182.52,0.71,3.08,24,0,4.15,4.16,80,40,437.4,15.6,-2.5,D,700.2,10,21.722,2,1.96,177,188.3,-80.13718622,25.91147589,0,0,1,N,1.292375,61,61,11,126,126,182.2056,0,9999.99,4.16,4.287,2,9,22.6,0,22.60000038,36.3,1529.82203,1/30/21,13:48:06,21.97,54.74,36.3,1.153,8.47,-86,-3.4,-3.3,-2059,90.6,6.42,13.4,
25.91166014,-80.13715687,09:11.5,1/30/21,12,2.003,188.05,-7.056835252,0.77,193.4,183.34,0.98,4.27,24,0,4.13,4.13,80,40,437.4,15.6,-2.5,D,700.2,10,20.697,2,2,177,188.15,-80.13718622,25.91147589,0,0,1,N,1.273489,62,62,11,124,124,182.0714,0,9999.99,4.14,4.267,2,9,22.6,0,22.60000038,36.3,1529.82199,1/30/21,13:48:07,21.97,54.73,36.3,1.132,8.47,-86,-2.5,-3.7,-4923,90.7,6.42,13.1,
25.91165099,-80.13715839,09:12.5,1/30/21,12,2.004,188.45,-7.056835252,0.77,193.9,183.85,0.7,3.76,24,0,4.09,4.09,80,40,437.4,15.6,-2.5,D,700.2,10,19.668,2,2,177,188.14,-80.13718622,25.91147589,0,0,1,N,1.258874,61,61,11,121,121,182.4535,0,9999.99,4.1,4.227,2,9,22.6,0,22.60000038,36.3,1529.82192,1/30/21,13:48:09,21.97,54.74,36.3,1.153,8.47,-86,-3.4,-5.2,-773,90.8,6.43,13.3,
25.91164168,-80.13716024,09:13.5,1/30/21,12,2.008,188.81,-7.056835252,0.77,194.6,184.57,0.53,5.57,24,0,4.08,4.08,80,40,437.3,15.6,-2.5,D,706.4,10,18.617,2,1.99,177,188.02,-80.13718622,25.91147589,0,0,1,N,1.199163,60,60,11,122,122,182.6748,0,9999.99,4.08,4.207,2,9,22.6,0,22.60000038,36.3,1529.82192,1/30/21,13:48:09,21.97,54.74,36.3,1.153,8.47,-86,-3.4,-5.2,-773,90.8,6.43,13.3,
25.91163267,-80.13716178,09:14.5,1/30/21,12,1.951,188.56,-7.056835252,0.77,194.4,184.37,0.78,4.24,24,0,4.06,4.07,80,40,437.3,15.6,-2.5,D,706.4,10,17.604,2,2.01,177,187.98,-80.13718622,25.91147589,0,0,1,N,1.184923,61,61,11,118,118,183.0928,0,9999.99,4.07,4.197,2,9,22.6,0,22.60000038,36.3,1529.82205,1/30/21,13:48:10,21.97,54.74,36.3,1.168,8.47,-86,-1.9,-4.1,-4710,90.7,6.43,13.2,
25.91162249,-80.1371637,09:15.5,1/30/21,12,2.037,189.31,-7.056835252,0.77,195.6,185.6,0.4,3.98,24,0,4.06,4.06,80,40,437.3,15.6,-2.5,D,706.4,10,16.456,2,1.97,177,187.87,-80.13718622,25.91147589,0,0,1,N,1.208665,59,59,11,118,118,183.4415,0,9999.99,4.06,4.187,2,9,22.6,0,22.60000038,36.3,1529.82223,1/30/21,13:48:12,21.97,54.74,36.3,1.14,8.48,-86.1,-2.6,-4.9,-5895,90.8,6.43,13.2,
25.91161419,-80.13716529,09:16.5,1/30/21,12,1.958,189.78,-7.056835252,0.77,196.2,186.22,0.45,3.06,24,0,4.02,4.02,80,40,437.3,15.6,-2.5,D,706.4,10,15.52,2,1.97,177,187.75,-80.13718622,25.91147589,0,0,1,N,1.100454,60,60,11,117,117,183.6923,0,9999.99,4.02,4.147,2,9,22.6,0,22.60000038,36.3,1529.82201,1/30/21,13:48:13,21.98,54.74,36.3,1.136,8.47,-86,-2.3,-8.8,-4763,90.8,6.44,13.2,
