Latitude,Longitude,Time,Date,Number of Sats,GPS Speed (Kn),GPS True Heading,GPS Magnetic Variation,HDOP,C Magnetic Heading,C True Heading,Pitch Angle,Roll Angle,C Inside Temp (c),DFS Depth (m),DTB Height (m),Total Water Column (m),Batt Percent,Power Watts,Watt-Hours,Batt Volts,Batt Ampers,Batt State,Time to Empty,Current Step,Dist To Next (m),Next Speed (kn),Vehicle Speed (kn),Motor Speed CMD,Next Heading,Next Long,Next Lat,Next Depth (m),Depth Goal (m),Vehicle State,Error State,Distance to Track (m),Fin Pitch R,Fin Pitch L,Pitch Goal,Fin Yaw T,Fin Yaw B,Yaw Goal,Fin Roll,DVL-Depth (m),DVL -Altitude (m),DVL -Water Column (m),DVL-FixType,DVL-FixQuality,DVL-Temperature,Conductivity (mmhos/cm),Temperature (c),Salinity (ppt),Sound Speed (m/s),Date m/d/y   ,Time hh:mm:ss,Temp C,SpCond mS/cm,Sal ppt,Depth feet,pH,pH mV,Turbid+ NTU,Chl ug/L,BGA-PC cells/mL,ODOsat %,ODO mg/L,Battery volts,ROSEM Command Type
25.91275783,-80.13782367,19:48.4,9/5/20,10,0.104,225.33,-7.017783118,0.88,171.1,160.96,1.33,-5.28,37.9,2.07,3.54,5.61,96,22,509.3,16.3,-1.4,D,1513.5,0,25.929,2,0.96,128,122.08,-80.137604,25.912634,0,0,6,N,0,91,89,25,58,58,232.9104,0,9999.99,3.55,3.677,2,9,33.2,0,33.20000076,32.28,1549.13473,9/5/20,11:57:26,31.89,49.66,32.28,1.164,8.31,-78.8,-4,-2.9,-4210,81.2,4.99,12.9,
25.91275733,-80.13782333,19:49.4,9/5/20,10,0.125,225.33,-7.017783278,0.88,170.7,160.57,1.16,-3.76,37.9,2.07,3.54,5.61,96,22,509.3,16.3,-1.4,D,1513.5,0,25.871,2,0.96,128,122.01,-80.137604,25.912634,0,0,6,N,0,91,89,25,58,58,232.9104,0,9999.99,3.55,3.677,2,9,33.2,0,33.20000076,32.28,1549.13434,9/5/20,11:57:27,31.89,49.66,32.28,1.12,8.31,-78.9,-4.1,-0.4,-1702,81.2,4.99,13,
25.912757,-80.13782283,19:50.4,9/5/20,10,0.103,225.33,-7.017783408,0.88,169.8,159.68,0.92,-5.1,37.8,2.06,3.56,5.62,96,23,509.2,16.3,-1.4,D,1494.2,0,25.809,2,0.96,128,122,-80.137604,25.912634,0,0,6,N,0,91,89,25,58,58,232.9104,0,9999.99,3.57,3.697,2,9,33.2,0,33.20000076,32.28,1549.13543,9/5/20,11:57:29,31.88,49.66,32.28,1.141,8.31,-78.8,-3.4,-1.7,-3516,81.3,4.99,12.9,
25.9127565,-80.137822,19:51.4,9/5/20,11,0.197,225.33,-7.017783661,0.88,169.9,159.78,1.19,-4.91,37.9,2.06,3.5,5.56,96,23,509.2,16.3,-1.4,D,1494.2,0,25.709,2,0.96,128,121.99,-80.137604,25.912634,0,0,6,N,0,91,89,25,58,58,232.9104,0,9999.99,3.51,3.637,2,9,33.2,0,33.20000076,32.28,1549.13543,9/5/20,11:57:29,31.88,49.66,32.28,1.141,8.31,-78.8,-3.4,-1.7,-3516,81.3,4.99,12.9,
25.91275683,-80.13782217,19:52.5,9/5/20,11,0.162,225.33,-7.017784092,0.88,168.7,158.6,1.28,-4.29,37.9,2.08,3.49,5.56,96,23,509.2,16.3,-1.4,D,1494.2,0,25.743,2,0.96,128,122.04,-80.137604,25.912634,0,0,6,N,0,91,89,25,80,80,232.9104,0,9999.99,3.5,3.627,2,9,33.2,0,33.20000076,32.28,1549.13589,9/5/20,11:57:31,31.88,49.66,32.28,1.135,8.31,-79,-4.3,-0.3,-3133,81.3,4.99,13,
25.91275717,-80.13782283,19:53.5,9/5/20,11,0.166,225.33,-7.017784039,0.88,168.2,158.11,1.04,-5.13,37.9,2.06,3.49,5.55,96,23,509.2,16.3,-1.4,D,1494.2,0,25.819,2,0.96,128,122.04,-80.137604,25.912634,0,0,6,N,0,91,89,25,119,119,232.9104,0,9999.99,3.5,3.627,2,9,33.2,0,33.20000076,32.28,1549.13589,9/5/20,11:57:31,31.88,49.66,32.28,1.135,8.31,-79,-4.3,-0.3,-3133,81.3,4.99,13,
25.91275733,-80.13782367,19:54.5,9/5/20,10,0.067,225.33,-7.017783685,0.88,167.4,157.33,1.16,-4.92,37.9,2.08,3.57,5.65,96,23,509.2,16.3,-1.4,D,1452.2,0,25.899,2,0.96,128,121.97,-80.137604,25.912634,0,0,6,N,0,91,89,25,117,117,232.9104,0,9999.99,3.58,3.707,2,9,33.2,0,33.20000076,32.28,1549.13533,9/5/20,11:57:33,31.88,49.66,32.28,1.165,8.34,-81,-5.4,-3.9,-1277,81.3,4.99,13,
25.912757,-80.13782383,19:55.6,9/5/20,10,0.07,225.33,-7.017783207,0.88,166.5,156.45,1.02,-4.48,37.9,2.08,3.48,5.56,96,23,509.2,16.3,-1.4,D,1452.2,0,25.894,2,0.96,128,121.88,-80.137604,25.912634,0,0,6,N,0,91,89,25,120,120,232.9104,0,9999.99,3.49,3.617,2,9,33.2,0,33.20000076,32.28,1549.13533,9/5/20,11:57:33,31.88,49.66,32.28,1.165,8.34,-81,-5.4,-3.9,-1277,81.3,4.99,13,
25.9127565,-80.1378235,19:56.6,9/5/20,10,0.059,225.33,-7.01778306,0.88,166.5,156.45,1.01,-5.19,37.9,2.08,3.46,5.54,96,23,509.2,16.3,-1.4,D,1452.2,0,25.836,2,0.96,128,121.82,-80.137604,25.912634,0,0,6,N,0,91,89,25,120,120,232.9104,0,9999.99,3.47,3.597,2,9,33.2,0,33.20000076,32.28,1549.13657,9/5/20,11:57:35,31.89,49.66,32.28,1.161,8.34,-80.8,-3.2,-6.8,-1402,81.3,4.99,13,
25.91275517,-80.13782217,19:57.6,9/5/20,10,0.227,225.33,-7.01778319,0.88,166.5,156.45,0.98,-4.24,37.8,2.1,3.47,5.58,96,23,509.2,16.3,-1.4,D,1505.8,0,25.645,2,0.96,128,121.69,-80.137604,25.912634,0,0,6,N,0,91,89,25,120,120,232.9104,0,9999.99,3.48,3.607,2,9,33.2,0,33.20000076,32.28,1549.13657,9/5/20,11:57:35,31.89,49.66,32.28,1.161,8.34,-80.8,-3.2,-6.8,-1402,81.3,4.99,13,
25.912755,-80.13782233,19:58.7,9/5/20,10,0.093,225.33,-7.017783805,0.88,166.2,156.15,0.93,-4.58,37.8,2.08,3.48,5.56,96,23,509.2,16.3,-1.4,D,1505.8,0,25.649,2,0.96,130,121.64,-80.137604,25.912634,0,0,6,N,0,91,89,25,120,120,232.9104,0,9999.99,3.49,3.617,2,9,33.2,0,33.20000076,32.29,1549.14646,9/5/20,11:57:36,31.89,49.66,32.29,1.185,8.34,-80.6,-4.3,-4.3,-2462,81.3,4.99,12.9,
25.91275467,-80.13782283,19:59.7,9/5/20,11,0.062,225.33,-7.017783681,0.88,165.8,155.76,1.19,-4.99,37.8,2.1,3.48,5.58,96,23,509.2,16.3,-1.4,D,1505.8,0,25.672,2,0.96,134,121.51,-80.137604,25.912634,0,0,6,N,0,91,89,25,120,120,232.9104,0,9999.99,3.49,3.617,2,9,33.2,0,33.20000076,32.29,1549.1483,9/5/20,11:57:38,31.89,49.67,32.29,1.18,8.33,-80.1,-3.5,-1.9,-1462,81.3,4.99,12.9,
25.91275467,-80.13782333,20:00.7,9/5/20,11,0.08,225.33,-7.017783334,0.88,165.4,155.37,1.24,-4.09,37.8,2.07,3.45,5.52,96,23,509.2,16.3,-1.4,D,1505.8,0,25.715,2,0.96,139,121.45,-80.137604,25.912634,0,0,6,N,0,91,89,25,120,120,232.9104,0,9999.99,3.46,3.587,2,9,33.2,0,33.20000076,32.29,1549.1483,9/5/20,11:57:38,31.89,49.67,32.29,1.18,8.33,-80.1,-3.5,-1.9,-1462,81.3,4.99,12.9,
25.91275417,-80.13782317,20:01.7,9/5/20,11,0.112,225.33,-7.017783033,0.88,165.5,155.47,1.1,-4.29,37.8,2.07,3.45,5.52,96,23,509.2,16.3,-1.4,D,1479.5,0,25.672,2,0.96,142,121.37,-80.137604,25.912634,0,0,6,N,0,91,89,25,120,120,232.9104,0,9999.99,3.46,3.587,2,9,33.2,0,33.20000076,32.28,1549.13529,9/5/20,11:57:39,31.89,49.66,32.28,1.162,8.32,-79.8,-4.1,-2.8,-2962,81.3,5,13,
25.9127535,-80.1378235,20:02.8,9/5/20,11,0.152,225.33,-7.017783063,0.88,164.8,154.79,1.49,-4.32,37.8,2.08,3.49,5.57,96,23,509.2,16.3,-1.4,D,1479.5,0,25.662,2,0.96,144,121.19,-80.137604,25.912634,0,0,6,N,0,91,89,25,120,120,232.9104,0,9999.99,3.5,3.627,2,9,33.2,0,33.20000076,32.29,1549.14491,9/5/20,11:57:40,31.89,49.67,32.29,1.131,8.32,-79.7,-4.4,-1.3,-1365,81.3,5,13,
25.91275217,-80.1378235,20:03.7,9/5/20,11,0.272,225.33,-7.017782769,0.88,164.6,154.59,1.32,-3.82,37.8,2.06,3.52,5.58,96,23,509.2,16.3,-1.4,D,1479.5,0,25.585,2,0.96,144,120.9,-80.137604,25.912634,0,0,6,N,0,91,89,25,120,120,232.9104,0,9999.99,3.53,3.657,2,9,33.2,0,33.20000076,32.28,1549.13456,9/5/20,11:57:41,31.89,49.66,32.28,1.176,8.32,-79.6,-4,-2.3,-1928,81.3,5,13,
25.91275117,-80.1378235,20:04.8,9/5/20,11,0.176,225.33,-7.017782582,0.88,164.8,154.79,1.16,-4.54,37.8,2.09,3.51,5.6,96,24,509.2,16.3,-1.4,D,1425.7,0,25.528,2,0.96,146,120.69,-80.137604,25.912634,0,0,6,N,0,91,89,25,120,120,232.9104,0,9999.99,3.52,3.647,2,9,33.2,0,33.20000076,32.28,1549.13533,9/5/20,11:57:43,31.88,49.66,32.28,1.145,8.32,-79.5,-4.5,-5.3,-3656,81.3,5,12.9,
25.91274983,-80.13782367,20:05.8,9/5/20,11,0.322,225.33,-7.017782441,0.88,164.3,154.3,1.41,-3.53,37.8,2.08,3.47,5.55,96,24,509.2,16.3,-1.4,D,1425.7,0,25.468,2,0.96,146,120.38,-80.137604,25.912634,0,0,6,N,0,91,89,25,120,120,232.9104,0,9999.99,3.48,3.607,2,9,33.2,0,33.20000076,32.28,1549.13449,9/5/20,11:57:44,31.88,49.66,32.28,1.152,8.33,-80.3,-3.1,-3,-4494,81.3,4.99,12.9,
25.91274817,-80.1378235,20:06.8,9/5/20,11,0.342,225.33,-7.017782154,0.88,164,154.01,0.91,-4.04,37.8,2.09,3.45,5.54,96,24,509.2,16.3,-1.4,D,1425.7,0,25.36,2,0.96,146,120.04,-80.137604,25.912634,0,0,6,N,0,91,89,25,120,120,232.9104,0,9999.99,3.46,3.587,2,9,33.2,0,33.20000076,32.28,1549.13449,9/5/20,11:57:44,31.88,49.66,32.28,1.152,8.33,-80.3,-3.1,-3,-4494,81.3,4.99,12.9,
25.912746,-80.13782267,20:07.8,9/5/20,11,0.481,225.33,-7.01778202,0.88,164.3,154.3,1.28,-4,37.8,2.09,3.37,5.46,96,24,509.2,16.3,-1.4,D,1425.7,0,25.167,2,0.96,146,119.66,-80.137604,25.912634,0,0,6,N,0,91,89,25,120,120,232.9104,0,9999.99,3.38,3.507,2,9,33.2,0,33.20000076,32.28,1549.13706,9/5/20,11:57:46,31.89,49.66,32.28,1.16,8.3,-78.6,-4.8,-0.9,-3632,81.2,4.99,12.9,
25.912744,-80.13782217,20:08.8,9/5/20,11,0.437,225.33,-7.017782217,0.88,163.8,153.81,1.22,-3.98,37.8,2.08,3.48,5.56,96,24,509.1,16.3,-1.5,D,1408.6,0,25.015,2,0.96,146,119.27,-80.137604,25.912634,0,0,6,N,0,91,89,25,120,120,232.9104,0,9999.99,3.49,3.617,2,9,33.2,0,33.20000076,32.28,1549.1374,9/5/20,11:57:47,31.89,49.65,32.28,1.146,8.29,-77.5,-4,-3.4,-3344,81.2,4.99,13,
25.91274167,-80.13782133,20:09.9,9/5/20,11,0.541,225.33,-7.017782236,0.88,163.9,153.91,0.78,-3.79,37.8,2.05,3.59,5.64,96,24,509.1,16.3,-1.5,D,1408.6,0,24.816,2,0.96,146,118.84,-80.137604,25.912634,0,0,6,N,0,91,89,25,120,120,232.9104,0,9999.99,3.6,3.727,2,9,33.2,0,33.20000076,32.28,1549.13528,9/5/20,11:57:48,31.89,49.65,32.28,1.142,8.31,-78.9,-4.3,-2.1,-2515,81.1,4.98,13,
25.9127395,-80.1378205,20:10.9,9/5/20,11,0.518,225.33,-7.017782409,0.88,163.5,153.52,1.2,-3.48,37.8,2.08,3.58,5.66,96,24,509.1,16.3,-1.5,D,1408.6,0,24.627,2,0.96,150,118.45,-80.137604,25.912634,0,0,6,N,0,91,89,25,120,120,232.9104,0,9999.99,3.59,3.717,2,9,33.2,0,33.20000076,32.27,1549.12542,9/5/20,11:57:49,31.88,49.64,32.27,1.181,8.31,-79.1,-4.1,-4.4,-2060,81.1,4.99,13,
25.91273433,-80.13781767,20:11.9,9/5/20,11,0.543,225.33,-7.01778321,0.88,162.9,152.94,1.39,-3.25,37.9,2.08,3.57,5.65,96,25,509.1,16.3,-1.5,D,1374.7,0,24.331,2,0.96,155,117.98,-80.137604,25.912634,0,0,6,N,0,91,89,25,120,120,232.9104,0,9999.99,3.58,3.707,2,9,33.2,0,33.20000076,32.27,1549.12579,9/5/20,11:57:50,31.87,49.65,32.27,1.148,8.32,-79.8,-4.4,-2.4,-1095,81.1,4.98,12.8,
25.91273133,-80.13781617,20:13.0,9/5/20,11,0.821,179.42,-7.017783583,0.88,163.4,153.42,0.98,-2.88,37.8,2.07,3.47,5.54,96,25,509.1,16.3,-1.5,D,1374.7,0,23.821,2,0.96,157,117.02,-80.137604,25.912634,0,0,6,N,0,91,89,25,120,120,232.9104,0,9999.99,3.48,3.607,2,9,33.2,0,33.20000076,32.28,1549.13595,9/5/20,11:57:51,31.87,49.65,32.28,1.148,8.34,-81,-3.5,-1.8,-3785,81,4.98,13,
25.91272767,-80.13781433,20:14.0,9/5/20,11,0.966,167.37,-7.017784063,0.82,162.6,152.65,1,-3.42,37.8,2.09,3.44,5.53,96,25,509.1,16.3,-1.5,D,1374.7,0,23.474,2,0.96,157,116.34,-80.137604,25.912634,0,0,6,N,0,91,89,25,120,120,232.9104,0,9999.99,3.45,3.577,2,9,33.2,0,33.20000076,32.28,1549.13514,9/5/20,11:57:52,31.87,49.66,32.28,1.167,8.3,-78.6,-4.2,-5,-3088,81,4.98,13,
25.9127235,-80.13781233,20:15.1,9/5/20,11,1.063,162.34,-7.01778465,0.82,162.2,152.26,1.13,-2.72,37.8,2.06,3.55,5.61,96,28,509.1,16.3,-1.7,D,1237.5,0,23.091,2,0.96,157,115.53,-80.137604,25.912634,0,0,6,N,0,91,89,25,120,120,232.9104,0,9999.99,3.56,3.687,2,9,33.2,0,33.20000076,32.29,1549.14692,9/5/20,11:57:53,31.87,49.67,32.29,1.163,8.29,-78.1,-3.7,-6.2,-4514,81,4.98,13.1,
25.91271883,-80.13781017,20:16.0,9/5/20,11,1.128,157.2,-7.017785267,0.82,162.5,152.55,0.94,-2.76,37.8,2.07,3.54,5.62,96,28,509.1,16.3,-1.7,D,1237.5,0,22.675,2,0.96,157,114.58,-80.137604,25.912634,0,0,6,N,0,91,89,25,120,120,232.9104,0,9999.99,3.55,3.677,2,9,33.1,0,33.20000076,32.28,1549.13447,9/5/20,11:57:54,31.87,49.65,32.28,1.142,8.29,-77.6,-4.8,-5.7,-4749,81,4.97,12.9,
25.91271433,-80.13780817,20:17.1,9/5/20,11,1.08,156.76,-7.017785914,0.82,162.2,152.26,0.52,-2.62,37.8,2.08,3.55,5.62,96,28,509.1,16.3,-1.7,D,1237.5,0,22.288,2,0.96,157,113.63,-80.137604,25.912634,0,0,6,N,0,91,89,25,120,120,232.9104,0,9999.99,3.56,3.687,2,9,33.1,0,33.09999847,32.28,1548.9454,9/5/20,11:57:55,31.87,49.65,32.28,1.176,8.31,-78.9,-2.8,-2.2,-2629,81,4.97,13,
25.9127095,-80.13780583,20:18.1,9/5/20,11,1.189,157.16,-7.017786484,0.82,162.2,152.26,0.67,-2.94,37.8,2.08,3.54,5.62,96,28,509.1,16.3,-1.7,D,1237.5,0,21.863,2,0.96,157,112.58,-80.137604,25.912634,0,0,6,N,0,91,89,25,116,116,232.9104,0,9999.99,3.55,3.677,2,9,33.1,0,33.09999847,32.27,1548.93779,9/5/20,11:57:56,31.87,49.65,32.27,1.188,8.31,-78.8,-5.7,-3,-3229,80.9,4.97,13.1,
25.9127045,-80.13780317,20:19.1,9/5/20,11,1.27,157.31,-7.017787207,0.82,161.8,151.87,0.89,-2.6,37.8,2.03,3.51,5.53,96,28,509.1,16.3,-1.7,D,1228.1,0,21.407,2,0.96,157,111.48,-80.137604,25.912634,0,0,6,N,0,91,89,25,108,108,232.9104,0,9999.99,3.51,3.637,2,9,33.1,0,33.09999847,32.28,1548.94714,9/5/20,11:57:57,31.87,49.65,32.28,1.15,8.3,-78.1,-4.1,-2,-1348,80.9,4.97,13.1,
25.91269917,-80.13780083,20:20.1,9/5/20,11,1.242,157.11,-7.017788107,0.82,161.8,151.87,0.66,-2.52,37.8,2.09,3.45,5.54,96,28,509.1,16.3,-1.7,D,1228.1,0,20.978,2,0.96,157,110.21,-80.137604,25.912634,0,0,6,N,0,91,89,25,107,107,232.9104,0,9999.99,3.46,3.587,2,9,33.1,0,33.09999847,32.27,1548.93357,9/5/20,11:57:58,31.88,49.65,32.27,1.167,8.27,-76.8,-3.9,-1,-4383,80.9,4.97,12.9,
25.912694,-80.1377985,20:21.1,9/5/20,11,1.217,156.43,-7.017788761,0.82,161.3,151.39,0.72,-2.65,37.8,2.09,3.53,5.63,96,28,509.1,16.3,-1.7,D,1228.1,0,20.565,2,0.96,157,108.93,-80.137604,25.912634,0,0,6,N,0,91,89,25,107,107,232.9104,0,9999.99,3.54,3.667,2,9,33.1,0,33.09999847,32.27,1548.93897,9/5/20,11:58:00,31.87,49.64,32.27,1.152,8.31,-79,-5.5,-2.9,-2540,80.8,4.97,13,
25.91268867,-80.13779583,20:22.1,9/5/20,11,1.28,155.11,-7.017789437,0.82,160.9,151,0.74,-2.22,37.8,2.09,3.54,5.63,96,28,509.1,16.3,-1.7,D,1228.1,0,20.126,2,0.96,157,107.58,-80.137604,25.912634,0,0,6,N,0,91,89,25,107,107,232.9104,0,9999.99,3.55,3.677,2,9,33.1,0,33.09999847,32.27,1548.93897,9/5/20,11:58:00,31.87,49.64,32.27,1.152,8.31,-79,-5.5,-2.9,-2540,80.8,4.97,13,
25.9126835,-80.13779283,20:23.1,9/5/20,11,1.256,154.14,-7.017790291,0.82,160.5,150.61,0.33,-6.01,37.8,2.03,3.54,5.57,96,27,509,16.3,-1.7,D,1242.4,0,19.672,2,0.96,128,106.25,-80.137604,25.912634,0,0,6,N,0,91,89,25,107,107,232.9104,0,9999.99,3.55,3.677,2,9,33.1,0,33.09999847,32.27,1548.93752,9/5/20,11:58:01,31.87,49.65,32.27,1.174,8.33,-80,-5.3,-4.9,-2988,80.8,4.97,13,
25.91267867,-80.13779033,20:24.1,9/5/20,11,1.144,154.72,-7.017791368,0.82,160.6,150.71,1.13,-3.08,37.8,2.05,3.54,5.59,96,27,509,16.3,-1.7,D,1242.4,0,19.287,2,0.96,128,104.92,-80.137604,25.912634,0,0,6,N,0,91,89,25,107,107,232.9104,0,9999.99,3.55,3.677,2,9,33.1,0,33.09999847,32.26,1548.925,9/5/20,11:58:03,31.87,49.63,32.26,1.128,8.3,-78.5,-5.8,-2.1,-3401,80.8,4.97,13,
25.91267417,-80.13778833,20:25.1,9/5/20,11,0.957,154.08,-7.017792192,0.82,159.9,150.03,1.56,-5.2,37.8,2.08,3.53,5.61,96,27,509,16.3,-1.7,D,1242.4,0,18.97,2,0.96,128,103.62,-80.137604,25.912634,0,0,6,N,0,91,89,25,105,105,232.9104,0,9999.99,3.54,3.667,2,9,33.1,0,33.09999847,32.26,1548.925,9/5/20,11:58:03,31.87,49.63,32.26,1.128,8.3,-78.5,-5.8,-2.1,-3401,80.8,4.97,13,
25.91267033,-80.1377865,20:26.1,9/5/20,11,0.82,154.08,-7.017792762,0.88,159.7,149.84,1.02,-3.95,37.8,2.09,3.54,5.63,96,23,509,16.3,-1.4,D,1503.2,0,18.695,2,0.96,128,102.48,-80.137604,25.912634,0,0,6,N,0,91,89,25,106,106,232.9104,0,9999.99,3.55,3.677,2,9,33.1,0,33.09999847,32.26,1548.92869,9/5/20,11:58:05,31.86,49.63,32.26,1.141,8.31,-79.1,-5.8,-2.7,-2690,80.8,4.97,13,
25.912667,-80.13778517,20:27.1,9/5/20,11,0.694,154.08,-7.017793325,0.88,159.5,149.65,1.02,-4.5,37.8,2.05,3.54,5.59,96,23,509,16.3,-1.4,D,1503.2,0,18.487,2,0.96,128,101.45,-80.137604,25.912634,0,0,6,N,0,91,89,25,106,106,232.9104,0,9999.99,3.55,3.677,2,9,33.1,0,33.09999847,32.26,1548.92869,9/5/20,11:58:05,31.86,49.63,32.26,1.141,8.31,-79.1,-5.8,-2.7,-2690,80.8,4.97,13,
25.9126635,-80.137783,20:28.1,9/5/20,11,0.853,152.73,-7.017793659,0.88,158.3,148.49,0.99,-4.43,37.8,2.07,3.54,5.61,96,23,509,16.3,-1.4,D,1503.2,0,18.201,2,0.96,128,100.38,-80.137604,25.912634,0,0,6,N,0,91,89,25,106,106,232.9104,0,9999.99,3.55,3.677,2,9,33.1,0,33.09999847,32.26,1548.9265,9/5/20,11:58:06,31.86,49.63,32.26,1.157,8.31,-79.2,-4.5,-5.1,-3084,80.8,4.97,12.8,
25.9126605,-80.137781,20:29.1,9/5/20,11,0.754,152.73,-7.017794469,0.88,157.7,147.91,1.39,-4.35,37.8,2.08,3.54,5.62,96,23,509,16.3,-1.4,D,1503.2,0,17.946,2,0.96,128,99.45,-80.137604,25.912634,0,0,6,N,0,91,89,25,106,106,232.9104,0,9999.99,3.55,3.677,2,9,33.1,0,33.09999847,32.25,1548.92013,9/5/20,11:58:07,31.86,49.62,32.25,1.139,8.32,-79.6,-5.1,-4,-2750,80.9,4.97,13,
25.91265783,-80.13777917,20:30.1,9/5/20,11,0.654,152.73,-7.01779525,0.88,156.9,147.15,1.11,-4.4,37.8,2.05,3.55,5.6,96,22,509,16.3,-1.4,D,1507.4,0,17.719,2,0.96,128,98.6,-80.137604,25.912634,0,0,6,N,0,91,89,25,106,106,232.9104,0,9999.99,3.56,3.687,2,9,33.1,0,33.09999847,32.25,1548.91478,9/5/20,11:58:09,31.86,49.62,32.25,1.153,8.31,-79,-5,-3.5,605,80.9,4.97,13,
25.912655,-80.13777767,20:31.1,9/5/20,11,0.621,152.73,-7.017795977,0.88,156.1,146.38,1.27,-4.37,37.8,2.1,3.55,5.65,96,22,509,16.3,-1.4,D,1507.4,0,17.526,2,0.96,128,97.66,-80.137604,25.912634,0,0,6,N,0,91,89,25,106,106,232.9104,0,9999.99,3.56,3.687,2,9,33.1,0,33.09999847,32.25,1548.91478,9/5/20,11:58:09,31.86,49.62,32.25,1.153,8.31,-79,-5,-3.5,605,80.9,4.97,13,
25.9126525,-80.13777633,20:32.1,9/5/20,11,0.58,152.73,-7.017796481,0.82,155.1,145.42,1.17,-4.99,37.8,2.07,3.55,5.62,96,22,509,16.3,-1.4,D,1507.4,0,17.358,2,0.96,128,96.81,-80.137604,25.912634,0,0,6,N,0,91,89,25,106,106,232.9104,0,9999.99,3.56,3.687,2,9,33.1,0,33.09999847,32.26,1548.92703,9/5/20,11:58:10,31.86,49.62,32.26,1.129,8.3,-78.5,-4.5,-1.5,-4140,81,4.98,12.9,
25.91265,-80.13777483,20:33.1,9/5/20,11,0.592,152.73,-7.017796931,0.82,154.5,144.85,1.03,-4.28,37.9,2.05,3.54,5.59,96,22,509,16.3,-1.4,D,1508.4,0,17.179,2,0.96,128,95.94,-80.137604,25.912634,0,0,6,N,0,91,89,25,106,106,232.9104,0,9999.99,3.55,3.677,2,9,33.1,0,33.09999847,32.25,1548.91733,9/5/20,11:58:11,31.86,49.62,32.25,1.154,8.28,-76.9,-4.8,-5.1,-2309,81,4.98,13,
25.91264783,-80.1377735,20:34.1,9/5/20,11,0.468,152.73,-7.017797481,0.88,154,144.37,1.26,-5.1,37.8,2.09,3.54,5.63,96,22,509,16.3,-1.4,D,1508.4,0,17.022,2,0.96,128,95.18,-80.137604,25.912634,0,0,6,N,0,91,89,25,106,106,232.9104,0,9999.99,3.55,3.677,2,9,33.1,0,33.09999847,32.25,1548.91862,9/5/20,11:58:13,31.86,49.62,32.25,1.145,8.31,-79.1,-5.2,-2.2,-1168,81.1,4.98,13,
25.91264583,-80.13777217,20:35.1,9/5/20,11,0.416,152.73,-7.017797978,0.88,153.1,143.51,1.26,-4.82,37.9,2.09,3.56,5.65,96,22,509,16.3,-1.4,D,1508.4,0,16.871,2,0.96,128,94.47,-80.137604,25.912634,0,0,6,N,0,91,89,25,138,138,232.9104,0,9999.99,3.57,3.697,2,9,33.1,0,33.09999847,32.25,1548.91862,9/5/20,11:58:13,31.86,49.62,32.25,1.145,8.31,-79.1,-5.2,-2.2,-1168,81.1,4.98,13,
25.912644,-80.13777083,20:36.1,9/5/20,11,0.522,152.73,-7.017798499,0.88,152.5,142.94,1.35,-4.53,37.9,2.09,3.56,5.65,96,22,509,16.3,-1.4,D,1508.4,0,16.723,2,0.96,128,93.81,-80.137604,25.912634,0,0,6,N,0,91,89,25,137,137,232.9104,0,9999.99,3.57,3.697,2,9,33.1,0,33.09999847,32.25,1548.91636,9/5/20,11:58:14,31.86,49.62,32.25,1.147,8.32,-79.8,-4.9,-1.9,-2052,81.1,4.99,12.8,
25.91264217,-80.13776967,20:37.1,9/5/20,11,0.542,152.73,-7.017799042,0.88,152.2,142.65,1.11,-4.7,37.8,2.09,3.57,5.66,96,22,509,16.3,-1.3,D,1530.1,0,16.595,2,0.96,128,93.14,-80.137604,25.912634,0,0,6,N,0,91,89,25,117,117,232.9104,0,9999.99,3.58,3.707,2,9,33.1,0,33.09999847,32.26,1548.92724,9/5/20,11:58:15,31.85,49.62,32.26,1.154,8.32,-79.3,-3.8,-3.2,-3594,81.2,4.99,13,
25.91264067,-80.13776833,20:38.1,9/5/20,10,0.441,152.73,-7.017799486,0.95,151.8,142.27,1.16,-4.46,37.8,2.07,3.56,5.62,96,22,509,16.3,-1.3,D,1530.1,0,16.453,2,0.96,128,92.58,-80.137604,25.912634,0,0,6,N,0,91,89,25,122,122,232.9104,0,9999.99,3.57,3.697,2,9,33.1,0,33.09999847,32.25,1548.91567,9/5/20,11:58:17,31.85,49.62,32.25,1.128,8.29,-78,-3.9,-2.7,-1515,81.2,4.99,13,
25.91263917,-80.13776717,20:39.1,9/5/20,11,0.382,152.73,-7.017800077,0.88,151.5,141.98,1.05,-4.89,37.8,2.08,3.57,5.65,96,22,509,16.3,-1.3,D,1530.1,0,16.329,2,0.96,128,92.02,-80.137604,25.912634,0,0,6,N,0,91,89,25,121,121,232.9104,0,9999.99,3.58,3.707,2,9,33.1,0,33.09999847,32.25,1548.91525,9/5/20,11:58:18,31.84,49.62,32.25,1.146,8.31,-79,-4.3,-6.3,-1546,81.2,4.99,12.9,
25.91263783,-80.137766,20:40.2,9/5/20,11,0.447,152.73,-7.017800567,0.88,151,141.51,1.22,-4.46,37.8,2.06,3.55,5.61,96,22,508.9,16.3,-1.3,D,1515.8,0,16.208,2,0.96,128,91.51,-80.137604,25.912634,0,0,6,N,0,91,89,25,121,121,232.9104,0,9999.99,3.56,3.687,2,9,33.1,0,33.09999847,32.25,1548.91525,9/5/20,11:58:18,31.84,49.62,32.25,1.146,8.31,-79,-4.3,-6.3,-1546,81.2,4.99,12.9,
25.9126365,-80.137765,20:41.2,9/5/20,11,0.463,152.73,-7.017801081,0.88,150.7,141.22,1.29,-4.9,37.8,2.06,3.52,5.58,96,22,508.9,16.3,-1.3,D,1515.8,0,16.105,2,0.96,128,90.99,-80.137604,25.912634,0,0,6,N,0,91,89,25,121,121,232.9104,0,9999.99,3.53,3.657,2,9,33.1,0,33.09999847,32.25,1548.9162,9/5/20,11:58:19,31.84,49.62,32.25,1.128,8.31,-79.2,-5.1,1.7,-3151,81.2,4.99,13,
25.91263533,-80.137764,20:42.2,9/5/20,11,0.378,152.73,-7.017801495,0.88,150.6,141.13,1.03,-4.35,37.8,2.08,3.52,5.6,96,22,508.9,16.3,-1.3,D,1515.8,0,16.003,2,0.96,128,90.53,-80.137604,25.912634,0,0,6,N,0,91,89,25,121,121,232.9104,0,9999.99,3.53,3.657,2,9,33.1,0,33.09999847,32.25,1548.91424,9/5/20,11:58:21,31.83,49.62,32.25,1.139,8.34,-80.7,-4.9,-6.2,-486,81.2,5,13,
25.91263417,-80.13776317,20:43.2,9/5/20,11,0.338,152.73,-7.017801932,0.88,149.8,140.37,1.24,-4.77,37.8,2.08,3.52,5.6,96,22,508.9,16.3,-1.3,D,1515.8,0,15.919,2,0.96,128,90.07,-80.137604,25.912634,0,0,6,N,0,91,89,25,121,121,232.9104,0,9999.99,3.53,3.657,2,9,33.1,0,33.09999847,32.25,1548.91424,9/5/20,11:58:21,31.83,49.62,32.25,1.139,8.34,-80.7,-4.9,-6.2,-486,81.2,5,13,
25.912633,-80.13776233,20:44.2,9/5/20,11,0.33,152.73,-7.017802269,0.88,150,140.56,0.95,-4.92,37.8,2.05,3.55,5.59,96,22,508.9,16.3,-1.3,D,1516.8,0,15.836,2,0.96,128,89.6,-80.137604,25.912634,0,0,6,N,0,91,89,25,126,126,232.9104,0,9999.99,3.56,3.687,2,9,33.1,0,33.09999847,32.25,1548.91494,9/5/20,11:58:22,31.83,49.62,32.25,1.13,8.3,-78.7,-5.2,-3.3,-1183,81.2,5,12.9,
25.912632,-80.13776133,20:45.2,9/5/20,11,0.332,152.73,-7.017802606,0.88,149.8,140.37,1.29,-4.28,37.8,2.08,3.58,5.66,96,22,508.9,16.3,-1.3,D,1516.8,0,15.737,2,0.96,128,89.19,-80.137604,25.912634,0,0,6,N,0,91,89,25,126,126,232.9104,0,9999.99,3.59,3.717,2,9,33.1,0,33.09999847,32.26,1548.92685,9/5/20,11:58:24,31.82,49.62,32.26,1.139,8.28,-77,-4.9,-3.8,-4056,81.2,4.99,13,
25.91263083,-80.13776033,20:46.2,9/5/20,11,0.332,152.73,-7.017803066,0.88,149.6,140.18,1.01,-4.93,37.8,2.07,3.52,5.59,96,22,508.9,16.3,-1.3,D,1532.1,0,15.64,2,0.96,128,88.71,-80.137604,25.912634,0,0,6,N,0,91,89,25,134,134,232.9104,0,9999.99,3.53,3.657,2,9,33.1,0,33.09999847,32.26,1548.92643,9/5/20,11:58:25,31.82,49.63,32.26,1.158,8.31,-79,-6,-3.6,-901,81.2,4.99,13,
25.91262917,-80.137759,20:47.2,9/5/20,11,0.346,152.73,-7.017803504,0.88,149.6,140.18,1.37,-4.36,37.8,2.07,3.47,5.54,96,22,508.9,16.3,-1.3,D,1527.7,0,15.512,2,0.96,128,88.01,-80.137604,25.912634,0,0,6,N,0,91,89,25,133,133,232.9104,0,9999.99,3.48,3.607,2,9,33.1,0,33.09999847,32.26,1548.92714,9/5/20,11:58:26,31.82,49.63,32.26,1.138,8.31,-79.1,-4.8,-3.6,-1611,81.2,4.99,13,
25.912628,-80.137758,20:48.2,9/5/20,11,0.298,152.73,-7.017804071,0.88,149.8,140.37,1.33,-4.79,37.8,2.07,3.46,5.53,96,22,508.9,16.3,-1.3,D,1527.7,0,15.417,2,0.96,132,87.52,-80.137604,25.912634,0,0,6,N,0,91,89,25,133,133,232.9104,0,9999.99,3.47,3.597,2,9,33.1,0,33.09999847,32.27,1548.93823,9/5/20,11:58:27,31.82,49.64,32.27,1.142,8.32,-79.8,-5.3,-3.8,-2649,81.1,4.99,13,
25.9126275,-80.13775717,20:49.2,9/5/20,11,0.22,152.73,-7.017804508,0.88,150,140.56,1.1,-4.48,37.8,2.09,3.45,5.54,96,22,508.9,16.3,-1.3,D,1527.7,0,15.336,2,0.96,138,87.3,-80.137604,25.912634,0,0,6,N,0,91,89,25,133,133,232.9104,0,9999.99,3.46,3.587,2,9,33.1,0,33.09999847,32.26,1548.92658,9/5/20,11:58:28,31.82,49.63,32.26,1.131,8.33,-80.2,-4.5,-4.2,-2479,81.1,4.99,13,
25.91262617,-80.137756,20:50.2,9/5/20,11,0.324,152.73,-7.017804939,0.88,150.4,140.94,1.45,-4.29,37.8,2.05,3.46,5.51,96,22,508.9,16.3,-1.3,D,1527.7,0,15.227,2,0.96,143,86.72,-80.137604,25.912634,0,0,6,N,0,91,89,25,133,133,232.9104,0,9999.99,3.47,3.597,2,9,33.1,0,33.09999847,32.27,1548.9374,9/5/20,11:58:29,31.82,49.63,32.27,1.143,8.3,-78.5,-4.6,-3.3,113,81.1,4.99,13,
25.91262483,-80.13775517,20:51.2,9/5/20,11,0.292,152.73,-7.017805452,0.88,150.4,140.94,1,-4.56,37.8,2.06,3.5,5.55,96,23,508.9,16.3,-1.4,D,1469.4,0,15.154,2,0.96,148,86.14,-80.137604,25.912634,0,0,6,N,0,91,89,25,133,133,232.9104,0,9999.99,3.51,3.637,2,9,33.1,0,33.09999847,32.27,1548.9374,9/5/20,11:58:29,31.82,49.63,32.27,1.143,8.3,-78.5,-4.6,-3.3,113,81.1,4.99,13,
25.912623,-80.13775433,20:52.2,9/5/20,11,0.406,152.73,-7.017805766,0.88,150.3,140.84,1.35,-3.14,37.8,2.05,3.6,5.65,96,23,508.9,16.3,-1.4,D,1469.4,0,15.086,2,0.96,154,85.35,-80.137604,25.912634,0,0,6,N,0,91,89,25,133,133,232.9104,0,9999.99,3.61,3.737,2,9,33.1,0,33.09999847,32.27,1548.93709,9/5/20,11:58:30,31.83,49.64,32.27,1.169,8.29,-78.1,-4.5,-1.5,-3471,81.1,4.99,13,
25.91262067,-80.13775317,20:53.2,9/5/20,10,0.536,152.73,-7.017806009,0.95,150.5,141.03,1.5,-2.96,37.8,2.04,3.6,5.64,96,23,508.9,16.3,-1.4,D,1469.4,0,14.993,2,0.96,159,84.32,-80.137604,25.912634,0,0,6,N,0,91,89,25,133,133,232.9104,0,9999.99,3.61,3.737,2,9,33.1,0,33.09999847,32.26,1548.92647,9/5/20,11:58:32,31.82,49.62,32.26,1.165,8.31,-78.9,-4.6,-3.5,-926,81.1,4.99,13,
25.91261783,-80.13775117,20:54.2,9/5/20,11,0.832,150.96,-7.017806383,0.95,150.3,140.84,1.17,-2.21,37.8,2.04,3.61,5.65,96,23,508.9,16.3,-1.4,D,1469.4,0,14.828,2,0.96,164,83.04,-80.137604,25.912634,0,0,6,N,0,91,89,25,133,133,232.9104,0,9999.99,3.62,3.747,2,9,33.1,0,33.09999847,32.26,1548.92647,9/5/20,11:58:32,31.82,49.62,32.26,1.165,8.31,-78.9,-4.6,-3.5,-926,81.1,4.99,13,
25.91261433,-80.1377485,20:55.2,9/5/20,11,1.065,146.51,-7.017807187,0.95,149.8,140.37,1.09,-0.58,37.8,2.09,3.62,5.7,96,29,508.9,16.3,-1.7,D,1183,0,14.617,2,0.96,166,81.4,-80.137604,25.912634,0,0,6,N,0,91,89,25,133,133,232.9104,0,9999.99,3.63,3.757,2,9,33.1,0,33.09999847,32.24,1548.90591,9/5/20,11:58:33,31.81,49.6,32.24,1.188,8.32,-79.3,-5.2,-3.6,-471,81,4.99,13.1,
25.91260933,-80.13774467,20:56.2,9/5/20,11,1.266,144.69,-7.017808298,0.95,150.5,141.03,0.52,-0.79,37.7,2.08,3.62,5.7,96,29,508.9,16.3,-1.7,D,1183,0,14.334,2,0.96,166,78.97,-80.137604,25.912634,0,0,6,N,0,91,89,25,133,133,232.9104,0,9999.99,3.63,3.757,2,9,33.1,0,33.09999847,32.27,1548.9366,9/5/20,11:58:35,31.8,49.65,32.27,1.185,8.31,-78.8,-4.7,-2.9,-1595,80.9,4.98,13,
25.91260417,-80.13774067,20:57.2,9/5/20,11,1.318,145.08,-7.017809899,0.88,150.6,141.13,0.32,-0.87,37.7,2.07,3.62,5.7,96,29,508.9,16.3,-1.7,D,1183,0,14.066,2,0.96,166,76.36,-80.137604,25.912634,0,0,6,N,0,91,89,25,133,133,232.9104,0,9999.99,3.63,3.757,2,9,33.1,0,33.09999847,32.27,1548.9366,9/5/20,11:58:35,31.8,49.65,32.27,1.185,8.31,-78.8,-4.7,-2.9,-1595,80.9,4.98,13,
25.91259883,-80.13773683,20:58.2,9/5/20,11,1.46,145.51,-7.017811578,0.88,151.4,141.89,0.06,-1.72,37.8,2.07,3.64,5.71,96,33,508.8,16.3,-2,D,1043.7,0,13.849,2,0.96,166,73.6,-80.137604,25.912634,0,0,6,N,0,91,89,25,133,133,232.9104,0,9999.99,3.64,3.767,2,9,33.1,0,33.09999847,32.27,1548.93532,9/5/20,11:58:36,31.81,49.65,32.27,1.172,8.3,-78.2,-4.6,-0.5,-3263,80.9,4.98,13,
25.91259333,-80.13773183,20:59.3,9/5/20,11,1.493,146.28,-7.017813132,0.88,151.3,141.79,0.32,-1.02,37.8,2.07,3.64,5.71,96,33,508.8,16.3,-2,D,1043.7,0,13.562,2,0.96,166,70.52,-80.137604,25.912634,0,0,6,N,0,91,89,25,133,133,232.9104,0,9999.99,3.64,3.767,2,9,33.1,0,33.09999847,32.27,1548.93674,9/5/20,11:58:38,31.81,49.64,32.27,1.206,8.31,-78.8,-5.6,-4.9,-1438,80.8,4.97,12.9,
25.91258767,-80.13772783,21:00.3,9/5/20,11,1.444,145.87,-7.017815365,0.88,152.4,142.84,0.24,-1.4,37.8,2.07,3.65,5.72,96,33,508.8,16.3,-2,D,1043.7,0,13.414,2,0.96,166,67.41,-80.137604,25.912634,0,0,6,N,0,91,89,25,140,140,232.9104,0,9999.99,3.65,3.777,2,9,33,0,33.09999847,32.27,1548.93674,9/5/20,11:58:38,31.81,49.64,32.27,1.206,8.31,-78.8,-5.6,-4.9,-1438,80.8,4.97,12.9,
25.91258117,-80.137723,21:01.3,9/5/20,11,1.561,145.19,-7.017816973,0.88,153.4,143.79,0.32,-1.59,37.8,2.05,3.65,5.7,96,33,508.8,16.3,-2,D,1043.7,0,13.273,2,0.96,166,63.73,-80.137604,25.912634,0,0,6,N,0,91,89,25,141,141,232.9104,0,9999.99,3.65,3.777,2,9,33.1,0,33.09999847,32.26,1548.92694,9/5/20,11:58:39,31.81,49.63,32.26,1.202,8.31,-78.8,-5,-3.8,-4338,80.8,4.97,13,
25.91257483,-80.13771817,21:02.3,9/5/20,11,1.624,147.49,-7.017818965,0.88,154.4,144.75,-0.2,-0.88,37.7,2.04,3.65,5.69,96,32,508.8,16.3,-2,D,1055,0,13.178,2,0.96,166,60.05,-80.137604,25.912634,0,0,6,N,0,91,89,25,116,116,232.9104,0,9999.99,3.65,3.777,2,9,33,0,33,32.27,1548.75065,9/5/20,11:58:41,31.81,49.64,32.27,1.204,8.31,-78.8,-4.7,-1.8,-3301,80.7,4.96,13,
25.9125685,-80.13771333,21:03.3,9/5/20,11,1.711,147.59,-7.01782098,0.88,154.3,144.65,0.13,-2.38,37.8,2.06,3.66,5.72,96,33,508.8,16.3,-2,D,1045.1,0,13.139,2,0.96,166,56.33,-80.137604,25.912634,0,0,6,N,0,91,89,25,119,119,232.9104,0,9999.99,3.66,3.787,2,9,33,0,33,32.27,1548.75065,9/5/20,11:58:41,31.81,49.64,32.27,1.204,8.31,-78.8,-4.7,-1.8,-3301,80.7,4.96,13,
25.91256217,-80.13770883,21:04.3,9/5/20,11,1.616,148.02,-7.017822995,0.88,154.9,145.23,-0.1,-1.16,37.8,2.07,3.67,5.74,96,33,508.8,16.3,-2,D,1045.1,0,13.181,2,0.96,166,52.7,-80.137604,25.912634,0,0,6,N,0,91,89,25,120,120,232.9104,0,9999.99,3.67,3.797,2,9,33,0,33,32.28,1548.75589,9/5/20,11:58:42,31.81,49.65,32.28,1.202,8.3,-78.5,-4.7,-4.4,-3868,80.6,4.96,12.9,
25.9125555,-80.1377045,21:05.3,9/5/20,11,1.599,147.95,-7.01782481,0.82,155.9,146.19,-0.49,-4.41,37.8,2.06,3.68,5.74,96,33,508.8,16.3,-2,D,1045.1,0,13.313,2,0.96,128,49.03,-80.137604,25.912634,0,0,6,N,0,91,89,25,121,121,232.9104,0,9999.99,3.68,3.807,2,9,33,0,33,32.28,1548.75498,9/5/20,11:58:44,31.81,49.65,32.28,1.209,8.31,-78.8,-3.8,-4.4,-952,80.5,4.95,12.9,
25.91254967,-80.137701,21:06.3,9/5/20,11,1.384,149.37,-7.017826478,0.82,155,145.32,0.92,-3.43,37.7,2.06,3.68,5.74,96,33,508.8,16.3,-2,D,1045.1,0,13.493,2,0.96,128,45.97,-80.137604,25.912634,0,0,6,N,0,91,89,25,121,121,232.9104,0,9999.99,3.68,3.807,2,9,33,0,33,32.28,1548.75498,9/5/20,11:58:44,31.81,49.65,32.28,1.209,8.31,-78.8,-3.8,-4.4,-952,80.5,4.95,12.9,
25.912544,-80.1376975,21:07.3,9/5/20,11,1.397,148.91,-7.017827762,0.82,154.3,144.65,1.54,-3.91,37.7,2.08,3.68,5.76,96,23,508.8,16.3,-1.4,D,1490.8,0,13.697,2,0.96,128,43.06,-80.137604,25.912634,0,0,6,N,0,91,89,25,121,121,232.9104,0,9999.99,3.69,3.817,2,9,33,0,33,32.28,1548.75851,9/5/20,11:58:45,31.81,49.65,32.28,1.183,8.31,-78.9,-4.5,-3.1,-552,80.5,4.95,13,
25.9125395,-80.1376945,21:08.3,9/5/20,11,1.07,148.83,-7.01782907,0.82,153.8,144.18,1.52,-4.18,37.7,2.06,3.69,5.74,96,23,508.8,16.3,-1.4,D,1490.8,0,13.869,2,0.96,128,40.74,-80.137604,25.912634,0,0,6,N,0,91,89,25,121,121,232.9104,0,9999.99,3.7,3.827,2,9,33,0,33,32.27,1548.74772,9/5/20,11:58:47,31.81,49.64,32.27,1.138,8.34,-80.9,-5.3,-2.4,-835,80.5,4.95,13,
25.912535,-80.1376915,21:09.3,9/5/20,11,1.219,147.51,-7.017830241,0.82,153.6,143.98,1.56,-4.18,37.7,2.09,3.7,5.78,96,23,508.8,16.3,-1.4,D,1490.8,0,14.063,2,0.96,128,38.48,-80.137604,25.912634,0,0,6,N,0,91,89,25,121,121,232.9104,0,9999.99,3.71,3.837,2,9,33,0,33,32.27,1548.74772,9/5/20,11:58:47,31.81,49.64,32.27,1.138,8.34,-80.9,-5.3,-2.4,-835,80.5,4.95,13,
25.91253167,-80.13768933,21:10.4,9/5/20,11,0.77,147.51,-7.017831412,0.82,152.7,143.13,1.1,-4.05,37.7,2.06,3.71,5.77,96,23,508.8,16.3,-1.4,D,1482.4,0,14.224,2,0.96,128,36.87,-80.137604,25.912634,0,0,6,N,0,91,89,25,121,121,232.9104,0,9999.99,3.72,3.847,2,9,33,0,33,32.28,1548.75916,9/5/20,11:58:48,31.8,49.66,32.28,1.142,8.3,-78.5,-4.1,-5.8,-928,80.4,4.95,13.1,
25.9125285,-80.13768717,21:11.4,9/5/20,11,0.827,146.81,-7.017832246,0.82,152.8,143.22,1.36,-4.55,37.7,2.06,3.71,5.77,96,23,508.8,16.3,-1.4,D,1482.4,0,14.381,2,0.96,128,35.34,-80.137604,25.912634,0,0,6,N,0,91,89,25,121,121,232.9104,0,9999.99,3.72,3.847,2,9,33,0,33,32.29,1548.76886,9/5/20,11:58:50,31.81,49.67,32.29,1.15,8.28,-76.9,-3.9,-6,-3336,80.3,4.94,13,
25.91252533,-80.137685,21:12.4,9/5/20,11,0.769,147.69,-7.017833103,0.82,152.8,143.22,1.05,-4.66,37.7,2.09,3.72,5.81,96,23,508.8,16.3,-1.4,D,1482.4,0,14.548,2,0.96,128,33.84,-80.137604,25.912634,0,0,6,N,0,91,89,25,121,121,232.9104,0,9999.99,3.73,3.857,2,9,33,0,33,32.29,1548.76893,9/5/20,11:58:51,31.82,49.67,32.29,1.149,8.31,-78.9,-5.4,-4.5,-299,80.3,4.94,13,
25.91252267,-80.13768383,21:13.4,9/5/20,11,0.651,147.69,-7.017833961,0.82,151.8,142.27,0.93,-4.33,37.8,2.07,3.73,5.8,96,23,508.8,16.3,-1.4,D,1482.4,0,14.731,2,0.96,128,32.82,-80.137604,25.912634,0,0,6,N,0,91,89,25,121,121,232.9104,0,9999.99,3.74,3.867,2,9,33,0,33,32.29,1548.76826,9/5/20,11:58:52,31.82,49.67,32.29,1.143,8.31,-79,-4.5,-7.3,-3541,80.3,4.94,13,
25.91251983,-80.13768267,21:14.4,9/5/20,11,0.673,147.69,-7.017834287,0.82,150.9,141.41,1.24,-4.44,37.7,2.09,3.73,5.82,96,23,508.7,16.3,-1.4,D,1492.8,0,14.935,2,0.96,128,31.79,-80.137604,25.912634,0,0,6,N,0,91,89,25,121,121,232.9104,0,9999.99,3.74,3.867,2,9,33,0,33,32.29,1548.76826,9/5/20,11:58:52,31.82,49.67,32.29,1.143,8.31,-79,-4.5,-7.3,-3541,80.3,4.94,13,
25.91251717,-80.137681,21:15.5,9/5/20,11,0.697,147.69,-7.01783459,0.82,150.8,141.32,1.05,-4.75,37.7,2.08,3.72,5.8,96,23,508.7,16.3,-1.4,D,1492.8,0,15.103,2,0.96,128,30.66,-80.137604,25.912634,0,0,6,N,0,91,89,25,121,121,232.9104,0,9999.99,3.73,3.857,2,9,33,0,33,32.29,1548.76895,9/5/20,11:58:53,31.82,49.67,32.29,1.167,8.33,-80.1,-4.2,1.7,-884,80.3,4.94,12.9,
25.9125145,-80.13767933,21:16.5,9/5/20,11,0.602,147.69,-7.017835218,0.82,149.9,140.46,1.21,-4.14,37.8,2.06,3.74,5.8,96,23,508.7,16.3,-1.4,D,1492.8,0,15.276,2,0.96,128,29.55,-80.137604,25.912634,0,0,6,N,0,91,89,25,121,121,232.9104,0,9999.99,3.75,3.877,2,9,33,0,33,32.29,1548.76885,9/5/20,11:58:55,31.83,49.67,32.29,1.147,8.3,-78.3,-3.8,-6,-2453,80.3,4.94,13.1,
25.91251217,-80.13767783,21:17.5,9/5/20,11,0.55,147.69,-7.017835845,0.82,148.7,139.32,1.17,-5.02,37.7,2.05,3.73,5.78,96,22,508.7,16.3,-1.3,D,1538.3,0,15.43,2,0.96,128,28.59,-80.137604,25.912634,0,0,6,N,0,91,89,25,121,121,232.9104,0,9999.99,3.74,3.867,2,9,33,0,33,32.29,1548.76885,9/5/20,11:58:55,31.83,49.67,32.29,1.147,8.3,-78.3,-3.8,-6,-2453,80.3,4.94,13.1,
25.91250983,-80.13767683,21:18.5,9/5/20,11,0.478,147.69,-7.017836419,0.82,148.8,139.42,0.72,-4.06,37.7,2.04,3.73,5.77,96,22,508.7,16.3,-1.3,D,1538.3,0,15.611,2,0.96,128,27.82,-80.137604,25.912634,0,0,6,N,0,91,89,25,121,121,232.9104,0,9999.99,3.74,3.867,2,9,33,0,33,32.29,1548.76796,9/5/20,11:58:57,31.82,49.67,32.29,1.138,8.31,-79,-4.1,-3.9,-2264,80.3,4.94,13.1,
25.91250783,-80.1376755,21:19.5,9/5/20,11,0.434,147.69,-7.017836692,0.82,147.4,138.09,1.28,-3.91,37.6,2.08,3.74,5.82,96,22,508.7,16.3,-1.3,D,1538.3,0,15.746,2,0.96,128,27.01,-80.137604,25.912634,0,0,6,N,0,91,89,25,121,121,232.9104,0,9999.99,3.75,3.877,2,9,33,0,33,32.28,1548.75874,9/5/20,11:58:58,31.82,49.66,32.28,1.148,8.31,-78.9,-4.5,-1.4,-495,80.2,4.93,12.9,
25.91250567,-80.137674,21:20.5,9/5/20,11,0.453,147.69,-7.017837212,0.82,146.9,137.62,1.25,-5.17,37.7,2.01,3.74,5.75,96,22,508.7,16.3,-1.3,D,1538.3,0,15.895,2,0.96,128,26.13,-80.137604,25.912634,0,0,6,N,0,91,89,25,128,128,232.9104,0,9999.99,3.75,3.877,2,9,33,0,33,32.28,1548.75874,9/5/20,11:58:58,31.82,49.66,32.28,1.148,8.31,-78.9,-4.5,-1.4,-495,80.2,4.93,12.9,
25.91250383,-80.13767283,21:21.5,9/5/20,11,0.42,147.69,-7.017837809,0.82,146,136.77,1,-4.15,37.6,2.09,3.73,5.82,96,23,508.7,16.3,-1.4,D,1489.5,0,16.028,2,0.96,128,25.44,-80.137604,25.912634,0,0,6,N,0,91,89,25,137,137,232.9104,0,9999.99,3.74,3.867,2,9,33,0,33,32.29,1548.77105,9/5/20,11:58:59,31.81,49.67,32.29,1.175,8.32,-79.5,-4.5,-1.6,-3540,80.2,4.94,13,
25.912502,-80.13767167,21:22.5,9/5/20,11,0.456,147.69,-7.017838253,0.82,145.8,136.58,1.1,-4.02,37.7,2.06,3.75,5.81,96,23,508.7,16.3,-1.4,D,1489.5,0,16.163,2,0.96,128,24.75,-80.137604,25.912634,0,0,6,N,0,91,89,25,152,152,232.9104,0,9999.99,3.76,3.887,2,9,33,0,33,32.29,1548.76756,9/5/20,11:59:01,31.8,49.67,32.29,1.153,8.3,-78.5,-4.6,-6,-1326,80.2,4.94,13.1,
25.91250017,-80.137671,21:23.6,9/5/20,11,0.304,147.69,-7.017838697,0.82,144.8,135.64,1.46,-5.31,37.7,2.1,3.76,5.85,96,23,508.7,16.3,-1.4,D,1489.5,0,16.321,2,0.96,128,24.24,-80.137604,25.912634,0,0,6,N,0,91,89,25,152,152,232.9104,0,9999.99,3.77,3.897,2,9,33,0,33,32.29,1548.76756,9/5/20,11:59:01,31.8,49.67,32.29,1.153,8.3,-78.5,-4.6,-6,-1326,80.2,4.94,13.1,
25.912499,-80.13767067,21:24.6,9/5/20,11,0.407,147.69,-7.01783884,0.82,144.8,135.64,1.04,-4.46,37.6,2.07,3.77,5.84,96,22,508.7,16.3,-1.4,D,1508.5,0,16.426,2,0.96,128,23.95,-80.137604,25.912634,0,0,6,N,0,91,89,25,152,152,232.9104,0,9999.99,3.78,3.907,2,9,33,0,33,32.29,1548.7665,9/5/20,11:59:03,31.79,49.66,32.29,1.143,8.31,-78.8,-4.6,-2.3,-902,80.2,4.93,13,
25.9124975,-80.13767017,21:25.6,9/5/20,11,0.319,147.69,-7.017838876,0.82,144.1,134.98,1.16,-4.36,37.7,2.05,3.77,5.82,96,22,508.7,16.3,-1.4,D,1508.5,0,16.558,2,0.96,128,23.56,-80.137604,25.912634,0,0,6,N,0,91,89,25,151,151,232.9104,0,9999.99,3.78,3.907,2,9,33,0,33,32.29,1548.7665,9/5/20,11:59:03,31.79,49.66,32.29,1.143,8.31,-78.8,-4.6,-2.3,-902,80.2,4.93,13,
25.9124965,-80.13766983,21:26.6,9/5/20,11,0.305,147.69,-7.017838966,0.82,144.4,135.26,1.06,-4.61,37.7,2.09,3.77,5.85,96,22,508.7,16.3,-1.4,D,1508.5,0,16.647,2,0.96,129,23.3,-80.137604,25.912634,0,0,6,N,0,91,89,25,151,151,232.9104,0,9999.99,3.78,3.907,2,9,33,0,33,32.3,1548.77827,9/5/20,11:59:04,31.79,49.67,32.3,1.147,8.31,-79,-5,-1.7,-4219,80.2,4.93,13,
25.91249467,-80.13766917,21:27.6,9/5/20,11,0.358,147.69,-7.017839026,0.82,143.8,134.69,1.54,-4.01,37.7,2.02,3.77,5.79,96,22,508.7,16.3,-1.4,D,1508.5,0,16.808,2,0.96,143,22.82,-80.137604,25.912634,0,0,6,N,0,91,89,25,151,151,232.9104,0,9999.99,3.78,3.907,2,9,33,0,33,32.3,1548.7789,9/5/20,11:59:05,31.79,49.68,32.3,1.152,8.32,-79.4,-4.7,-5.6,-172,80.2,4.93,13,
25.91249317,-80.13766833,21:28.7,9/5/20,11,0.387,147.69,-7.017839169,0.82,143.2,134.13,1.2,-3.22,37.6,2.04,3.77,5.81,96,23,508.7,16.3,-1.4,D,1467.7,0,16.931,2,0.96,153,22.34,-80.137604,25.912634,0,0,6,N,0,91,89,25,151,151,232.9104,0,9999.99,3.78,3.907,2,9,33,0,33,32.31,1548.78639,9/5/20,11:59:06,31.79,49.69,32.31,1.169,8.34,-81,-4.7,-5.7,-3685,80.1,4.93,12.9,
25.9124915,-80.137667,21:29.7,9/5/20,11,0.484,147.69,-7.017839459,0.82,143.9,134.79,1.68,-2.02,37.7,2.06,3.78,5.84,96,23,508.7,16.3,-1.4,D,1467.7,0,17.052,2,0.96,163,21.69,-80.137604,25.912634,0,0,6,N,0,91,89,25,151,151,232.9104,0,9999.99,3.79,3.917,2,9,33,0,33,32.3,1548.77555,9/5/20,11:59:08,31.8,49.68,32.3,1.166,8.3,-78.3,-4.6,-3.5,-607,80.2,4.93,13,
25.91248917,-80.13766533,21:30.7,9/5/20,11,0.61,147.69,-7.017840027,0.82,144.4,135.26,1.23,-1.69,37.7,2.09,3.78,5.87,96,23,508.7,16.3,-1.4,D,1467.7,0,17.234,2,0.96,163,20.85,-80.137604,25.912634,0,0,6,N,0,91,89,25,151,151,232.9104,0,9999.99,3.79,3.917,2,9,33,0,33,32.3,1548.77555,9/5/20,11:59:08,31.8,49.68,32.3,1.166,8.3,-78.3,-4.6,-3.5,-607,80.2,4.93,13,
25.91248617,-80.13766233,21:31.7,9/5/20,11,0.929,141.35,-7.017840701,0.82,144.6,135.45,0.95,-0.68,37.6,2.08,3.79,5.87,96,31,508.6,16.3,-1.9,D,1107.6,0,17.443,2,0.96,163,19.54,-80.137604,25.912634,0,0,6,N,0,91,89,25,151,151,232.9104,0,9999.99,3.8,3.927,2,9,33,0,33,32.31,1548.79047,9/5/20,11:59:09,31.8,49.69,32.31,1.156,8.29,-77.6,-3.4,-6.4,-1007,80.2,4.93,13,
25.91248317,-80.13765883,21:32.8,9/5/20,11,1.129,138.13,-7.017842082,0.82,145.3,136.11,0.68,-1.84,37.6,2.04,3.81,5.85,96,31,508.6,16.3,-1.9,D,1107.6,0,17.646,2,0.96,163,18.11,-80.137604,25.912634,0,0,6,N,0,91,89,25,151,151,232.9104,0,9999.99,3.82,3.947,2,9,33,0,33,32.3,1548.77716,9/5/20,11:59:11,31.8,49.69,32.3,1.172,8.32,-79.6,-3.9,-2.9,-3422,80.2,4.93,13,
25.91247933,-80.13765467,21:33.8,9/5/20,11,1.185,137.93,-7.017843764,0.82,145.8,136.58,0.58,-0.65,37.7,2.09,3.82,5.92,96,31,508.6,16.3,-1.9,D,1107.6,0,17.93,2,0.96,164,16.42,-80.137604,25.912634,0,0,6,N,0,91,89,25,151,151,232.9104,0,9999.99,3.83,3.957,2,9,33,0,33,32.31,1548.79084,9/5/20,11:59:12,31.8,49.69,32.31,1.179,8.34,-80.6,-5.1,-0.4,658,80.2,4.93,13,
25.912475,-80.13764983,21:34.8,9/5/20,11,1.362,138.29,-7.01784573,0.82,146.4,137.15,0.72,0.05,37.6,2.07,3.82,5.89,96,31,508.6,16.3,-1.9,D,1107.6,0,18.265,2,0.96,175,14.54,-80.137604,25.912634,0,0,6,N,0,91,89,25,151,151,232.9104,0,9999.99,3.83,3.957,2,9,33,0,33,32.31,1548.78913,9/5/20,11:59:13,31.81,49.69,32.31,1.21,8.31,-79,-3.7,-8.4,-161,80.2,4.94,13,
25.91247033,-80.137645,21:35.9,9/5/20,11,1.41,138.91,-7.017848026,0.82,149.3,139.89,-0.03,-1.43,37.6,2.06,3.83,5.89,96,33,508.6,16.3,-2,D,1018.5,0,18.655,2,0.96,177,12.7,-80.137604,25.912634,0,0,6,N,0,91,89,25,151,151,232.9104,0,9999.99,3.83,3.957,2,9,33,0,33,32.31,1548.78823,9/5/20,11:59:14,31.81,49.69,32.31,1.183,8.3,-78.5,-4.3,-5.6,-4067,80.3,4.94,13,
25.91246517,-80.13764,21:36.9,9/5/20,11,1.566,138.29,-7.017850275,0.82,152.6,143.03,-0.01,-1.98,37.6,2.08,3.83,5.91,96,33,508.6,16.3,-2,D,1018.5,0,19.116,2,0.96,177,10.86,-80.137604,25.912634,0,0,6,N,0,91,89,25,151,151,232.9104,0,9999.99,3.83,3.957,2,9,33,0,33,32.3,1548.77712,9/5/20,11:59:15,31.81,49.69,32.3,1.214,8.28,-77.2,-5.2,-4.3,-3997,80.3,4.94,13,
25.91245917,-80.13763483,21:37.9,9/5/20,11,1.73,140.33,-7.017852555,0.82,155.8,146.09,0.32,-1.58,37.6,2.07,3.84,5.91,96,33,508.6,16.3,-2,D,1018.5,0,19.684,2,0.96,177,9.01,-80.137604,25.912634,0,0,6,N,0,91,89,25,151,151,232.9104,0,9999.99,3.84,3.967,2,9,33,0,33,32.31,1548.78785,9/5/20,11:59:16,31.81,49.69,32.31,1.228,8.31,-79.3,-4.1,-4.7,-952,80.4,4.94,13,
25.9124525,-80.13763,21:38.9,9/5/20,11,1.731,144.61,-7.017854817,0.82,159.8,149.94,-0.17,-2.55,37.6,2.08,3.85,5.93,96,39,508.6,16.3,-2.4,D,872.1,0,20.349,2,0.96,177,7.34,-80.137604,25.912634,0,0,6,N,0,91,89,25,136,136,232.9104,0,9999.99,3.85,3.977,2,9,33,0,33,32.32,1548.80012,9/5/20,11:59:17,31.81,49.71,32.32,1.213,8.32,-79.4,-4.2,-0.6,-584,80.4,4.95,13,
25.91243733,-80.13762133,21:39.9,9/5/20,11,1.927,152.47,-7.017858483,0.82,162.9,152.94,0.17,-1.48,37.6,2.06,3.85,5.91,96,39,508.6,16.3,-2.4,D,872.1,0,21.937,2,0.96,177,4.53,-80.137604,25.912634,0,0,6,N,0,91,89,25,131,131,232.9104,0,9999.99,3.85,3.977,2,9,33,0,33,32.31,1548.7879,9/5/20,11:59:18,31.82,49.7,32.31,1.256,8.34,-80.6,-3,-5.2,-3489,80.4,4.95,12.8,
25.912429,-80.1376175,21:41.0,9/5/20,11,1.956,155.15,-7.017859864,0.82,166.1,156.05,-0.56,-2.52,37.6,2.06,3.84,5.9,96,40,508.6,16.3,-2.4,D,857.2,0,21.937,2,0.96,177,4.53,-80.137604,25.912634,0,0,6,N,0,91,89,25,113,113,232.9104,0,9999.99,3.84,3.967,2,9,33,0,33,32.32,1548.7973,9/5/20,11:59:19,31.82,49.7,32.32,1.242,8.32,-79.3,-3.9,0.2,-720,80.5,4.95,13,
25.91242017,-80.13761417,21:42.0,9/5/20,11,1.99,158.08,-7.017860997,0.82,167.1,157.03,-0.15,-3.94,37.7,2.04,3.83,5.87,96,40,508.6,16.3,-2.4,D,857.2,0,22.835,2,0.96,177,3.39,-80.137604,25.912634,0,0,6,N,0,91,89,25,107,107,232.9104,0,9999.99,3.83,3.957,2,9,33,0,33,32.29,1548.76907,9/5/20,11:59:20,31.83,49.67,32.29,1.242,8.31,-78.9,-4.2,-1.3,-2140,80.6,4.96,12.9,
25.91241133,-80.13761067,21:43.0,9/5/20,11,2.096,160.25,-7.01786176,0.82,168.5,158.4,-0.66,-1.86,37.6,2.08,3.83,5.9,96,40,508.6,16.3,-2.4,D,857.2,0,24.769,2,0.96,177,1.54,-80.137604,25.912634,0,0,6,N,0,91,89,25,114,114,232.9104,0,9999.99,3.82,3.947,2,9,33,0,33,32.26,1548.73805,9/5/20,11:59:21,31.8,49.62,32.26,1.258,8.28,-77.4,-4.7,-5.6,-2952,80.7,4.96,13,
25.91240217,-80.13760733,21:44.0,9/5/20,11,2.082,161.29,-7.017862623,0.82,168.6,158.5,-0.82,-2.51,37.6,2.05,3.82,5.88,96,40,508.6,16.3,-2.4,D,857.2,0,25.781,2,0.96,177,0.74,-80.137604,25.912634,0,0,6,N,0,91,89,25,110,110,232.9104,0,9999.99,3.82,3.947,2,9,33,0,33,32.3,1548.77922,9/5/20,11:59:22,31.78,49.67,32.3,1.244,8.32,-79.3,-3.2,-4.6,-1610,80.7,4.96,12.9,
25.91239317,-80.1376045,21:45.0,9/5/20,11,1.974,163.33,-7.017863339,0.82,167.8,157.72,-0.12,-1.24,37.6,2.09,3.82,5.91,96,40,508.6,16.3,-2.4,D,852.7,0,26.78,2,0.96,177,0.11,-80.137604,25.912634,0,0,6,N,0,91,89,25,102,102,232.9104,0,9999.99,3.81,3.937,2,9,33,0,33,32.31,1548.78869,9/5/20,11:59:23,31.77,49.7,32.31,1.262,8.32,-79.3,-3.8,-5.1,-1760,80.7,4.97,13,
25.9123845,-80.1376015,21:45.9,9/5/20,10,1.875,162.33,-7.017863778,0.82,169.3,159.19,-1.81,-5.37,37.7,2.09,3.81,5.9,96,40,508.6,16.3,-2.4,D,852.7,0,27.745,2,0.96,128,359.48,-80.137604,25.912634,0,0,6,N,0,91,89,25,98,98,232.9104,0,9999.99,3.81,3.937,2,9,33,0,33,32.3,1548.78079,9/5/20,11:59:24,31.77,49.68,32.3,1.269,8.33,-79.9,-3.1,-3.2,-3200,80.7,4.97,13,
25.912377,-80.13759933,21:46.9,9/5/20,10,1.582,164.43,-7.017864363,0.82,168.2,158.11,0.48,-3.21,37.6,2.09,3.8,5.89,96,40,508.6,16.3,-2.4,D,852.7,0,28.581,2,0.96,128,359.06,-80.137604,25.912634,0,0,6,N,0,91,89,25,101,101,232.9104,0,9999.99,3.79,3.917,2,9,33,0,33,32.3,1548.77773,9/5/20,11:59:25,31.77,49.69,32.3,1.255,8.33,-80,-4.4,0.7,-1989,80.8,4.97,13,
25.91237083,-80.137597,21:48.0,9/5/20,10,1.446,162.63,-7.017864612,0.82,167.7,157.62,1.19,-5.57,37.6,2.08,3.77,5.86,96,22,508.5,16.3,-1.3,D,1528.7,0,29.271,2,0.96,128,358.63,-80.137604,25.912634,0,0,6,N,0,91,89,25,101,101,232.9104,0,9999.99,3.78,3.907,2,9,33,0,33,32.29,1548.76863,9/5/20,11:59:26,31.76,49.66,32.29,1.168,8.31,-78.9,-3.4,-6.3,-1369,80.8,4.97,12.8,
25.91236533,-80.13759567,21:49.0,9/5/20,10,1.238,162.81,-7.017865148,0.82,166.1,156.05,1.05,-2.95,37.6,2.07,3.77,5.84,96,22,508.5,16.3,-1.3,D,1528.7,0,29.271,2,0.96,128,358.63,-80.137604,25.912634,0,0,6,N,0,91,89,25,101,101,232.9104,0,9999.99,3.78,3.907,2,9,33,0,33,32.3,1548.77823,9/5/20,11:59:27,31.75,49.68,32.3,1.182,8.29,-77.8,-2.8,-5,-2864,80.9,4.98,13.1,
25.91236083,-80.137594,21:50.0,9/5/20,10,1.054,160.26,-7.017865177,0.82,164.3,154.3,1.45,-4.46,37.6,2.07,3.76,5.83,96,22,508.5,16.3,-1.3,D,1528.7,0,30.391,2,0.96,128,358.11,-80.137604,25.912634,0,0,6,N,0,91,89,25,101,101,232.9104,0,9999.99,3.77,3.897,2,9,33,0,33,32.29,1548.76842,9/5/20,11:59:28,31.74,49.67,32.29,1.175,8.31,-79.1,-4,-5.9,-879,80.9,4.98,13,
25.91235783,-80.137594,21:51.0,9/5/20,10,0.627,160.26,-7.017865547,0.82,163.8,153.81,0.94,-3.85,37.6,2.07,3.76,5.83,96,22,508.5,16.3,-1.3,D,1528.7,0,30.725,2,0.96,128,358.13,-80.137604,25.912634,0,0,6,N,0,91,89,25,101,101,232.9104,0,9999.99,3.77,3.897,2,9,33,0,33,32.3,1548.77683,9/5/20,11:59:29,31.73,49.67,32.3,1.158,8.31,-78.9,-2.6,-5.1,-1888,81,4.99,13.1,
25.912354,-80.13759267,21:52.0,9/5/20,10,0.987,161.15,-7.017865126,0.82,161.6,151.68,0.81,-4.18,37.6,2.08,3.75,5.83,96,23,508.5,16.3,-1.4,D,1497.2,0,30.725,2,0.96,128,358.13,-80.137604,25.912634,0,0,6,N,0,91,89,25,101,101,232.9104,0,9999.99,3.76,3.887,2,9,33,0,33,32.3,1548.78009,9/5/20,11:59:30,31.73,49.68,32.3,1.185,8.32,-79.5,-3.9,-4.5,-4158,80.9,4.98,12.8,
25.91235017,-80.137592,21:53.0,9/5/20,10,0.749,161.15,-7.017865389,0.82,160.8,150.9,1.27,-4.35,37.6,2.08,3.77,5.85,96,23,508.5,16.3,-1.4,D,1497.2,0,31.155,2,0.96,128,357.91,-80.137604,25.912634,0,0,6,N,0,91,89,25,101,101,232.9104,0,9999.99,3.78,3.907,2,9,33,0,33,32.3,1548.77934,9/5/20,11:59:31,31.73,49.68,32.3,1.152,8.35,-81.1,-3.7,-5,-2648,80.9,4.98,13,
25.91234717,-80.13759117,21:54.0,9/5/20,10,0.696,161.15,-7.017865251,0.82,159.3,149.46,0.82,-4.27,37.6,2.06,3.76,5.82,96,23,508.5,16.3,-1.4,D,1497.2,0,31.92,2,0.96,128,357.7,-80.137604,25.912634,0,0,6,N,0,91,89,25,101,101,232.9104,0,9999.99,3.77,3.897,2,9,33,0,33,32.3,1548.77861,9/5/20,11:59:32,31.73,49.68,32.3,1.142,8.31,-78.7,-3.6,2.7,-1398,80.9,4.98,13,
25.91234433,-80.13758983,21:55.0,9/5/20,10,0.647,161.15,-7.01786533,0.82,157.7,147.91,1.37,-3.96,37.6,2.05,3.74,5.79,96,23,508.5,16.3,-1.4,D,1472.2,0,32.241,2,0.96,128,357.48,-80.137604,25.912634,0,0,6,N,0,91,89,25,101,101,232.9104,0,9999.99,3.75,3.877,2,9,33,0,33,32.29,1548.76905,9/5/20,11:59:33,31.73,49.67,32.29,1.168,8.29,-78,-3.5,-1.7,-1892,80.9,4.98,13,
25.912342,-80.137589,21:56.0,9/5/20,10,0.465,161.15,-7.017865734,0.82,156.5,146.76,1.32,-4.48,37.7,2.08,3.78,5.86,96,22,508.5,16.3,-1.3,D,1518.6,0,32.504,2,0.96,128,357.35,-80.137604,25.912634,0,0,6,N,0,91,89,25,120,120,232.9104,0,9999.99,3.79,3.917,2,9,32.9,0,32.90000153,32.29,1548.57919,9/5/20,11:59:34,31.73,49.67,32.29,1.152,8.29,-77.6,-3.6,-3.2,-1328,80.9,4.98,13,
25.91233933,-80.1375875,21:57.0,9/5/20,10,0.599,161.15,-7.017865907,0.82,155.9,146.19,0.96,-4.34,37.6,2.06,3.78,5.84,96,22,508.5,16.3,-1.3,D,1518.6,0,32.807,2,0.96,128,357.12,-80.137604,25.912634,0,0,6,N,0,91,89,25,121,121,232.9104,0,9999.99,3.79,3.917,2,9,33,0,33,32.29,1548.76919,9/5/20,11:59:35,31.73,49.67,32.29,1.165,8.31,-78.9,-4.8,-5.3,-1819,80.9,4.99,12.9,
25.9123365,-80.13758617,21:58.1,9/5/20,10,0.592,161.15,-7.017866434,0.82,155.1,145.42,1.41,-4.37,37.7,2.09,3.77,5.86,96,22,508.5,16.3,-1.3,D,1518.6,0,33.129,2,0.96,128,356.91,-80.137604,25.912634,0,0,6,N,0,91,89,25,121,121,232.9104,0,9999.99,3.78,3.907,2,9,33,0,33,32.3,1548.78061,9/5/20,11:59:36,31.72,49.67,32.3,1.165,8.3,-78.5,-2.8,-4.4,-2261,81,4.99,13,
25.91233433,-80.137585,21:59.1,9/5/20,10,0.471,161.15,-7.017866837,0.82,154.5,144.85,1.43,-5.23,37.7,2.03,3.77,5.8,96,23,508.5,16.3,-1.4,D,1499.2,0,33.376,2,0.96,128,356.74,-80.137604,25.912634,0,0,6,N,0,91,89,25,121,121,232.9104,0,9999.99,3.78,3.907,2,9,33,0,33,32.31,1548.79114,9/5/20,11:59:37,31.73,49.69,32.31,1.142,8.3,-78.1,-3.9,-3.6,-2733,81,4.99,13,
25.9123325,-80.13758383,22:00.1,9/5/20,10,0.515,161.15,-7.017867234,0.82,154.6,144.94,0.75,-4.54,37.6,2.07,3.78,5.85,96,23,508.5,16.3,-1.4,D,1499.2,0,33.586,2,0.96,128,356.56,-80.137604,25.912634,0,0,6,N,0,91,89,25,121,121,232.9104,0,9999.99,3.79,3.917,2,9,32.9,0,32.90000153,32.3,1548.59032,9/5/20,11:59:38,31.74,49.68,32.3,1.16,8.31,-78.9,-3.9,-2.5,-2637,80.9,4.98,12.9,
25.91233083,-80.13758283,22:01.0,9/5/20,10,0.414,161.15,-7.017867678,0.82,153.9,144.27,1.36,-4.86,37.7,2.07,3.77,5.84,96,23,508.5,16.3,-1.4,D,1499.2,0,33.777,2,0.96,128,356.41,-80.137604,25.912634,0,0,6,N,0,91,89,25,121,121,232.9104,0,9999.99,3.78,3.907,2,9,33,0,33,32.3,1548.77683,9/5/20,11:59:39,31.74,49.68,32.3,1.177,8.31,-78.9,-4,-3,-2045,80.9,4.98,13,
25.91232933,-80.13758183,22:02.1,9/5/20,10,0.429,161.15,-7.017868045,0.82,154.6,144.94,1.35,-5.89,37.6,2.06,3.77,5.83,96,23,508.5,16.3,-1.4,D,1499.2,0,33.95,2,0.96,128,356.26,-80.137604,25.912634,0,0,6,N,0,91,89,25,121,121,232.9104,0,9999.99,3.78,3.907,2,9,33,0,33,32.29,1548.76836,9/5/20,11:59:40,31.74,49.67,32.29,1.135,8.32,-79.3,-3.7,-2.8,-4464,80.9,4.98,13,
25.91232767,-80.137581,22:03.1,9/5/20,10,0.396,161.15,-7.017868435,0.82,154.8,145.13,0.55,-4.44,37.7,2.09,3.78,5.87,96,22,508.4,16.3,-1.3,D,1532.8,0,34.141,2,0.96,128,356.14,-80.137604,25.912634,0,0,6,N,0,91,89,25,121,121,232.9104,0,9999.99,3.79,3.917,2,9,33,0,33,32.31,1548.78942,9/5/20,11:59:41,31.74,49.7,32.31,1.185,8.34,-81,-4.1,-2.2,-1274,80.9,4.98,13,
25.91232633,-80.13758017,22:04.1,9/5/20,10,0.341,161.15,-7.017868702,0.82,154.9,145.23,1.39,-5.16,37.7,2.05,3.77,5.82,96,22,508.4,16.3,-1.3,D,1532.8,0,34.294,2,0.96,128,356.01,-80.137604,25.912634,0,0,6,N,0,91,89,25,121,121,232.9104,0,9999.99,3.77,3.897,2,9,33,0,33,32.31,1548.78895,9/5/20,11:59:42,31.75,49.69,32.31,1.178,8.31,-78.7,-4.7,-2.7,-500,80.9,4.98,12.8,
25.912325,-80.13757917,22:05.1,9/5/20,10,0.446,161.15,-7.017869015,0.82,155.5,145.8,0.94,-5.15,37.6,2.08,3.78,5.86,96,22,508.4,16.3,-1.3,D,1532.8,0,34.449,2,0.96,128,355.87,-80.137604,25.912634,0,0,6,N,0,91,89,25,121,121,232.9104,0,9999.99,3.79,3.917,2,9,33,0,33,32.31,1548.78756,9/5/20,11:59:43,31.75,49.69,32.31,1.14,8.3,-78.2,-3.3,0.3,-1694,81,4.98,13,
25.912324,-80.13757833,22:06.1,9/5/20,10,0.391,161.15,-7.017869429,0.82,155.4,145.71,1.43,-3.35,37.7,2.05,3.77,5.82,96,23,508.4,16.3,-1.4,D,1493.9,0,34.566,2,0.96,148,355.74,-80.137604,25.912634,0,0,6,N,0,91,89,25,121,121,232.9104,0,9999.99,3.78,3.907,2,9,32.9,0,32.90000153,32.31,1548.60035,9/5/20,11:59:44,31.75,49.69,32.31,1.185,8.28,-77.1,-3.9,-2.6,-4401,81,4.98,13,
25.9123225,-80.13757733,22:07.1,9/5/20,10,0.345,161.15,-7.017869789,0.82,155.4,145.71,1.27,-4.67,37.7,2.05,3.78,5.83,96,23,508.4,16.3,-1.4,D,1493.9,0,34.74,2,0.96,152,355.6,-80.137604,25.912634,0,0,6,N,0,91,89,25,121,121,232.9104,0,9999.99,3.79,3.917,2,9,33,0,33,32.32,1548.79795,9/5/20,11:59:46,31.75,49.7,32.32,1.168,8.32,-79.4,-4.5,-3.4,-1301,80.9,4.98,12.8,
25.91232033,-80.13757633,22:08.1,9/5/20,10,0.494,161.15,-7.01787018,0.82,156,146.28,1.05,-2.8,37.7,2.06,3.78,5.84,96,24,508.4,16.3,-1.5,D,1384.4,0,34.988,2,0.96,152,355.46,-80.137604,25.912634,0,0,6,N,0,91,89,25,121,121,232.9104,0,9999.99,3.79,3.917,2,9,33,0,33,32.31,1548.78861,9/5/20,11:59:47,31.75,49.69,32.31,1.186,8.33,-80.4,-4.6,0.9,-3082,80.9,4.98,13,
25.91231733,-80.13757483,22:09.1,9/5/20,10,0.624,161.15,-7.017870476,0.82,155.7,145.99,0.75,-3.89,37.7,2.08,3.78,5.86,96,24,508.4,16.3,-1.5,D,1384.4,0,35.333,2,0.96,152,355.26,-80.137604,25.912634,0,0,6,N,0,91,89,25,121,121,232.9104,0,9999.99,3.79,3.917,2,9,33,0,33,32.31,1548.78861,9/5/20,11:59:47,31.75,49.69,32.31,1.186,8.33,-80.4,-4.6,0.9,-3082,80.9,4.98,13,
25.91231433,-80.137573,22:10.2,9/5/20,10,0.774,159.09,-7.017870956,0.82,153.8,144.18,2.41,-2.47,37.7,2.07,3.77,5.85,96,26,508.4,16.3,-1.5,D,1324.6,0,35.68,2,0.96,170,355.01,-80.137604,25.912634,0,0,6,N,0,91,89,25,121,121,232.9104,0,9999.99,3.78,3.907,2,9,33,0,33,32.32,1548.7983,9/5/20,11:59:49,31.76,49.7,32.32,1.164,8.3,-78.6,-5.3,-3.7,-183,80.9,4.98,13,
25.91231017,-80.13757083,22:11.3,9/5/20,10,1.099,154.76,-7.017871637,0.82,154.9,145.23,1.12,-1.34,37.6,2.07,3.77,5.84,96,26,508.4,16.3,-1.5,D,1324.6,0,36.161,2,0.96,170,354.74,-80.137604,25.912634,0,0,6,N,0,91,89,25,121,121,232.9104,0,9999.99,3.79,3.917,2,9,33,0,33,32.32,1548.7983,9/5/20,11:59:49,31.76,49.7,32.32,1.164,8.3,-78.6,-5.3,-3.7,-183,80.9,4.98,13,
25.91230467,-80.13756717,22:12.3,9/5/20,10,1.291,150.31,-7.017872354,0.82,155.5,145.8,0.49,-1.74,37.6,2.05,3.78,5.83,96,26,508.4,16.3,-1.5,D,1324.6,0,36.805,2,0.96,170,354.26,-80.137604,25.912634,0,0,6,N,0,91,89,25,121,121,232.9104,0,9999.99,3.79,3.917,2,9,33,0,33,32.31,1548.78955,9/5/20,11:59:50,31.77,49.7,32.31,1.245,8.27,-76.8,-4.5,-2.3,-3140,80.9,4.98,12.8,
25.91229867,-80.13756333,22:13.3,9/5/20,10,1.43,150.09,-7.017873785,0.82,155.1,145.42,0.1,-0.96,37.6,2.07,3.78,5.85,96,36,508.4,16.3,-2.2,D,944.9,0,37.509,2,0.96,170,353.77,-80.137604,25.912634,0,0,6,N,0,91,89,25,121,121,232.9104,0,9999.99,3.79,3.917,2,9,33,0,33,32.32,1548.79783,9/5/20,11:59:52,31.78,49.7,32.32,1.243,8.31,-79.2,-3.5,-3.1,-4527,80.9,4.98,13,
25.91229267,-80.1375595,22:14.3,9/5/20,10,1.541,150.52,-7.017875246,0.82,156,146.28,0.27,-2.19,37.6,2.06,3.79,5.85,96,36,508.4,16.3,-2.2,D,944.9,0,38.215,2,0.96,170,353.31,-80.137604,25.912634,0,0,6,N,0,91,89,25,121,121,232.9104,0,9999.99,3.79,3.917,2,9,33,0,33,32.32,1548.79783,9/5/20,11:59:52,31.78,49.7,32.32,1.243,8.31,-79.2,-3.5,-3.1,-4527,80.9,4.98,13,
25.91228617,-80.13755567,22:15.4,9/5/20,10,1.636,152.79,-7.017876707,0.82,156.8,147.05,0.11,-1.94,37.6,2.05,3.77,5.82,96,36,508.4,16.3,-2.2,D,944.9,0,38.979,2,0.96,170,352.88,-80.137604,25.912634,0,0,6,N,0,91,89,25,121,121,232.9104,0,9999.99,3.77,3.897,2,9,33,0,33,32.32,1548.79842,9/5/20,11:59:53,31.78,49.71,32.32,1.235,8.33,-80.1,-3.4,0,-152,80.9,4.98,13,
25.91227967,-80.1375515,22:16.4,9/5/20,10,1.64,151.69,-7.017878098,0.82,157.5,147.72,0.18,-0.99,37.6,2.06,3.77,5.83,96,36,508.4,16.3,-2.2,D,944.9,0,39.749,2,0.96,170,352.41,-80.137604,25.912634,0,0,6,N,0,91,89,25,121,121,232.9104,0,9999.99,3.77,3.897,2,9,33,0,33,32.33,1548.80746,9/5/20,11:59:55,31.79,49.72,32.33,1.23,8.3,-78.6,-3.8,0.3,-1169,81,4.98,13,
25.91227283,-80.1375475,22:17.4,9/5/20,10,1.656,151.44,-7.017879689,0.82,158.8,148.97,-0.17,-2.07,37.6,2.05,3.78,5.83,96,35,508.3,16.3,-2.1,D,984.4,0,40.556,2,0.96,170,351.99,-80.137604,25.912634,0,0,6,N,0,91,89,25,121,121,232.9104,0,9999.99,3.78,3.907,2,9,33,0,33,32.33,1548.80746,9/5/20,11:59:55,31.79,49.72,32.33,1.23,8.3,-78.6,-3.8,0.3,-1169,81,4.98,13,
25.91226567,-80.13754367,22:18.4,9/5/20,10,1.729,154.05,-7.017881133,0.82,158.9,149.07,0.06,-1.05,37.6,2.04,3.78,5.82,96,35,508.3,16.3,-2.1,D,984.4,0,41.399,2,0.96,170,351.62,-80.137604,25.912634,0,0,6,N,0,91,89,25,121,121,232.9104,0,9999.99,3.78,3.907,2,9,32.9,0,33,32.32,1548.79602,9/5/20,11:59:56,31.79,49.71,32.32,1.244,8.29,-77.8,-5,-6.3,-1540,81,4.98,13,
25.91225867,-80.13754,22:19.4,9/5/20,10,1.707,155.33,-7.017882431,0.82,159.6,149.75,0.35,-1.06,37.6,2.03,3.78,5.81,96,35,508.3,16.3,-2.1,D,984.4,0,42.223,2,0.96,170,351.28,-80.137604,25.912634,0,0,6,N,0,91,89,25,121,121,232.9104,0,9999.99,3.78,3.907,2,9,33,0,32.90000153,32.32,1548.60902,9/5/20,11:59:58,31.79,49.71,32.32,1.255,8.31,-79.3,-3.9,-3.2,-2815,81,4.98,12.9,
25.91225117,-80.137536,22:20.5,9/5/20,10,1.762,154.94,-7.017883651,0.82,160.9,151,0.05,-1.32,37.6,2.07,3.79,5.86,96,34,508.3,16.3,-2.1,D,1004.9,0,43.109,2,0.96,128,350.92,-80.137604,25.912634,0,0,6,N,0,91,89,25,121,121,232.9104,0,9999.99,3.79,3.917,2,9,33,0,32.90000153,32.32,1548.60902,9/5/20,11:59:58,31.79,49.71,32.32,1.255,8.31,-79.3,-3.9,-3.2,-2815,81,4.98,12.9,
25.91224417,-80.13753217,22:21.5,9/5/20,10,1.612,154,-7.017885002,0.82,160,150.13,0.29,-5.78,37.6,2.05,3.67,5.72,96,34,508.3,16.3,-2.1,D,1004.9,0,43.939,2,0.96,128,350.59,-80.137604,25.912634,0,0,6,N,0,91,89,25,121,121,232.9104,0,9999.99,3.67,3.797,2,9,33,0,33,32.33,1548.8064,9/5/20,11:59:59,31.78,49.73,32.33,1.239,8.32,-79.8,-6,-1.8,-1564,81,4.99,13,
25.91223783,-80.13752917,22:22.5,9/5/20,10,1.408,154.86,-7.017886322,0.82,160.3,150.42,1.64,-3.81,37.6,2.07,3.79,5.86,96,34,508.3,16.3,-2.1,D,1004.9,0,44.683,2,0.96,171,350.36,-80.137604,25.912634,0,0,6,N,0,91,89,25,121,121,232.9104,0,9999.99,3.8,3.927,2,9,33,0,33,32.32,1548.79823,9/5/20,12:00:01,31.78,49.71,32.32,1.163,8.31,-78.8,-5.2,-1.1,-2456,81,4.99,13,
25.91223267,-80.137527,22:23.5,9/5/20,10,1.161,157.73,-7.017887236,0.82,159.3,149.46,2.15,1.86,37.5,2.05,3.78,5.84,96,34,508.3,16.3,-2.1,D,1004.9,0,45.286,2,0.96,171,350.21,-80.137604,25.912634,0,0,6,N,0,91,89,25,121,121,232.9104,0,9999.99,3.8,3.927,2,9,33,0,33,32.32,1548.79823,9/5/20,12:00:01,31.78,49.71,32.32,1.163,8.31,-78.8,-5.2,-1.1,-2456,81,4.99,13,
25.91222683,-80.13752417,22:24.5,9/5/20,10,1.495,155.06,-7.017887812,0.82,158,148.2,0.51,0.15,37.5,2.05,3.78,5.83,96,30,508.3,16.3,-1.8,D,1116.7,0,45.974,2,0.96,171,350,-80.137604,25.912634,0,0,6,N,0,91,89,25,121,121,232.9104,0,9999.99,3.79,3.917,2,9,32.9,0,33,32.32,1548.79934,9/5/20,12:00:02,31.77,49.71,32.32,1.159,8.3,-78.2,-4.9,0.7,-2833,81.1,4.99,12.9,
25.91222,-80.13751967,22:25.5,9/5/20,10,1.724,153.41,-7.017888696,0.82,158.1,148.3,0.39,-1.64,37.5,2.05,3.8,5.85,96,30,508.3,16.3,-1.8,D,1116.7,0,46.801,2,0.96,171,349.62,-80.137604,25.912634,0,0,6,N,0,91,89,25,121,121,232.9104,0,9999.99,3.8,3.927,2,9,32.9,0,32.90000153,32.33,1548.61977,9/5/20,12:00:04,31.76,49.72,32.33,1.238,8.31,-79.2,-4.6,-6.3,-3205,81.1,4.99,12.9,
25.91221383,-80.13751633,22:26.5,9/5/20,10,1.663,153.14,-7.017890441,0.82,159.4,149.55,-0.06,-1.11,37.5,2.02,3.8,5.82,96,30,508.3,16.3,-1.8,D,1116.7,0,47.536,2,0.96,171,349.37,-80.137604,25.912634,0,0,6,N,0,91,89,25,121,121,232.9104,0,9999.99,3.8,3.927,2,9,32.9,0,32.90000153,32.33,1548.61977,9/5/20,12:00:04,31.76,49.72,32.33,1.238,8.31,-79.2,-4.6,-6.3,-3205,81.1,4.99,12.9,
25.91220717,-80.13751283,22:27.5,9/5/20,10,1.749,154.4,-7.017891578,0.82,159.3,149.46,0.3,-0.99,37.5,2.08,3.78,5.86,96,34,508.3,16.3,-2.1,D,990.6,0,48.33,2,0.96,171,349.13,-80.137604,25.912634,0,0,6,N,0,91,89,25,121,121,232.9104,0,9999.99,3.78,3.907,2,9,32.9,0,32.90000153,32.32,1548.60905,9/5/20,12:00:05,31.76,49.71,32.32,1.236,8.32,-79.6,-4.4,-2.2,-3558,81.1,4.99,12.9,
25.9122005,-80.137509,22:28.5,9/5/20,10,1.746,155.09,-7.017892745,0.82,160.3,150.42,0.44,-1.49,37.5,2.03,3.79,5.82,96,34,508.3,16.3,-2.1,D,990.6,0,49.131,2,0.96,171,348.85,-80.137604,25.912634,0,0,6,N,0,91,89,25,121,121,232.9104,0,9999.99,3.79,3.917,2,9,32.9,0,32.90000153,32.33,1548.61903,9/5/20,12:00:06,31.75,49.72,32.33,1.241,8.34,-80.8,-3.7,-5.6,-1529,81,4.99,12.8,
25.912193,-80.13750483,22:29.5,9/5/20,10,1.754,155.89,-7.017894112,0.82,161.7,151.78,-0.13,-1.3,37.5,2.07,3.78,5.85,96,34,508.3,16.3,-2.1,D,990.6,0,50.03,2,0.96,171,348.57,-80.137604,25.912634,0,0,6,N,0,91,89,25,121,121,232.9104,0,9999.99,3.78,3.907,2,9,32.9,0,32.90000153,32.34,1548.62792,9/5/20,12:00:08,31.75,49.73,32.34,1.22,8.3,-78.4,-4.5,-4.2,-4159,81,4.99,13.1,
25.9121855,-80.1375005,22:30.5,9/5/20,10,1.747,154.94,-7.017895563,0.82,160.7,150.81,0.19,-0.63,37.5,2.06,3.79,5.85,96,34,508.3,16.3,-2.1,D,990.6,0,50.934,2,0.96,171,348.27,-80.137604,25.912634,0,0,6,N,0,91,89,25,121,121,232.9104,0,9999.99,3.79,3.917,2,9,32.9,0,32.90000153,32.34,1548.62792,9/5/20,12:00:08,31.75,49.73,32.34,1.22,8.3,-78.4,-4.5,-4.2,-4159,81,4.99,13.1,
