Latitude,Longitude,Time,Date,Number of Sats,GPS Speed (Kn),GPS True Heading,GPS Magnetic Variation,HDOP,C Magnetic Heading,C True Heading,Pitch Angle,Roll Angle,C Inside Temp (c),DFS Depth (m),DTB Height (m),Total Water Column (m),Batt Percent,Power Watts,Watt-Hours,Batt Volts,Batt Ampers,Batt State,Time to Empty,Current Step,Dist To Next (m),Next Speed (kn),Vehicle Speed (kn),Motor Speed CMD,Next Heading,Next Long,Next Lat,Next Depth (m),Depth Goal (m),Vehicle State,Error State,Distance to Track (m),Fin Pitch R,Fin Pitch L,Pitch Goal,Fin Yaw T,Fin Yaw B,Yaw Goal,Fin Roll,DVL-Depth (m),DVL -Altitude (m),DVL -Water Column (m),DVL-FixType,DVL-FixQuality,DVL-Temperature,Conductivity (mmhos/cm),Temperature (c),Salinity (ppt),Sound Speed (m/s),Date m/d/y   ,Time hh:mm:ss,Temp C,SpCond mS/cm,Sal ppt,Depth feet,pH,pH mV,Turbid+ NTU,Chl ug/L,BGA-PC cells/mL,ODOsat %,ODO mg/L,Battery volts,ROSEM Command Type
25.91276133,-80.13783,05:13.3,8/20/20,8,0.093,89.23,-7.013501905,1.16,128.4,120.32,1.23,-4.09,32.5,2.11,3.16,5.27,94,22,508.8,16.2,-1.3,D,1543.2,0,39.67,2,2,128,222.9,-80.1381,25.9125,0,0,0,N,0,88,92,11,120,120,223.0726,0,9999.99,3.17,3.297,2,9,30.9,0,30.89999962,32.45,1544.83081,8/20/20,10:43:07,30.6,49.82,32.45,0.96,8.38,-83.1,-2.7,-2.6,-2253,84.4,5.29,12.9,
25.912759,-80.13783217,05:14.3,8/20/20,8,0.279,89.23,-7.013501428,1.16,128.2,120.14,1.11,-4.86,32.5,2.11,3.17,5.28,94,22,508.8,16.2,-1.3,D,1543.2,0,39.332,2,2,128,222.93,-80.1381,25.9125,0,0,0,N,0,88,92,11,120,120,223.0726,0,9999.99,3.18,3.307,2,9,30.9,0,30.89999962,32.42,1544.79924,8/20/20,10:43:08,30.6,49.79,32.42,0.907,8.42,-85.5,-3,1.1,-2551,84,5.26,13,
25.91275767,-80.13783167,05:15.3,8/20/20,9,0.129,89.23,-7.013499797,1.16,129.2,121.06,1.22,-4.25,32.5,2.1,3.18,5.28,94,21,508.8,16.2,-1.3,D,1567.1,0,39.258,2,2,128,223.13,-80.1381,25.9125,0,0,0,N,0,88,92,11,120,120,223.0726,0,9999.99,3.19,3.317,2,9,30.9,0,30.89999962,32.44,1544.81927,8/20/20,10:43:10,30.6,49.81,32.44,0.934,8.39,-83.3,-2,-5.6,-866,83.3,5.22,13,
25.91275783,-80.13783133,05:16.3,8/20/20,8,0.071,89.23,-7.01349991,1.16,129.4,121.25,1.13,-4.4,32.5,2.11,3.2,5.31,94,21,508.8,16.2,-1.3,D,1567.1,0,39.294,2,2,128,223.14,-80.1381,25.9125,0,0,0,N,0,88,92,11,120,120,223.0726,0,9999.99,3.21,3.337,2,9,30.9,0,30.89999962,32.44,1544.81927,8/20/20,10:43:10,30.6,49.81,32.44,0.934,8.39,-83.3,-2,-5.6,-866,83.3,5.22,13,
25.912758,-80.13783067,05:17.3,8/20/20,8,0.183,89.23,-7.013500134,1.16,129.7,121.53,1.17,-5.06,32.5,2.09,3.22,5.31,94,21,508.8,16.2,-1.3,D,1567.1,0,39.353,2,2,128,223.2,-80.1381,25.9125,0,0,0,N,0,88,92,11,120,120,223.0726,0,9999.99,3.23,3.357,2,9,30.9,0,30.89999962,32.42,1544.7991,8/20/20,10:43:12,30.6,49.79,32.42,0.926,8.44,-86.6,-3.3,-1.9,1087,82.7,5.18,13,
25.91275683,-80.13783033,05:18.3,8/20/20,8,0.141,89.23,-7.013500558,1.16,129.6,121.44,0.9,-3.26,32.5,2.11,3.24,5.35,94,21,508.8,16.2,-1.3,D,1567.1,0,39.282,2,2,128,223.36,-80.1381,25.9125,0,0,0,N,0,88,92,11,120,120,223.0726,0,9999.99,3.25,3.377,2,9,30.9,0,30.89999962,32.42,1544.7991,8/20/20,10:43:12,30.6,49.79,32.42,0.926,8.44,-86.6,-3.3,-1.9,1087,82.7,5.18,13,
25.9127565,-80.13783,05:19.3,8/20/20,8,0.081,89.23,-7.013500595,1.16,130.6,122.36,1.37,-5.36,32.5,2.09,3.24,5.34,94,21,508.8,16.2,-1.3,D,1567.1,0,39.278,2,2,128,223.43,-80.1381,25.9125,0,0,0,N,0,88,92,11,120,120,223.0726,0,9999.99,3.25,3.377,2,9,30.9,0,30.89999962,32.42,1544.79924,8/20/20,10:43:13,30.61,49.79,32.42,0.921,8.41,-84.4,-2.6,-0.7,-1904,82.4,5.16,12.9,
25.91275667,-80.13782933,05:20.3,8/20/20,8,0.177,89.23,-7.013500748,1.16,131.1,122.83,1.13,-4.24,32.5,2.13,3.26,5.39,94,21,508.8,16.2,-1.3,D,1567.1,0,39.337,2,2,128,223.49,-80.1381,25.9125,0,0,0,N,0,88,92,11,120,120,223.0726,0,9999.99,3.27,3.397,2,9,30.9,0,30.89999962,32.44,1544.81871,8/20/20,10:43:15,30.6,49.82,32.44,0.925,8.36,-81.7,-2.3,-1.5,-2102,81.9,5.13,13,
25.91275667,-80.13782833,05:21.3,8/20/20,8,0.204,89.23,-7.013501172,1.16,130.7,122.46,1.24,-3.99,32.5,2.08,3.26,5.34,94,21,508.8,16.2,-1.3,D,1567.1,0,39.406,2,2,128,223.59,-80.1381,25.9125,0,0,0,N,0,88,92,11,120,120,223.0726,0,9999.99,3.27,3.397,2,9,30.9,0,30.89999962,32.44,1544.81871,8/20/20,10:43:15,30.6,49.82,32.44,0.925,8.36,-81.7,-2.3,-1.5,-2102,81.9,5.13,13,
25.912755,-80.137828,05:22.7,8/20/20,8,0.123,89.23,-7.013501774,1.16,131.8,123.48,1.22,-4.57,32.5,2.13,3.28,5.41,94,22,508.8,16.2,-1.3,D,1526.3,0,39.295,2,2,128,223.81,-80.1381,25.9125,0,0,0,N,0,88,92,11,120,120,223.0726,0,9999.99,3.29,3.417,2,9,30.9,0,30.89999962,32.43,1544.80782,8/20/20,10:43:17,30.6,49.8,32.43,0.934,8.43,-85.9,-3.4,-3.4,-3160,81.5,5.11,12.9,
25.9127545,-80.13782767,05:23.7,8/20/20,8,0.082,89.23,-7.01350174,1.16,131.5,123.2,1.01,-4.08,32.5,2.11,3.29,5.4,94,22,508.8,16.2,-1.3,D,1526.3,0,39.278,2,2,128,223.91,-80.1381,25.9125,0,0,0,N,0,88,92,11,120,120,223.0726,0,9999.99,3.3,3.427,2,9,30.9,0,30.89999962,32.43,1544.80835,8/20/20,10:43:18,30.6,49.8,32.43,0.934,8.38,-83,-3.6,-2.1,-3949,81.3,5.09,13,
25.9127545,-80.137827,05:25.5,8/20/20,8,0.077,89.23,-7.013501976,1.33,132.2,123.85,1.04,-4.47,32.5,2.09,3.3,5.39,94,21,508.8,16.2,-1.3,D,1575.1,0,39.278,2,2,128,223.91,-80.1381,25.9125,0,0,0,N,0,88,92,11,120,120,223.0726,0,9999.99,3.31,3.437,2,9,30.9,0,30.89999962,32.41,1544.78684,8/20/20,10:43:20,30.61,49.78,32.41,0.926,8.36,-81.7,-4.2,-1.1,-1796,80.9,5.07,13.1,
25.9127555,-80.13782683,05:28.2,8/20/20,10,0.083,89.23,-7.013502347,0.99,133.9,125.43,1.29,-4.3,32.5,2.13,3.31,5.44,94,21,508.8,16.2,-1.3,D,1568,0,39.278,2,2,128,223.91,-80.1381,25.9125,0,0,0,N,0,88,92,11,120,120,223.0726,0,9999.99,3.32,3.447,2,9,30.9,0,30.89999962,32.42,1544.79802,8/20/20,10:43:22,30.61,49.79,32.42,0.942,8.36,-81.9,-2.4,-0.7,-141,80.6,5.05,13.1,
25.9127565,-80.13782633,05:29.9,8/20/20,10,0.079,89.23,-7.013502511,0.96,134.2,125.71,1.14,-4.02,32.5,2.11,3.34,5.45,94,22,508.7,16.2,-1.4,D,1502.4,0,39.278,2,2,128,223.91,-80.1381,25.9125,0,0,0,N,0,88,92,11,120,120,223.0726,0,9999.99,3.35,3.477,2,9,30.9,0,30.89999962,32.44,1544.81982,8/20/20,10:43:24,30.61,49.81,32.44,0.924,8.41,-84.6,-3.3,-4.2,231,80.3,5.03,13.1,
25.91275633,-80.13782467,05:31.7,8/20/20,10,0.135,89.23,-7.0135034,0.96,135.6,127.02,1.14,-5.06,32.5,2.08,3.35,5.43,94,22,508.7,16.2,-1.4,D,1512.1,0,39.278,2,2,128,223.91,-80.1381,25.9125,0,0,0,N,0,88,92,11,120,120,223.0726,0,9999.99,3.36,3.487,2,9,30.9,0,30.89999962,32.43,1544.80912,8/20/20,10:43:26,30.61,49.8,32.43,0.936,8.36,-81.9,-3,-1,-3021,80,5.01,13.1,
25.91275617,-80.13782383,05:33.7,8/20/20,10,0.102,89.23,-7.013504379,0.96,136.5,127.86,0.75,-4.46,32.5,2.12,3.35,5.48,94,22,508.7,16.2,-1.4,D,1509.8,0,39.278,2,2,128,223.91,-80.1381,25.9125,0,0,0,N,0,88,92,11,120,120,223.0726,0,9999.99,3.36,3.487,2,9,30.9,0,30.89999962,32.43,1544.80687,8/20/20,10:43:28,30.62,49.8,32.43,0.95,8.41,-84.6,-2.9,-5.5,-2039,79.8,5,13.1,
25.91275383,-80.13782283,05:35.7,8/20/20,10,0.174,89.23,-7.013504392,0.96,136.8,128.14,1.56,-3.43,32.5,2.11,3.36,5.46,94,22,508.7,16.2,-1.3,D,1531.7,0,39.278,2,2,128,223.91,-80.1381,25.9125,0,0,0,N,0,88,92,11,120,120,223.0726,0,9999.99,3.37,3.497,2,9,30.9,0,30.89999962,32.44,1544.81897,8/20/20,10:43:30,30.62,49.81,32.44,0.906,8.36,-81.8,-2.3,0,1224,79.5,4.98,13.1,
25.91275367,-80.13782233,05:36.7,8/20/20,9,0.113,89.23,-7.013504682,1,137.4,128.7,0.68,-5.08,32.6,2.11,3.36,5.47,94,22,508.7,16.2,-1.3,D,1531.7,0,39.584,2,2,128,224.55,-80.1381,25.9125,0,0,0,N,0,88,92,11,120,120,223.0726,0,9999.99,3.37,3.497,2,9,30.9,0,30.89999962,32.44,1544.81897,8/20/20,10:43:30,30.62,49.81,32.44,0.906,8.36,-81.8,-2.3,0,1224,79.5,4.98,13.1,
25.91275317,-80.13782217,05:38.6,8/20/20,9,0.049,89.23,-7.013504935,1,138.4,129.63,1.57,-4.26,32.5,2.13,3.37,5.5,94,22,508.7,16.2,-1.3,D,1531.6,0,39.584,2,2,128,224.55,-80.1381,25.9125,0,0,0,N,0,88,92,11,120,120,223.0726,0,9999.99,3.38,3.507,2,9,30.9,0,30.89999962,32.43,1544.80988,8/20/20,10:43:33,30.62,49.81,32.43,0.934,8.39,-83.2,-2.7,-2.5,-1743,79.2,4.96,12.9,
25.91275283,-80.13782167,05:41.1,8/20/20,9,0.059,89.23,-7.013505142,1,140,131.13,1.5,-4.54,32.5,2.11,3.36,5.47,94,22,508.7,16.2,-1.3,D,1548.4,0,39.584,2,2,128,224.55,-80.1381,25.9125,0,0,0,N,0,88,92,11,120,120,223.0726,0,9999.99,3.37,3.497,2,9,30.9,0,30.89999962,32.44,1544.8194,8/20/20,10:43:35,30.62,49.82,32.44,0.917,8.38,-82.7,-3.6,-2.7,-2166,79,4.95,12.9,
25.91275333,-80.13782167,05:42.9,8/20/20,10,0.09,89.23,-7.013505242,1,140.6,131.69,0.89,-4.69,32.5,2.12,3.37,5.49,94,22,508.7,16.2,-1.3,D,1554,0,39.584,2,2,128,224.55,-80.1381,25.9125,0,0,0,N,0,88,92,11,120,120,223.0726,0,9999.99,3.38,3.507,2,9,30.9,0,30.89999962,32.44,1544.81994,8/20/20,10:43:37,30.63,49.82,32.44,0.929,8.38,-83,-2.9,-4.3,-1658,78.8,4.94,12.9,
25.91275283,-80.13782167,05:45.0,8/20/20,10,0.064,89.23,-7.013505319,0.96,141.9,132.91,0.75,-4.43,32.5,2.14,3.37,5.51,94,22,508.7,16.2,-1.4,D,1503.2,0,39.584,2,2,128,224.55,-80.1381,25.9125,0,0,0,N,0,88,92,11,120,120,223.0726,0,9999.99,3.38,3.507,2,9,31,0,30.89999962,32.44,1544.82169,8/20/20,10:43:39,30.63,49.82,32.44,0.925,8.38,-82.7,-2.7,-3.5,-999,78.6,4.92,13,
25.91275317,-80.1378215,05:46.0,8/20/20,10,0.172,89.23,-7.013505242,0.96,142.6,133.57,1.12,-4.5,32.6,2.09,3.36,5.45,94,22,508.7,16.2,-1.4,D,1503.2,0,39.602,2,2,128,224.7,-80.1381,25.9125,0,0,0,N,0,88,92,11,120,120,223.0726,0,9999.99,3.37,3.497,2,9,30.9,0,30.89999962,32.42,1544.79699,8/20/20,10:43:40,30.63,49.79,32.42,0.984,8.43,-85.9,-2.4,-3.6,-2784,78.6,4.92,13.2,
25.91275383,-80.1378215,05:47.1,8/20/20,10,0.022,89.23,-7.013505389,0.96,143.3,134.23,2.01,-4.32,32.6,2.14,3.37,5.51,94,22,508.7,16.2,-1.4,D,1503.2,0,39.655,2,2,128,224.62,-80.1381,25.9125,0,0,0,N,0,88,92,11,120,120,223.0726,0,9999.99,3.38,3.507,2,9,30.9,0,30.89999962,32.44,1544.81888,8/20/20,10:43:41,30.63,49.81,32.44,0.946,8.38,-82.9,-3.3,-3.1,-600,78.5,4.92,12.8,
25.9127545,-80.13782183,05:48.1,8/20/20,10,0.058,89.23,-7.013505483,0.96,143.6,134.51,1.28,-4.1,32.6,2.13,3.38,5.5,94,22,508.7,16.2,-1.3,D,1556.2,0,39.685,2,2,128,224.51,-80.1381,25.9125,0,0,0,N,0,88,92,11,120,120,223.0726,0,9999.99,3.39,3.517,2,9,31,0,30.89999962,32.43,1544.80938,8/20/20,10:43:42,30.63,49.81,32.43,0.919,8.41,-84.9,-3.4,0.7,-1383,78.5,4.91,13.1,
25.912755,-80.13782167,05:49.1,8/20/20,10,0.107,89.23,-7.013505377,0.96,144.7,135.55,0.96,-4.29,32.6,2.12,3.37,5.49,94,22,508.7,16.2,-1.3,D,1556.2,0,39.736,2,2,128,224.47,-80.1381,25.9125,0,0,0,N,0,88,92,11,120,120,223.0726,0,9999.99,3.38,3.507,2,9,30.9,0,30.89999962,32.43,1544.80826,8/20/20,10:43:43,30.63,49.8,32.43,0.915,8.36,-82,-3.7,-2.8,-1345,78.4,4.91,13.1,
25.912755,-80.13782167,05:50.1,8/20/20,10,0.017,89.23,-7.013505547,0.96,145.9,136.68,1.58,-4.38,32.6,2.11,3.37,5.48,94,22,508.7,16.2,-1.3,D,1556.2,0,39.736,2,2,129,224.47,-80.1381,25.9125,0,0,0,N,0,88,92,11,120,120,223.0726,0,9999.99,3.38,3.507,2,9,31,0,31,32.43,1545.01204,8/20/20,10:43:44,30.63,49.81,32.43,0.939,8.43,-85.7,-3.3,-3.3,483,78.3,4.9,13,
25.912756,-80.13782283,05:51.1,8/20/20,10,0.266,89.23,-7.013505547,0.96,145.9,136.68,0.99,-4.05,32.6,2.13,3.37,5.5,94,22,508.6,16.2,-1.3,D,1525.9,0,39.734,2,2,130,224.24,-80.1381,25.9125,0,0,0,N,0,88,92,11,120,120,223.0726,0,9999.99,3.39,3.517,2,9,30.9,0,31,32.44,1545.0222,8/20/20,10:43:45,30.63,49.82,32.44,0.928,8.36,-81.7,-3,2.4,1496,78.2,4.9,12.9,
25.9127575,-80.1378235,05:52.1,8/20/20,10,0.182,89.23,-7.013504986,0.96,146.5,137.24,0.81,-4.31,32.6,2.12,3.38,5.5,94,22,508.6,16.2,-1.3,D,1525.9,0,39.807,2,2,131,224,-80.1381,25.9125,0,0,0,N,0,88,92,11,120,120,223.0726,0,9999.99,3.39,3.517,2,9,31,0,31,32.42,1545.00096,8/20/20,10:43:46,30.63,49.79,32.42,0.937,8.44,-86.3,-4.7,1.1,-2446,78.2,4.9,13.1,
25.912761,-80.13782483,05:53.1,8/20/20,10,0.199,89.23,-7.013504677,0.96,147.2,137.91,1.38,-4,32.6,2.11,3.37,5.48,94,22,508.6,16.2,-1.3,D,1525.9,0,39.921,2,2,133,223.71,-80.1381,25.9125,0,0,0,N,0,88,92,11,120,120,223.0726,0,9999.99,3.38,3.507,2,9,31,0,31,32.42,1545.00266,8/20/20,10:43:47,30.63,49.79,32.42,0.97,8.42,-85.1,-2.9,-0.5,-240,78.1,4.89,13,
25.912762,-80.137825,05:54.2,8/20/20,10,0.136,89.23,-7.013504487,0.96,148,138.66,1.65,-4.54,32.6,2.13,3.38,5.5,94,22,508.6,16.2,-1.3,D,1525.9,0,39.996,2,2,134,223.48,-80.1381,25.9125,0,0,0,N,0,88,92,11,120,120,223.0726,0,9999.99,3.39,3.517,2,9,31,0,31,32.43,1545.01098,8/20/20,10:43:48,30.64,49.8,32.43,0.964,8.38,-83.1,-2.5,-3.1,-2947,78.1,4.89,13.1,
25.91276267,-80.137825,05:55.2,8/20/20,9,0.087,89.23,-7.013504527,1,149.2,139.8,0.96,-4.83,32.6,2.11,3.38,5.49,94,22,508.6,16.2,-1.3,D,1531.3,0,40.066,2,2,134,223.35,-80.1381,25.9125,0,0,0,N,0,88,92,11,120,120,223.0726,0,9999.99,3.39,3.517,2,9,31,0,31,32.42,1544.9993,8/20/20,10:43:49,30.64,49.8,32.42,0.951,8.42,-85,-2.8,-4.4,-4017,78,4.89,13,
25.91276283,-80.137825,05:56.2,8/20/20,9,0.053,89.23,-7.013504621,1,149.2,139.8,1.47,-4.36,32.6,2.11,3.38,5.49,94,22,508.6,16.2,-1.3,D,1561.8,0,40.133,2,2,134,223.26,-80.1381,25.9125,0,0,0,N,0,88,92,11,120,120,223.0726,0,9999.99,3.39,3.517,2,9,31,0,31,32.44,1545.02113,8/20/20,10:43:51,30.63,49.81,32.44,0.962,8.42,-85.4,-3.3,-2,-2031,77.9,4.88,13,
25.912763,-80.137825,05:57.2,8/20/20,9,0.09,89.23,-7.013504645,1,150.1,140.66,1.34,-3.58,32.6,2.14,3.39,5.53,94,22,508.6,16.2,-1.3,D,1561.8,0,40.146,2,2,138,223.24,-80.1381,25.9125,0,0,0,N,0,88,92,11,120,120,223.0726,0,9999.99,3.4,3.527,2,9,31,0,31,32.43,1545.01052,8/20/20,10:43:52,30.63,49.81,32.43,0.939,8.38,-82.7,-2.7,-3.6,-1845,77.8,4.87,13,
25.91276267,-80.13782467,05:58.3,8/20/20,9,0.102,89.23,-7.013504668,1,151.1,141.61,1,-4.53,32.5,2.1,3.39,5.49,94,22,508.6,16.2,-1.3,D,1532.4,0,40.142,2,2,139,223.31,-80.1381,25.9125,0,0,0,N,0,88,92,11,120,120,223.0726,0,9999.99,3.4,3.527,2,9,31,0,31,32.43,1545.01052,8/20/20,10:43:52,30.63,49.81,32.43,0.939,8.38,-82.7,-2.7,-3.6,-1845,77.8,4.87,13,
25.912762,-80.13782483,05:59.3,8/20/20,10,0.016,89.23,-7.013504822,0.96,151.4,141.89,1.32,-4.1,32.5,2.09,3.4,5.49,94,22,508.6,16.2,-1.3,D,1532.4,0,40.077,2,2,142,223.37,-80.1381,25.9125,0,0,0,N,0,88,92,11,120,120,223.0726,0,9999.99,3.41,3.537,2,9,31,0,31,32.43,1545.0112,8/20/20,10:43:53,30.63,49.8,32.43,0.939,8.42,-85,-3.4,-2.5,213,77.8,4.87,13,
25.91276133,-80.13782483,06:00.3,8/20/20,10,0.102,89.23,-7.013504628,0.96,151.9,142.37,1.15,-3.92,32.6,2.11,3.4,5.51,94,22,508.6,16.2,-1.3,D,1532.4,0,40.023,2,2,146,223.44,-80.1381,25.9125,0,0,0,N,0,88,92,11,120,120,223.0726,0,9999.99,3.41,3.537,2,9,31,0,31,32.43,1545.01059,8/20/20,10:43:55,30.64,49.81,32.43,0.939,8.42,-85.1,-1.7,-0.4,-1170,77.7,4.87,13,
25.9127605,-80.1378245,06:01.4,8/20/20,10,0.138,89.23,-7.013504534,0.96,152.6,143.03,1.3,-3.84,32.6,2.12,3.41,5.53,94,22,508.6,16.2,-1.3,D,1532.4,0,39.979,2,2,148,223.57,-80.1381,25.9125,0,0,0,N,0,88,92,11,120,120,223.0726,0,9999.99,3.42,3.547,2,9,31,0,31,32.43,1545.01059,8/20/20,10:43:55,30.64,49.81,32.43,0.939,8.42,-85.1,-1.7,-0.4,-1170,77.7,4.87,13,
25.912759,-80.1378235,06:02.5,8/20/20,10,0.259,89.23,-7.013504617,0.96,153.1,143.51,0.94,-3.09,32.5,2.12,3.41,5.53,94,24,508.6,16.2,-1.4,D,1427.9,0,39.927,2,2,151,223.84,-80.1381,25.9125,0,0,0,N,0,88,92,11,120,120,223.0726,0,9999.99,3.42,3.547,2,9,31,0,31,32.44,1545.02128,8/20/20,10:43:56,30.63,49.81,32.44,0.952,8.38,-82.7,-2.4,-2,-1610,77.7,4.87,13,
25.91275733,-80.13782267,06:03.5,8/20/20,10,0.327,89.23,-7.013505007,0.96,152.7,143.13,1.98,-1.52,32.6,2.11,3.42,5.53,94,24,508.6,16.2,-1.4,D,1427.9,0,39.852,2,2,165,224.11,-80.1381,25.9125,0,0,0,N,0,88,92,11,120,120,223.0726,0,9999.99,3.44,3.567,2,9,31,0,31,32.43,1545.01048,8/20/20,10:43:58,30.63,49.8,32.43,0.941,8.4,-84.1,-3.5,-3.7,-3375,77.7,4.86,13.1,
25.9127555,-80.13782117,06:04.5,8/20/20,10,0.563,117.26,-7.013505274,0.96,154,144.37,1.17,-1.61,32.5,2.11,3.46,5.57,94,24,508.6,16.2,-1.4,D,1427.9,0,39.811,2,2,165,224.47,-80.1381,25.9125,0,0,0,N,0,88,92,11,120,120,223.0726,0,9999.99,3.47,3.597,2,9,31,0,31,32.43,1545.01048,8/20/20,10:43:58,30.63,49.8,32.43,0.941,8.4,-84.1,-3.5,-3.7,-3375,77.7,4.86,13.1,
25.91275183,-80.137819,06:05.5,8/20/20,10,0.912,141.85,-7.013505918,0.96,155.3,145.62,0.69,-1,32.6,2.13,3.48,5.6,94,31,508.6,16.2,-1.9,D,1079.8,0,39.674,2,2,165,225.1,-80.1381,25.9125,0,0,0,N,0,88,92,11,120,120,223.0726,0,9999.99,3.48,3.607,2,9,31,0,31,32.44,1545.01997,8/20/20,10:43:59,30.63,49.82,32.44,0.99,8.37,-82.3,-3.1,-0.4,566,77.6,4.86,13,
25.91274783,-80.137817,06:06.5,8/20/20,9,0.983,148.64,-7.013506705,1,155.5,145.81,0.55,-1.13,32.5,2.11,3.47,5.58,94,31,508.6,16.2,-1.9,D,1079.8,0,39.504,2,2,165,225.77,-80.1381,25.9125,0,0,0,N,0,88,92,11,120,120,223.0726,0,9999.99,3.47,3.597,2,9,31,0,31,32.42,1544.99978,8/20/20,10:44:01,30.63,49.79,32.42,1.015,8.37,-82.3,-3.1,-5.3,161,77.6,4.86,12.8,
25.91274367,-80.1378145,06:07.5,8/20/20,10,1.167,149.34,-7.013507345,0.96,156.1,146.38,0.43,-1.13,32.6,2.11,3.55,5.66,94,31,508.6,16.2,-1.9,D,1079.8,0,39.364,2,2,165,226.5,-80.1381,25.9125,0,0,0,N,0,88,92,11,120,120,223.0726,0,9999.99,3.56,3.687,2,9,31,0,31,32.42,1544.99978,8/20/20,10:44:01,30.63,49.79,32.42,1.015,8.37,-82.3,-3.1,-5.3,161,77.6,4.86,12.8,
25.91273833,-80.13781133,06:08.5,8/20/20,9,1.338,150.63,-7.013508262,0.99,156.5,146.77,0.67,-1.36,32.5,2.13,3.64,5.78,94,31,508.6,16.2,-1.9,D,1079.8,0,39.19,2,2,165,227.45,-80.1381,25.9125,0,0,0,N,0,88,92,11,120,120,223.0726,0,9999.99,3.65,3.777,2,9,31,0,31,32.43,1545.01023,8/20/20,10:44:02,30.63,49.81,32.43,0.966,8.36,-82,-2.8,-5.1,-1737,77.5,4.85,13,
25.91273267,-80.13780833,06:09.5,8/20/20,9,1.379,152.56,-7.013509416,0.99,157.3,147.53,-0.06,0.96,32.5,2.1,3.65,5.75,94,31,508.5,16.2,-1.9,D,1106.9,0,38.991,2,2,165,228.43,-80.1381,25.9125,0,0,0,N,0,88,92,11,120,120,223.0726,0,9999.99,3.65,3.777,2,9,31,0,31,32.44,1545.02061,8/20/20,10:44:03,30.63,49.82,32.44,0.994,8.38,-83,-2.5,-3.1,-4328,77.5,4.85,13.1,
25.91272683,-80.13780533,06:10.5,8/20/20,9,1.408,153.39,-7.013510422,0.99,156.3,146.57,0.15,-1.52,32.6,2.11,3.65,5.76,94,31,508.5,16.2,-1.9,D,1106.9,0,38.791,2,2,165,229.44,-80.1381,25.9125,0,0,0,N,0,88,92,11,120,120,223.0726,0,9999.99,3.65,3.777,2,9,31,0,31,32.43,1545.01107,8/20/20,10:44:04,30.63,49.81,32.43,0.977,8.39,-83.6,-3.3,-2.8,1283,77.4,4.85,13.2,
25.91272083,-80.13780217,06:11.5,8/20/20,9,1.413,152.87,-7.013511406,0.99,157.8,148.01,-0.05,-0.77,32.6,2.12,3.66,5.78,94,31,508.5,16.2,-1.9,D,1106.9,0,38.605,2,2,165,230.5,-80.1381,25.9125,0,0,0,N,0,88,92,11,120,120,223.0726,0,9999.99,3.66,3.787,2,9,31,0,31,32.43,1545.01182,8/20/20,10:44:05,30.63,49.81,32.43,1.013,8.39,-83.7,-3.1,-5.8,-948,77.4,4.84,12.8,
25.91271483,-80.13779867,06:12.6,8/20/20,9,1.464,151.67,-7.013512466,0.99,157.4,147.63,0.14,-0.22,32.5,2.12,3.66,5.77,94,31,508.5,16.2,-1.9,D,1102.2,0,38.457,2,2,165,231.6,-80.1381,25.9125,0,0,0,N,0,88,92,11,120,120,223.0726,0,9999.99,3.66,3.787,2,9,31,0,31,32.44,1545.01999,8/20/20,10:44:06,30.63,49.81,32.44,0.985,8.39,-83.5,-3,-4.6,-1625,77.3,4.84,13.1,
25.91270917,-80.13779533,06:13.6,8/20/20,9,1.501,152.27,-7.013513726,0.99,158,148.21,0.26,-0.64,32.5,2.12,3.66,5.79,94,31,508.5,16.2,-1.9,D,1102.2,0,38.334,2,2,128,232.65,-80.1381,25.9125,0,0,0,N,0,88,92,11,120,120,223.0726,0,9999.99,3.67,3.797,2,9,31,0,31,32.43,1545.01137,8/20/20,10:44:08,30.64,49.81,32.43,0.986,8.36,-81.7,-2.4,-1,-2635,77.2,4.83,13.1,
25.91270383,-80.13779167,06:14.6,8/20/20,9,1.365,148.38,-7.013514933,0.99,157.1,147.34,0.52,-4.8,32.6,2.12,3.68,5.8,94,31,508.5,16.2,-1.9,D,1102.2,0,38.272,2,2,128,233.69,-80.1381,25.9125,0,0,0,N,0,88,92,11,120,120,223.0726,0,9999.99,3.68,3.807,2,9,31,0,31,32.43,1545.01137,8/20/20,10:44:08,30.64,49.81,32.43,0.986,8.36,-81.7,-2.4,-1,-2635,77.2,4.83,13.1,
25.91269917,-80.13778883,06:15.6,8/20/20,9,1.093,149.78,-7.013516388,0.99,157.8,148.01,1.08,-3.46,32.6,2.12,3.68,5.8,94,31,508.5,16.2,-1.9,D,1102.2,0,38.197,2,2,128,234.56,-80.1381,25.9125,0,0,0,N,0,88,92,11,120,120,223.0726,0,9999.99,3.69,3.817,2,9,31,0,31,32.44,1545.02361,8/20/20,10:44:09,30.64,49.82,32.44,1.008,8.36,-81.6,-2.2,-8.6,-888,77.2,4.83,12.9,
25.91269517,-80.13778683,06:16.6,8/20/20,9,0.937,150.7,-7.013517435,0.99,157.3,147.53,1.08,-4.08,32.6,2.12,3.68,5.8,94,22,508.5,16.2,-1.3,D,1526.5,0,38.105,2,2,128,235.28,-80.1381,25.9125,0,0,0,N,0,89,91,11,120,120,223.0726,0,9999.99,3.69,3.817,2,9,31,0,31,32.44,1545.02267,8/20/20,10:44:10,30.64,49.82,32.44,0.959,8.38,-82.9,-2.9,-0.9,-3264,77.2,4.83,13,
25.91269117,-80.13778483,06:17.6,8/20/20,9,0.931,151.59,-7.013518075,0.99,157.9,148.11,0.88,-3.99,32.6,2.11,3.68,5.79,94,22,508.5,16.2,-1.3,D,1526.5,0,38.019,2,2,128,236.01,-80.1381,25.9125,0,0,0,N,0,100,80,11,120,120,223.0726,0,9999.99,3.69,3.817,2,9,31,0,31,32.44,1545.02267,8/20/20,10:44:12,30.64,49.81,32.44,0.972,8.39,-83.5,-1.9,-3.1,-2440,77.1,4.83,13.1,
25.91268733,-80.1377835,06:18.6,8/20/20,8,0.795,153.35,-7.013518714,1.04,157.2,147.44,1.12,-4.8,32.6,2.09,3.68,5.77,94,22,508.5,16.2,-1.3,D,1526.5,0,37.894,2,2,128,236.65,-80.1381,25.9125,0,0,0,N,0,104,76,11,120,120,223.0726,0,9999.99,3.69,3.817,2,9,31,0,31,32.44,1545.02267,8/20/20,10:44:12,30.64,49.81,32.44,0.972,8.39,-83.5,-1.9,-3.1,-2440,77.1,4.83,13.1,
25.912684,-80.137782,06:19.6,8/20/20,8,0.737,152.04,-7.013518977,1.04,157.5,147.73,0.75,-4.32,32.6,2.12,3.69,5.81,94,22,508.5,16.2,-1.3,D,1542,0,37.818,2,2,128,237.25,-80.1381,25.9125,0,0,0,N,0,117,63,11,120,120,223.0726,0,9999.99,3.7,3.827,2,9,31,0,31,32.43,1545.01245,8/20/20,10:44:13,30.64,49.81,32.43,0.955,8.39,-83.7,-2.6,-3.2,-1607,77.1,4.83,13,
25.912681,-80.13778033,06:20.6,8/20/20,8,0.677,150.68,-7.01351941,1.04,157,147.25,1.03,-5.53,32.6,2.13,3.68,5.81,94,22,508.5,16.2,-1.3,D,1542,0,37.779,2,2,128,237.81,-80.1381,25.9125,0,0,0,N,0,131,49,11,120,120,223.0726,0,9999.99,3.69,3.817,2,9,31,0,31,32.45,1545.03222,8/20/20,10:44:15,30.65,49.83,32.45,0.936,8.36,-81.8,-1.5,-4.1,-2928,77,4.82,13,
25.91267883,-80.13777917,06:21.6,8/20/20,8,0.5,150.68,-7.01351999,1.04,156.5,146.77,0.87,-4.51,32.6,2.12,3.68,5.8,94,22,508.5,16.2,-1.3,D,1542,0,37.751,2,2,128,238.21,-80.1381,25.9125,0,0,0,N,0,132,48,11,120,120,223.0726,0,9999.99,3.69,3.817,2,9,31,0,31,32.44,1545.02315,8/20/20,10:44:16,30.65,49.82,32.44,0.953,8.37,-82,-1.7,-5.7,-768,77,4.82,13.1,
25.91267633,-80.13777783,06:22.6,8/20/20,8,0.536,150.68,-7.013520387,1.04,156.9,147.15,1.29,-5.53,32.6,2.11,3.68,5.79,94,22,508.5,16.2,-1.3,D,1542,0,37.719,2,2,128,238.68,-80.1381,25.9125,0,0,0,N,0,147,33,11,120,120,223.0726,0,9999.99,3.69,3.817,2,9,31,0,31,32.44,1545.02315,8/20/20,10:44:16,30.65,49.82,32.44,0.953,8.37,-82,-1.7,-5.7,-768,77,4.82,13.1,
25.91267417,-80.1377765,06:23.6,8/20/20,8,0.521,150.68,-7.013520837,1.04,156.6,146.86,0.67,-4.98,32.6,2.13,3.69,5.82,94,22,508.5,16.2,-1.3,D,1528.6,0,37.708,2,2,128,239.1,-80.1381,25.9125,0,0,0,N,0,150,30,11,120,120,223.0726,0,9999.99,3.7,3.827,2,9,31,0,31,32.43,1545.01,8/20/20,10:44:17,30.66,49.8,32.43,0.967,8.38,-83,-2.7,-2.4,-4705,77.1,4.82,12.8,
25.912672,-80.1377755,06:24.6,8/20/20,8,0.47,150.68,-7.013521334,1.04,156.3,146.57,1.44,-4.59,32.6,2.11,3.69,5.8,94,22,508.5,16.2,-1.3,D,1528.6,0,37.671,2,2,128,239.49,-80.1381,25.9125,0,0,0,N,0,150,30,11,120,120,223.0726,0,9999.99,3.7,3.827,2,9,31,0,31,32.43,1545.01256,8/20/20,10:44:19,30.65,49.81,32.43,0.987,8.39,-83.4,-1.6,-6.1,-3738,77,4.82,13,
25.91267,-80.13777417,06:25.7,8/20/20,8,0.434,150.68,-7.01352163,1.04,155.9,146.19,1.04,-4.82,32.6,2.13,3.69,5.82,94,22,508.5,16.2,-1.3,D,1528.6,0,37.674,2,2,128,239.88,-80.1381,25.9125,0,0,0,N,0,150,30,11,120,120,223.0726,0,9999.99,3.7,3.827,2,9,31,0,31,32.43,1545.01256,8/20/20,10:44:19,30.65,49.81,32.43,0.987,8.39,-83.4,-1.6,-6.1,-3738,77,4.82,13,
25.91266817,-80.13777333,06:26.7,8/20/20,8,0.386,150.68,-7.013522151,1.04,156.7,146.96,1.24,-4.81,32.6,2.1,3.68,5.78,94,22,508.4,16.2,-1.3,D,1536.2,0,37.645,2,2,128,240.22,-80.1381,25.9125,0,0,0,N,0,140,40,11,120,120,223.0726,0,9999.99,3.69,3.817,2,9,31,0,31,32.44,1545.02201,8/20/20,10:44:20,30.65,49.82,32.44,0.94,8.39,-83.8,-2.4,-0.3,-4559,77.1,4.82,13.1,
25.91266667,-80.1377725,06:27.7,8/20/20,8,0.328,150.68,-7.013522394,1.04,156.5,146.77,1.21,-5.13,32.6,2.09,3.69,5.78,94,22,508.4,16.2,-1.3,D,1536.2,0,37.635,2,2,128,240.5,-80.1381,25.9125,0,0,0,N,0,124,56,11,120,120,223.0726,0,9999.99,3.7,3.827,2,9,31,0,31,32.44,1545.01954,8/20/20,10:44:21,30.66,49.81,32.44,0.961,8.42,-85.4,-2.9,-2.5,-2882,77.1,4.83,12.9,
25.91266533,-80.1377715,06:28.7,8/20/20,8,0.313,150.68,-7.013522684,1.04,156.8,147.05,1.11,-4.54,32.6,2.14,3.69,5.83,94,22,508.4,16.2,-1.3,D,1536.2,0,37.649,2,2,128,240.77,-80.1381,25.9125,0,0,0,N,0,108,72,11,120,120,223.0726,0,9999.99,3.7,3.827,2,9,31,0,31,32.43,1545.00928,8/20/20,10:44:23,30.66,49.8,32.43,0.938,8.37,-82.3,-1.7,-4.9,-2263,77.1,4.83,13,
25.91266383,-80.13777067,06:29.7,8/20/20,8,0.33,150.68,-7.013523098,1.04,157,147.25,1.18,-4.55,32.6,2.1,3.69,5.79,94,22,508.4,16.2,-1.3,D,1536.2,0,37.641,2,2,128,241.05,-80.1381,25.9125,0,0,0,N,0,94,86,11,120,120,223.0726,0,9999.99,3.7,3.827,2,9,31,0,31,32.44,1545.0216,8/20/20,10:44:24,30.66,49.82,32.44,0.958,8.38,-83,-1.6,-3.6,1002,77.1,4.83,13.2,
25.912663,-80.13777017,06:30.7,8/20/20,8,0.203,150.68,-7.013523388,1.04,157.4,147.63,1.02,-4.85,32.6,2.11,3.7,5.81,94,23,508.4,16.2,-1.4,D,1496,0,37.64,2,2,128,241.21,-80.1381,25.9125,0,0,0,N,0,90,90,11,120,120,223.0726,0,9999.99,3.71,3.837,2,9,31,0,31,32.44,1545.02095,8/20/20,10:44:25,30.66,49.81,32.44,0.958,8.4,-84.2,-1.8,-2.8,-1250,77.1,4.83,12.8,
25.91266233,-80.1377695,06:31.7,8/20/20,8,0.225,150.68,-7.013523571,1.04,157.9,148.11,0.76,-4.21,32.6,2.13,3.7,5.84,94,23,508.4,16.2,-1.4,D,1496,0,37.663,2,2,128,241.36,-80.1381,25.9125,0,0,0,N,0,90,90,11,120,120,223.0726,0,9999.99,3.71,3.837,2,9,31,0,31,32.43,1545.01119,8/20/20,10:44:26,30.66,49.81,32.43,0.954,8.41,-85,-3.2,-1.1,-3175,77.1,4.83,13.2,
25.91266183,-80.13776933,06:32.7,8/20/20,8,0.097,150.68,-7.013523878,1.04,157.3,147.53,1.47,-4.28,32.6,2.1,3.7,5.79,94,23,508.4,16.2,-1.4,D,1496,0,37.651,2,2,128,241.45,-80.1381,25.9125,0,0,0,N,0,90,90,11,120,120,223.0726,0,9999.99,3.71,3.837,2,9,31,0,31,32.45,1545.03122,8/20/20,10:44:27,30.66,49.83,32.45,0.958,8.35,-81.4,-2.5,-8.7,-613,77.2,4.83,13.1,
25.91266067,-80.13776883,06:33.7,8/20/20,8,0.196,150.68,-7.013523908,1.04,158.8,148.98,0.91,-4.8,32.7,2.09,3.7,5.79,94,22,508.5,16.2,-1.3,D,1518.5,0,37.633,2,2,128,241.66,-80.1381,25.9125,0,0,0,N,0,90,90,11,120,120,223.0726,0,9999.99,3.71,3.837,2,9,31,0,31,32.44,1545.02071,8/20/20,10:44:28,30.66,49.81,32.44,0.945,8.37,-82.5,-1.3,-3.8,-1444,77.2,4.83,13.1,
25.91266,-80.13776867,06:34.7,8/20/20,9,0.105,150.68,-7.013524045,1.04,159.2,149.36,1.09,-4.34,32.7,2.11,3.71,5.82,94,22,508.5,16.2,-1.3,D,1518.5,0,37.613,2,2,128,241.77,-80.1381,25.9125,0,0,0,N,0,90,90,11,130,130,223.0726,0,9999.99,3.72,3.847,2,9,31,0,31,32.44,1545.02071,8/20/20,10:44:28,30.66,49.81,32.44,0.945,8.37,-82.5,-1.3,-3.8,-1444,77.2,4.83,13.1,
25.91265933,-80.13776867,06:35.7,8/20/20,9,0.136,150.68,-7.013524051,1.04,159.2,149.36,1.38,-4.27,32.6,2.07,3.7,5.77,94,22,508.5,16.2,-1.3,D,1518.5,0,37.578,2,2,128,241.87,-80.1381,25.9125,0,0,0,N,0,90,90,11,145,145,223.0726,0,9999.99,3.71,3.837,2,9,31,0,31,32.44,1545.01989,8/20/20,10:44:29,30.66,49.81,32.44,0.953,8.39,-83.5,-1.7,-1.3,-312,77.2,4.83,13,
25.91265833,-80.13776867,06:36.7,8/20/20,9,0.143,150.68,-7.013523957,1.04,159.5,149.65,0.6,-4.57,32.7,2.08,3.71,5.79,94,22,508.5,16.2,-1.3,D,1518.5,0,37.525,2,2,128,242.02,-80.1381,25.9125,0,0,0,N,0,90,90,11,161,161,223.0726,0,9999.99,3.72,3.847,2,9,31,0,31,32.44,1545.01795,8/20/20,10:44:31,30.66,49.82,32.44,0.932,8.36,-81.8,-1.2,-1.7,-3235,77.1,4.83,13.1,
25.912657,-80.13776917,06:37.7,8/20/20,9,0.178,150.68,-7.013523817,1.04,159.3,149.46,0.96,-4.06,32.7,2.09,3.71,5.8,94,23,508.5,16.2,-1.4,D,1486.5,0,37.412,2,2,128,242.18,-80.1381,25.9125,0,0,0,N,0,90,90,11,177,177,223.0726,0,9999.99,3.72,3.847,2,9,31,0,31,32.44,1545.01795,8/20/20,10:44:31,30.66,49.82,32.44,0.932,8.36,-81.8,-1.2,-1.7,-3235,77.1,4.83,13.1,
25.91265633,-80.13777017,06:38.7,8/20/20,9,0.121,150.68,-7.013523329,1.04,159.8,149.94,1.22,-2.69,32.6,2.08,3.7,5.78,94,23,508.5,16.2,-1.4,D,1486.5,0,37.289,2,2,128,242.21,-80.1381,25.9125,0,0,0,N,0,90,90,11,193,193,223.0726,0,9999.99,3.71,3.837,2,9,31,0,31,32.45,1545.02856,8/20/20,10:44:33,30.66,49.82,32.45,0.966,8.36,-81.6,-2.7,1,-2249,77.2,4.83,13.1,
25.9126555,-80.13777133,06:39.7,8/20/20,9,0.096,150.68,-7.013522634,1.04,160,150.14,1.03,-5.42,32.6,2.08,3.71,5.79,94,23,508.5,16.2,-1.4,D,1493.8,0,37.142,2,2,128,242.26,-80.1381,25.9125,0,0,0,N,0,90,90,11,209,209,223.0726,0,9999.99,3.72,3.847,2,9,31,0,31,32.45,1545.02856,8/20/20,10:44:33,30.66,49.82,32.45,0.966,8.36,-81.6,-2.7,1,-2249,77.2,4.83,13.1,
25.91265517,-80.137772,06:40.7,8/20/20,10,0.006,150.68,-7.013521815,1.04,160.8,150.91,0.97,-3.82,32.6,2.1,3.7,5.81,94,23,508.5,16.2,-1.4,D,1493.8,0,37.066,2,2,128,242.26,-80.1381,25.9125,0,0,0,N,0,90,90,11,225,225,223.0726,0,9999.99,3.71,3.837,2,9,31,0,31,32.45,1545.02781,8/20/20,10:44:34,30.66,49.83,32.45,0.94,8.38,-82.8,-2.5,-4.8,77,77.2,4.83,13.1,
25.91265467,-80.13777217,06:41.7,8/20/20,10,0.058,150.68,-7.013521367,1.04,161.1,151.2,1.38,-4.57,32.7,2.1,3.7,5.8,94,23,508.5,16.2,-1.4,D,1493.8,0,37.025,2,2,128,242.32,-80.1381,25.9125,0,0,0,N,0,90,90,11,241,241,223.0726,0,9999.99,3.71,3.837,2,9,31,0,31,32.45,1545.03058,8/20/20,10:44:36,30.66,49.83,32.45,0.954,8.38,-83.1,-2.4,-2.1,-3126,77.2,4.83,12.9,
25.91265383,-80.13777217,06:42.8,8/20/20,9,0.137,150.68,-7.013521197,1.04,161.2,151.3,1.13,-4.86,32.7,2.09,3.7,5.79,94,22,508.4,16.2,-1.4,D,1505.5,0,36.982,2,2,128,242.45,-80.1381,25.9125,0,0,0,N,0,90,90,11,250,250,223.0726,0,9999.99,3.71,3.837,2,9,31,0,31,32.45,1545.03136,8/20/20,10:44:37,30.66,49.83,32.45,0.965,8.36,-81.6,-2.4,-2.1,-590,77.2,4.83,12.9,
25.91265417,-80.13777267,06:43.8,8/20/20,9,0.157,150.68,-7.01352108,1.04,161.6,151.68,0.81,-4.08,32.7,2.1,3.7,5.8,94,22,508.4,16.2,-1.4,D,1505.5,0,36.955,2,2,128,242.36,-80.1381,25.9125,0,0,0,N,0,90,90,11,250,250,223.0726,0,9999.99,3.71,3.837,2,9,31,0,31,32.45,1545.03136,8/20/20,10:44:37,30.66,49.83,32.45,0.965,8.36,-81.6,-2.4,-2.1,-590,77.2,4.83,12.9,
25.91265417,-80.13777283,06:44.8,8/20/20,9,0.054,150.68,-7.013520826,1.04,161.9,151.97,1.14,-3.78,32.7,2.09,3.7,5.79,94,22,508.4,16.2,-1.4,D,1505.5,0,36.941,2,2,128,242.35,-80.1381,25.9125,0,0,0,N,0,90,90,11,250,250,223.0726,0,9999.99,3.71,3.837,2,9,31,0,31,32.44,1545.02031,8/20/20,10:44:38,30.66,49.81,32.44,0.954,8.38,-82.7,-2.4,3.6,638,77.2,4.83,13,
25.912654,-80.13777267,06:45.8,8/20/20,9,0.056,150.68,-7.013520726,1.04,162.4,152.46,1.4,-4.03,32.7,2.12,3.7,5.82,94,22,508.4,16.2,-1.4,D,1505.5,0,36.947,2,2,128,242.39,-80.1381,25.9125,0,0,0,N,0,90,90,11,250,250,223.0726,0,9999.99,3.71,3.837,2,9,31,0,31,32.43,1545.0121,8/20/20,10:44:40,30.66,49.81,32.43,0.967,8.42,-85.4,-2.1,-2.2,-2681,77.2,4.83,13.1,
25.912654,-80.13777267,06:46.8,8/20/20,9,0.09,150.68,-7.013520803,1.04,162.7,152.75,0.85,-4.2,32.7,2.11,3.71,5.82,94,22,508.4,16.2,-1.3,D,1519.4,0,36.947,2,2,128,242.39,-80.1381,25.9125,0,0,0,N,0,90,90,11,244,244,223.0726,0,9999.99,3.72,3.847,2,9,31,0,31,32.43,1545.0121,8/20/20,10:44:40,30.66,49.81,32.43,0.967,8.42,-85.4,-2.1,-2.2,-2681,77.2,4.83,13.1,
25.91265383,-80.137773,06:47.8,8/20/20,9,0.049,150.68,-7.013520803,1.04,163.4,153.43,1.15,-4.22,32.7,2.11,3.7,5.81,94,22,508.4,16.2,-1.3,D,1519.4,0,36.908,2,2,128,242.39,-80.1381,25.9125,0,0,0,N,0,90,90,11,228,228,223.0726,0,9999.99,3.71,3.837,2,9,31,0,31,32.44,1545.01918,8/20/20,10:44:42,30.67,49.81,32.44,0.969,8.38,-83.1,-2.9,-1.8,-1897,77.2,4.83,13.1,
25.912654,-80.137773,06:48.8,8/20/20,9,0.014,150.68,-7.013520579,1.04,164.4,154.4,1.27,-4.15,32.7,2.07,3.7,5.77,94,22,508.4,16.2,-1.3,D,1519.4,0,36.917,2,2,128,242.36,-80.1381,25.9125,0,0,0,N,0,90,90,11,212,212,223.0726,0,9999.99,3.71,3.837,2,9,31,0,31,32.46,1545.04076,8/20/20,10:44:43,30.67,49.85,32.46,0.98,8.37,-82.5,-2.6,-4.7,657,77.1,4.83,13.1,
25.91265417,-80.13777317,06:49.8,8/20/20,9,0.017,150.68,-7.013520602,1.04,164.2,154.21,1.36,-4.53,32.7,2.12,3.7,5.81,94,22,508.4,16.2,-1.3,D,1518.2,0,36.911,2,2,128,242.33,-80.1381,25.9125,0,0,0,N,0,90,90,11,196,196,223.0726,0,9999.99,3.71,3.837,2,9,31,0,31,32.46,1545.04076,8/20/20,10:44:43,30.67,49.85,32.46,0.98,8.37,-82.5,-2.6,-4.7,657,77.1,4.83,13.1,
25.91265483,-80.137773,06:50.8,8/20/20,9,0.13,150.68,-7.013520525,1.04,165.2,155.18,0.78,-4.43,32.7,2.1,3.71,5.81,94,22,508.4,16.2,-1.3,D,1518.2,0,36.96,2,2,128,242.24,-80.1381,25.9125,0,0,0,N,0,90,90,11,181,181,223.0726,0,9999.99,3.72,3.847,2,9,31,0,31,32.44,1545.01922,8/20/20,10:44:45,30.67,49.82,32.44,0.966,8.4,-84,-1.5,2.6,-3100,77.1,4.83,12.9,
25.91265483,-80.13777267,06:51.8,8/20/20,9,0.036,150.68,-7.013520719,1.04,165.1,155.08,0.78,-4.97,32.7,2.11,3.7,5.81,94,22,508.4,16.2,-1.3,D,1518.2,0,36.99,2,2,128,242.26,-80.1381,25.9125,0,0,0,N,0,90,90,11,165,165,223.0726,0,9999.99,3.71,3.837,2,9,31,0,31,32.44,1545.01937,8/20/20,10:44:46,30.67,49.82,32.44,0.986,8.39,-83.2,-3,-4.5,-5239,77.1,4.83,13.1,
25.91265517,-80.13777267,06:52.8,8/20/20,9,0.013,150.68,-7.01352092,1.04,165.9,155.86,1.65,-4.06,32.7,2.08,3.7,5.79,94,22,508.4,16.2,-1.3,D,1518.2,0,37.007,2,2,128,242.21,-80.1381,25.9125,0,0,0,N,0,90,90,11,153,153,223.0726,0,9999.99,3.71,3.837,2,9,31,0,31,32.44,1545.02161,8/20/20,10:44:47,30.67,49.81,32.44,0.98,8.37,-82.1,-3.9,-5.9,-2270,77.1,4.83,13,
25.91265517,-80.1377725,06:53.8,8/20/20,9,0.214,150.68,-7.013520967,1.04,165.7,155.67,0.56,-3.8,32.6,2.07,3.7,5.77,94,23,508.4,16.2,-1.4,D,1494.6,0,37.022,2,2,128,242.22,-80.1381,25.9125,0,0,0,N,0,90,90,11,153,153,223.0726,0,9999.99,3.71,3.837,2,9,31,0,31,32.44,1545.02161,8/20/20,10:44:47,30.67,49.81,32.44,0.98,8.37,-82.1,-3.9,-5.9,-2270,77.1,4.83,13,
25.91265533,-80.13777283,06:54.8,8/20/20,8,0.163,150.68,-7.013521067,1.04,166.5,156.45,0.94,-4.68,32.7,2.12,3.7,5.82,94,23,508.4,16.2,-1.4,D,1494.6,0,37.001,2,2,128,242.17,-80.1381,25.9125,0,0,0,N,0,90,90,11,153,153,223.0726,0,9999.99,3.71,3.837,2,9,31,0,31,32.44,1545.01781,8/20/20,10:44:48,30.67,49.81,32.44,0.924,8.38,-82.7,-2.7,-2.2,-1977,77.1,4.83,13,
25.91265567,-80.1377735,06:55.8,8/20/20,8,0.072,150.68,-7.01352089,1.04,166.5,156.45,1.43,-3.43,32.7,2.09,3.7,5.8,94,23,508.4,16.2,-1.4,D,1494.6,0,36.959,2,2,128,242.07,-80.1381,25.9125,0,0,0,N,0,90,90,11,153,153,223.0726,0,9999.99,3.71,3.837,2,9,31,0,31,32.43,1545.00927,8/20/20,10:44:50,30.67,49.81,32.43,0.984,8.38,-82.9,-1.9,2.4,195,77.1,4.83,13.1,
25.91265617,-80.1377735,06:56.8,8/20/20,10,0.153,150.68,-7.013520536,1.04,166.7,156.65,0.25,-4.71,32.7,2.13,3.71,5.83,94,22,508.3,16.2,-1.3,D,1552.7,0,36.985,2,2,128,242,-80.1381,25.9125,0,0,0,N,0,84,84,11,153,153,223.0726,0,9999.99,3.72,3.847,2,9,31,0,31,32.43,1545.00927,8/20/20,10:44:50,30.67,49.81,32.43,0.984,8.38,-82.9,-1.9,2.4,195,77.1,4.83,13.1,
25.91265633,-80.13777367,06:57.8,8/20/20,9,0.027,150.68,-7.013520606,1.04,167.4,157.33,1.32,-3.86,32.7,2.08,3.71,5.78,94,22,508.3,16.2,-1.3,D,1552.7,0,36.979,2,2,128,241.96,-80.1381,25.9125,0,0,0,N,0,68,68,11,153,153,223.0726,0,9999.99,3.71,3.837,2,9,31,0,31,32.43,1545.01209,8/20/20,10:44:51,30.67,49.81,32.43,0.942,8.39,-83.6,-2.3,-2.9,125,77.1,4.83,13.1,
25.91265667,-80.137774,06:58.8,8/20/20,9,0.013,150.68,-7.013520529,1.04,167.4,157.33,1.48,-4.22,32.7,2.03,3.71,5.74,94,22,508.3,16.2,-1.3,D,1552.7,0,36.967,2,2,128,241.88,-80.1381,25.9125,0,0,0,N,0,53,53,11,153,153,223.0726,0,9999.99,3.72,3.847,2,9,31,0,31,32.44,1545.01851,8/20/20,10:44:52,30.67,49.82,32.44,1.012,8.39,-83.7,-2,-4.5,-1427,77.2,4.83,13.1,
25.91265667,-80.137774,06:59.8,8/20/20,9,0.039,150.68,-7.013520376,1.04,168.4,158.31,1.08,-4.34,32.7,2.11,3.7,5.81,94,22,508.3,16.2,-1.3,D,1552.7,0,36.967,2,2,128,241.88,-80.1381,25.9125,0,0,0,N,0,48,48,11,153,153,223.0726,0,9999.99,3.72,3.847,2,9,31,0,31,32.44,1545.01765,8/20/20,10:44:53,30.67,49.81,32.44,0.945,8.38,-83,-3.3,-3.7,-2565,77.2,4.83,12.9,
25.91265667,-80.13777433,07:00.8,8/20/20,8,0.084,150.68,-7.013520376,1.04,167.8,157.72,1.16,-3.68,32.7,2.1,3.71,5.81,94,22,508.3,16.2,-1.4,D,1496.6,0,36.938,2,2,128,241.86,-80.1381,25.9125,0,0,0,N,0,34,34,11,153,153,223.0726,0,9999.99,3.72,3.847,2,9,31,0,31,32.44,1545.01939,8/20/20,10:44:55,30.67,49.81,32.44,0.969,8.38,-82.8,-2.4,-2,-2362,77.2,4.83,13,
25.9126575,-80.1377745,07:01.8,8/20/20,9,0.288,150.68,-7.013520176,1.04,168.7,158.6,0.95,-5.4,32.7,2.12,3.71,5.82,94,22,508.3,16.2,-1.4,D,1496.6,0,36.967,2,2,128,241.72,-80.1381,25.9125,0,0,0,N,0,18,18,11,153,153,223.0726,0,9999.99,3.72,3.847,2,9,31,0,31,32.44,1545.01939,8/20/20,10:44:55,30.67,49.81,32.44,0.969,8.38,-82.8,-2.4,-2,-2362,77.2,4.83,13,
25.91265817,-80.13777417,07:02.8,8/20/20,9,0.076,150.68,-7.013520193,1.04,168.7,158.6,1.47,-3.37,32.8,2.11,3.71,5.82,94,22,508.3,16.2,-1.4,D,1496.6,0,37.032,2,2,128,241.65,-80.1381,25.9125,0,0,0,N,0,5,5,11,153,153,223.0726,0,9999.99,3.72,3.847,2,9,31,0,31,32.43,1545.00958,8/20/20,10:44:56,30.68,49.81,32.43,0.958,8.42,-85.5,-3,-2.8,-890,77.1,4.83,13.1,
25.91265833,-80.137774,07:03.8,8/20/20,9,0.103,150.68,-7.013520487,1.04,169,158.9,1.36,-4.72,32.7,2.08,3.71,5.79,94,22,508.3,16.2,-1.4,D,1496.6,0,37.055,2,2,128,241.63,-80.1381,25.9125,0,0,0,N,0,5,5,11,153,153,223.0726,0,9999.99,3.72,3.847,2,9,31,0,31,32.43,1545.01078,8/20/20,10:44:57,30.67,49.8,32.43,0.979,8.37,-82.3,-2.3,-0.4,-613,77.1,4.83,12.9,
25.91265833,-80.13777433,07:04.8,8/20/20,9,0.113,150.68,-7.01352061,1.04,169.9,159.78,1.27,-4.49,32.7,2.09,3.71,5.8,94,22,508.3,16.2,-1.3,D,1550.2,0,37.026,2,2,128,241.61,-80.1381,25.9125,0,0,0,N,0,5,5,11,153,153,223.0726,0,9999.99,3.72,3.847,2,9,31,0,31,32.44,1545.02148,8/20/20,10:44:59,30.68,49.82,32.44,0.947,8.41,-84.5,-3.1,-9,50,77.1,4.83,13,
25.91265833,-80.13777383,07:05.8,8/20/20,9,0.118,150.68,-7.01352041,1.04,169.6,159.49,0.87,-3.1,32.7,2.07,3.71,5.78,94,22,508.3,16.2,-1.3,D,1550.2,0,37.07,2,2,131,241.64,-80.1381,25.9125,0,0,0,N,0,5,5,11,153,153,223.0726,0,9999.99,3.72,3.847,2,9,31,0,31,32.44,1545.02148,8/20/20,10:44:59,30.68,49.82,32.44,0.947,8.41,-84.5,-3.1,-9,50,77.1,4.83,13,
25.91265883,-80.13777383,07:06.8,8/20/20,9,0.184,150.68,-7.013520711,1.04,170.4,160.27,1.14,-4.22,32.7,2.09,3.71,5.8,94,22,508.3,16.2,-1.3,D,1550.2,0,37.096,2,2,135,241.57,-80.1381,25.9125,0,0,0,N,0,5,5,11,153,153,223.0726,0,9999.99,3.72,3.847,2,9,31,0,31,32.44,1545.01976,8/20/20,10:45:00,30.68,49.81,32.44,0.955,8.38,-83.1,-3.2,-1.3,-3000,77.1,4.83,13.1,
25.91265917,-80.13777417,07:07.9,8/20/20,9,0.165,150.68,-7.013520781,1.04,171.1,160.96,1.47,-2.72,32.7,2.1,3.71,5.81,94,22,508.3,16.2,-1.3,D,1514.7,0,37.084,2,2,149,241.49,-80.1381,25.9125,0,0,0,N,0,5,5,11,153,153,223.0726,0,9999.99,3.72,3.847,0,0,31,0,31,32.45,1545.03262,8/20/20,10:45:01,30.67,49.83,32.45,0.97,8.36,-81.5,-2.6,-1.1,-2951,77.1,4.83,13,
25.91265933,-80.13777417,07:08.9,8/20/20,8,0.079,150.68,-7.013520627,1.04,172,161.85,1.31,-3.56,32.8,2.09,3.71,5.79,94,22,508.3,16.2,-1.3,D,1514.7,0,37.093,2,2,150,241.47,-80.1381,25.9125,0,0,0,N,0,5,5,11,153,153,223.0726,0,9999.99,3.72,3.847,2,9,31,0,31,32.45,1545.03097,8/20/20,10:45:02,30.67,49.83,32.45,0.949,8.37,-82.6,-2.5,0.3,-2902,77.1,4.82,13,
25.91265883,-80.137774,07:09.9,8/20/20,8,0.186,150.68,-7.013520651,1.04,172.1,161.95,2.04,-1.15,32.7,2.1,3.71,5.81,94,22,508.3,16.2,-1.3,D,1514.7,0,37.082,2,2,162,241.56,-80.1381,25.9125,0,0,0,N,0,5,5,11,153,153,223.0726,0,9999.99,3.72,3.847,2,9,31,0,31,32.45,1545.0308,8/20/20,10:45:04,30.67,49.84,32.45,0.958,8.38,-82.7,-0.9,-0.8,531,77.1,4.82,13.1,
25.91265767,-80.137774,07:10.9,8/20/20,8,0.287,150.68,-7.013520681,1.04,173,162.84,1.76,-1.56,32.7,2.07,3.7,5.77,94,22,508.3,16.2,-1.3,D,1514.7,0,37.02,2,2,162,241.73,-80.1381,25.9125,0,0,0,N,0,5,5,11,153,153,223.0726,0,9999.99,3.72,3.847,2,9,31,0,31,32.43,1545.01001,8/20/20,10:45:05,30.67,49.8,32.43,0.945,8.39,-83.5,-2.9,-1.7,-3036,77.1,4.82,12.8,
25.91265533,-80.13777367,07:11.9,8/20/20,8,0.606,150.68,-7.013520517,1.04,174.3,164.13,1.66,-0.54,32.7,2.08,3.68,5.77,94,29,508.2,16.2,-1.8,D,1173.6,0,36.927,2,2,162,242.11,-80.1381,25.9125,0,0,0,N,0,5,5,11,153,153,223.0726,0,9999.99,3.7,3.827,2,9,31,0,31,32.43,1545.00861,8/20/20,10:45:06,30.67,49.81,32.43,0.959,8.42,-85.4,-3.8,-1.3,-1413,77.1,4.82,13.1,
25.91265183,-80.13777283,07:12.9,8/20/20,8,0.819,159.75,-7.013520389,1.04,175.6,165.42,2.16,-1.57,32.7,2.12,3.67,5.79,94,29,508.2,16.2,-1.8,D,1173.6,0,36.821,2,2,162,242.71,-80.1381,25.9125,0,0,0,N,0,5,5,11,154,154,223.0726,0,9999.99,3.69,3.817,2,9,31,0,31,32.43,1545.01169,8/20/20,10:45:07,30.66,49.81,32.43,0.955,8.35,-81.2,-2.1,-1.9,-1219,77,4.82,13.2,
25.91264783,-80.13777233,07:13.9,8/20/20,9,0.87,167.71,-7.013520398,1.04,175.9,165.72,2.18,-0.24,32.7,2.12,3.67,5.8,94,29,508.2,16.2,-1.8,D,1173.6,0,36.664,2,2,162,243.36,-80.1381,25.9125,0,0,0,N,0,5,5,11,164,164,223.0726,0,9999.99,3.69,3.817,2,9,31,0,31,32.44,1545.0223,8/20/20,10:45:08,30.66,49.82,32.44,0.942,8.37,-82.6,-3.1,-2.5,-1743,77,4.82,13.2,
25.91264333,-80.13777133,07:14.9,8/20/20,9,1.027,166.56,-7.013520136,1.04,177.7,167.51,1.58,-0.39,32.7,2.08,3.66,5.75,94,29,508.2,16.2,-1.8,D,1170.3,0,36.532,2,2,162,244.13,-80.1381,25.9125,0,0,0,N,0,5,5,11,179,179,223.0726,0,9999.99,3.68,3.807,2,9,31,0,31,32.43,1545.00907,8/20/20,10:45:09,30.66,49.8,32.43,0.946,8.38,-82.6,-2.4,2.1,-1868,77,4.82,12.9,
25.9126385,-80.13777017,07:15.9,8/20/20,9,1.099,167.68,-7.013520104,1.04,180.5,170.31,1.65,-1.08,32.7,2.12,3.64,5.76,94,29,508.2,16.2,-1.8,D,1170.3,0,36.406,2,2,162,244.97,-80.1381,25.9125,0,0,0,N,0,5,5,11,195,195,223.0726,0,9999.99,3.66,3.787,2,9,31,0,31,32.43,1545.01139,8/20/20,10:45:10,30.66,49.8,32.43,0.964,8.4,-83.9,-0.9,0.8,223,77,4.82,13.1,
25.91263283,-80.13776883,07:16.9,8/20/20,8,1.218,169.34,-7.013520126,1.04,184.5,174.33,2.26,-0.69,32.8,2.09,3.62,5.71,94,29,508.2,16.2,-1.8,D,1170.3,0,36.266,2,2,162,245.97,-80.1381,25.9125,0,0,0,N,0,5,5,11,209,209,223.0726,0,9999.99,3.64,3.767,2,9,31,0,31,32.44,1545.01906,8/20/20,10:45:11,30.66,49.82,32.44,0.988,8.38,-82.9,-3.3,3.1,-2891,77,4.82,13,
25.9126275,-80.13776767,07:18.0,8/20/20,8,1.104,171.59,-7.013520131,1.04,188.1,177.98,2.57,-1.22,32.7,2.1,3.6,5.7,94,29,508.2,16.2,-1.8,D,1170.3,0,36.136,2,2,162,246.9,-80.1381,25.9125,0,0,0,N,0,5,5,11,225,225,223.0726,0,9999.99,3.62,3.747,2,9,31,0,31,32.43,1545.00966,8/20/20,10:45:12,30.65,49.81,32.43,0.975,8.38,-83.1,-2.7,1.6,-6,77,4.82,13.1,
25.91262217,-80.13776817,07:19.0,8/20/20,9,1.025,178.57,-7.013520082,1.04,195.1,185.13,1.9,-2.88,32.8,2.14,3.58,5.72,94,29,508.2,16.2,-1.8,D,1172.7,0,35.861,2,2,162,247.74,-80.1381,25.9125,0,0,0,N,0,5,5,11,241,241,223.0726,0,9999.99,3.6,3.727,2,9,31,0,31,32.44,1545.02331,8/20/20,10:45:13,30.65,49.82,32.44,0.958,8.42,-85.6,-3,-1.6,-337,76.9,4.81,12.9,
25.9126175,-80.137769,07:20.1,8/20/20,9,1.039,181.46,-7.013519032,1.04,201.1,191.31,1.74,-1.64,32.7,2.09,3.54,5.63,94,29,508.2,16.2,-1.8,D,1172.7,0,35.59,2,2,128,248.46,-80.1381,25.9125,0,0,0,N,0,5,5,11,250,250,223.0726,0,9999.99,3.56,3.687,2,9,31,0,31,32.46,1545.04155,8/20/20,10:45:14,30.66,49.84,32.46,0.968,8.34,-80.4,-2.6,-7.2,-1665,76.9,4.81,13.1,
25.91261233,-80.13777017,07:21.1,8/20/20,8,1.115,183.74,-7.013517874,1.04,206,196.4,1.57,-6.47,32.7,2.11,3.42,5.53,94,29,508.2,16.2,-1.8,D,1172.7,0,35.274,2,2,128,249.26,-80.1381,25.9125,0,0,0,N,0,5,5,11,250,250,223.0726,0,9999.99,3.44,3.567,2,9,31,0,31,32.43,1545.00942,8/20/20,10:45:15,30.66,49.81,32.43,0.972,8.39,-83.6,-3.1,-5.6,-3631,76.8,4.81,13,
25.9126085,-80.13777183,07:22.1,8/20/20,8,0.841,183.74,-7.013516446,1.04,212.1,202.76,2.64,-3.16,32.7,2.09,3.2,5.3,94,22,508.2,16.2,-1.3,D,1518.8,0,34.969,2,2,128,249.82,-80.1381,25.9125,0,0,0,N,0,5,5,11,250,250,223.0726,0,9999.99,3.22,3.347,2,9,31,0,31,32.45,1545.03317,8/20/20,10:45:16,30.65,49.83,32.45,0.971,8.36,-82,-2.6,-6.4,-3577,76.8,4.8,13.2,
25.91260583,-80.137774,07:23.1,8/20/20,9,0.681,183.74,-7.013514905,1.04,217.2,208.11,2.16,-3.24,32.7,2.11,3.2,5.32,94,22,508.2,16.2,-1.3,D,1518.8,0,34.664,2,2,128,250.15,-80.1381,25.9125,0,0,0,N,0,5,5,11,250,250,223.0726,0,9999.99,3.22,3.347,2,9,31,0,31,32.44,1545.01904,8/20/20,10:45:17,30.65,49.82,32.44,0.936,8.39,-83.5,-3.9,-3.1,-2899,76.7,4.8,13,
25.91260083,-80.137777,07:24.1,8/20/20,9,0.608,183.74,-7.013511751,1.04,221.8,212.94,1.05,-4.92,32.7,2.1,3.15,5.25,94,22,508.2,16.2,-1.3,D,1518.8,0,34.392,2,2,128,250.52,-80.1381,25.9125,0,0,0,N,0,5,5,11,250,250,223.0726,0,9999.99,3.17,3.297,2,9,31,0,31,32.44,1545.01947,8/20/20,10:45:18,30.66,49.81,32.44,0.949,8.38,-82.6,-2.1,0.3,-94,76.6,4.8,13.1,
25.91259833,-80.13777783,07:25.2,8/20/20,9,0.743,183.74,-7.013510721,1.04,226.9,218.31,1.42,-2.56,32.7,2.11,3.08,5.19,94,22,508.2,16.2,-1.3,D,1518.8,0,34.196,2,2,128,250.86,-80.1381,25.9125,0,0,0,N,0,5,5,11,250,250,223.0726,0,9999.99,3.09,3.217,2,9,31,0,31,32.44,1545.01987,8/20/20,10:45:19,30.66,49.81,32.44,0.963,8.38,-82.8,-4.6,-2.3,-626,76.6,4.79,13.1,
25.912596,-80.13777933,07:26.2,8/20/20,9,0.551,183.74,-7.013509869,1.04,232.5,224.22,1.55,-6.21,32.7,2.11,3.18,5.29,94,22,508.1,16.2,-1.3,D,1549.9,0,33.802,2,2,128,251.59,-80.1381,25.9125,0,0,0,N,0,5,5,11,250,250,223.0726,0,9999.99,3.19,3.317,2,9,31,0,31,32.43,1545.00898,8/20/20,10:45:20,30.66,49.81,32.43,0.943,8.41,-84.9,-3.5,-1.3,-889,76.5,4.79,13.1,
25.91259433,-80.13778067,07:27.2,8/20/20,9,0.433,183.74,-7.013508639,1.04,235.8,227.69,1.22,-4.19,32.7,2.1,3.25,5.36,94,22,508.1,16.2,-1.3,D,1549.9,0,0,2,2,162,0,-80.13778067,25.91259433,0,0,6,N,0,43,43,25,250,250,251.5906,0,9999.99,3.27,3.397,2,9,31,0,31,32.43,1545.01013,8/20/20,10:45:22,30.67,49.8,32.43,0.943,8.35,-81.2,-4.2,-2.3,-3020,76.4,4.78,13.1,
25.91259333,-80.13778233,07:28.2,8/20/20,8,0.38,183.74,-7.013507603,1.04,240,232.12,1.22,-2.52,32.7,2.12,3.21,5.33,94,22,508.1,16.2,-1.3,D,1549.9,0,0.212,2,2,128,56.29,-80.13778067,25.91259433,0,0,6,N,0,43,43,25,250,250,0,0,9999.99,3.22,3.347,2,9,31,0,31,32.43,1545.01013,8/20/20,10:45:22,30.67,49.8,32.43,0.943,8.35,-81.2,-4.2,-2.3,-3020,76.4,4.78,13.1,
25.912592,-80.137784,07:29.2,8/20/20,8,0.4,183.74,-7.01350646,1.04,243.5,235.8,1.78,-5.58,32.7,2.06,3.2,5.26,94,23,508.1,16.2,-1.4,D,1480.4,0,0.414,2,2,128,52.11,-80.13778067,25.91259433,0,0,6,N,0,43,43,25,5,5,56.29411,0,9999.99,3.21,3.337,2,9,31,0,31,32.44,1545.0177,8/20/20,10:45:23,30.67,49.82,32.44,0.964,8.37,-82.2,-3.2,-0.2,-1108,76.4,4.78,13,
25.91259117,-80.1377855,07:30.2,8/20/20,8,0.33,183.74,-7.013505271,1.04,245.1,237.48,1.33,-3.45,32.7,2.05,3.21,5.27,94,23,508.1,16.2,-1.4,D,1480.4,0,0.593,2,2,128,53.93,-80.13778067,25.91259433,0,0,6,N,0,43,43,25,250,250,52.1084,0,9999.99,3.23,3.357,2,9,31,0,31,32.42,1544.99554,8/20/20,10:45:25,30.66,49.79,32.42,0.945,8.38,-83.1,-3.3,-3.7,1046,76.2,4.77,12.9,
25.9125905,-80.13778683,07:31.2,8/20/20,8,0.314,183.74,-7.013504252,1.04,248.6,241.15,1.22,-5.56,32.6,2.11,3.21,5.31,94,23,508.1,16.2,-1.4,D,1480.4,0,0.748,2,2,128,55.35,-80.13778067,25.91259433,0,0,6,N,0,43,43,25,250,250,53.93022,0,9999.99,3.22,3.347,2,9,31,0,31,32.42,1544.99554,8/20/20,10:45:25,30.66,49.79,32.42,0.945,8.38,-83.1,-3.3,-3.7,1046,76.2,4.77,12.9,
25.91259017,-80.1377885,07:32.2,8/20/20,9,0.356,183.74,-7.013503357,1.04,249.7,242.31,1.46,-3.2,32.7,2.09,3.2,5.29,94,23,508.1,16.2,-1.4,D,1480.4,0,0.911,2,2,128,59.4,-80.13778067,25.91259433,0,0,6,N,0,43,43,25,250,250,55.35149,0,9999.99,3.21,3.337,2,9,31,0,31,32.44,1545.0203,8/20/20,10:45:26,30.66,49.82,32.44,0.955,8.35,-81.4,-3.2,-4.9,-2353,76.1,4.76,13,
25.9125895,-80.13779033,07:33.2,8/20/20,9,0.348,183.74,-7.013502308,1.04,251.7,244.4,1.22,-5.55,32.7,2.09,3.17,5.25,94,22,508.1,16.2,-1.3,D,1553.1,0,1.103,2,2,128,60.93,-80.13778067,25.91259433,0,0,6,N,0,43,43,25,250,250,59.40119,0,9999.99,3.18,3.307,2,9,31,0,31,32.44,1545.02143,8/20/20,10:45:27,30.65,49.81,32.44,0.952,8.35,-80.8,-3.4,0.6,203,76.1,4.76,13,
25.912589,-80.13779233,07:34.2,8/20/20,9,0.375,183.74,-7.013501112,1.04,252.7,245.45,0.94,-1.74,32.7,2.08,3.15,5.23,94,22,508.1,16.2,-1.3,D,1553.1,0,1.312,2,2,128,63.06,-80.13778067,25.91259433,0,0,6,N,0,43,43,25,250,250,60.93084,0,9999.99,3.16,3.287,2,9,31,0,31,32.43,1545.00956,8/20/20,10:45:28,30.65,49.8,32.43,0.953,8.37,-82.3,-3.6,-3.9,-2660,76,4.76,13.1,
25.91258833,-80.13779367,07:35.2,8/20/20,9,0.229,183.74,-7.013499839,1.04,255.6,248.48,0.96,-2.64,32.7,2.11,3.13,5.24,94,22,508.1,16.2,-1.3,D,1553.1,0,1.462,2,2,128,62.84,-80.13778067,25.91259433,0,0,6,N,0,43,43,25,250,250,63.05848,0,9999.99,3.14,3.267,2,9,31,0,31,32.43,1545.01073,8/20/20,10:45:30,30.64,49.8,32.43,0.964,8.41,-84.9,-2.7,-0.8,-3273,75.9,4.75,13.1,
25.91258733,-80.13779483,07:36.2,8/20/20,9,0.332,183.74,-7.013498944,1.04,258.8,251.82,1.5,-5.77,32.8,2.1,3.11,5.21,94,22,508.1,16.2,-1.3,D,1558.8,0,1.617,2,2,128,61.22,-80.13778067,25.91259433,0,0,6,N,0,43,43,25,250,250,62.8364,0,9999.99,3.12,3.247,2,9,31.1,0,31,32.43,1545.01073,8/20/20,10:45:30,30.64,49.8,32.43,0.964,8.41,-84.9,-2.7,-0.8,-3273,75.9,4.75,13.1,
25.91258733,-80.13779583,07:37.2,8/20/20,8,0.215,183.74,-7.013498102,1.04,260.3,253.38,1.36,-3.5,32.8,2.09,3.07,5.16,94,22,508.1,16.2,-1.3,D,1558.8,0,1.706,2,2,128,62.84,-80.13778067,25.91259433,0,0,6,N,0,43,43,25,250,250,61.21788,0,9999.99,3.08,3.207,2,9,31,0,31,32.44,1545.0224,8/20/20,10:45:31,30.64,49.81,32.44,0.954,8.34,-80.2,-4,-0.7,-3022,75.8,4.75,13,
25.91258717,-80.137797,07:38.2,8/20/20,8,0.276,183.74,-7.013497501,1.04,261.2,254.32,0.91,-2.04,32.7,2.12,3.02,5.13,94,22,508.1,16.2,-1.3,D,1558.8,0,1.819,2,2,128,64,-80.13778067,25.91259433,0,0,6,N,0,43,43,25,250,250,62.8364,0,9999.99,3.03,3.157,2,9,31,0,31,32.43,1545.00969,8/20/20,10:45:32,30.64,49.8,32.43,0.943,8.39,-83.5,-2.6,-1.2,-2147,75.8,4.75,13.1,
25.912587,-80.13779783,07:39.2,8/20/20,10,0.237,183.74,-7.013496776,1.04,264,257.22,1.29,-3.11,32.7,2.1,3.02,5.12,94,22,508.1,16.2,-1.3,D,1558.8,0,1.901,2,2,128,64.6,-80.13778067,25.91259433,0,0,6,N,0,43,43,25,250,250,63.99595,0,9999.99,3.03,3.157,2,9,31.1,0,31.10000038,32.43,1545.21024,8/20/20,10:45:33,30.64,49.8,32.43,0.972,8.36,-81.9,-3.9,-5.8,-2422,75.8,4.74,12.9,
25.91258667,-80.13779883,07:40.2,8/20/20,9,0.232,183.74,-7.013496251,1.04,266.2,259.51,1.11,-3.62,32.7,2.08,2.98,5.06,94,21,508,16.2,-1.3,D,1566.9,0,2.007,2,2,128,64.86,-80.13778067,25.91259433,0,0,6,N,0,43,43,25,250,250,64.59539,0,9999.99,2.99,3.117,2,9,31,0,31,32.42,1545.00073,8/20/20,10:45:34,30.64,49.79,32.42,0.958,8.38,-83,-3.1,-1.4,-1249,75.7,4.74,13.1,
25.91258683,-80.13779967,07:41.2,8/20/20,9,0.18,183.74,-7.013495603,1.04,268.2,261.58,1.22,-2.87,32.7,2.07,2.94,5.01,94,21,508,16.2,-1.3,D,1566.9,0,2.073,2,2,128,66.31,-80.13778067,25.91259433,0,0,6,N,0,43,43,25,250,250,64.8645,0,9999.99,2.95,3.077,2,9,31.1,0,31.10000038,32.42,1545.19809,8/20/20,10:45:36,30.64,49.8,32.42,0.957,8.37,-82.6,-3.7,-1.1,-1383,75.6,4.74,13.1,
25.91258733,-80.13780033,07:42.2,8/20/20,9,0.166,183.74,-7.013495126,1.04,269.7,263.13,1.12,-4.91,32.7,2.09,2.91,5,94,21,508,16.2,-1.3,D,1566.9,0,2.116,2,2,128,68.41,-80.13778067,25.91259433,0,0,6,N,0,43,43,25,250,250,66.3053,0,9999.99,2.92,3.047,2,9,31,0,31.10000038,32.42,1545.19809,8/20/20,10:45:36,30.64,49.8,32.42,0.957,8.37,-82.6,-3.7,-1.1,-1383,75.6,4.74,13.1,
25.91258717,-80.13780117,07:43.2,8/20/20,8,0.193,183.74,-7.013494795,1.04,271.5,264.99,0.95,-3.46,32.7,2.09,2.9,4.99,94,22,508,16.2,-1.3,D,1554.1,0,2.202,2,2,128,68.76,-80.13778067,25.91259433,0,0,6,N,0,43,43,25,250,250,68.41045,0,9999.99,2.91,3.037,2,9,31.1,0,31.10000038,32.43,1545.21156,8/20/20,10:45:37,30.64,49.8,32.43,0.95,8.34,-80.7,-2.9,-1.1,-1016,75.6,4.73,12.9,
25.912587,-80.13780217,07:44.2,8/20/20,9,0.284,183.74,-7.013494271,1.04,272,265.5,1.11,-3.39,32.7,2.07,2.88,4.95,94,22,508,16.2,-1.3,D,1554.1,0,2.3,2,2,128,69.23,-80.13778067,25.91259433,0,0,6,N,0,43,43,25,250,250,68.7604,0,9999.99,2.89,3.017,2,9,31,0,31,32.42,1545.00123,8/20/20,10:45:38,30.64,49.79,32.42,0.968,8.37,-82.1,-2.8,0.6,2107,75.6,4.73,13,
25.9125875,-80.13780317,07:45.2,8/20/20,8,0.273,183.74,-7.013493646,1.04,272.8,266.33,1.13,-5.24,32.7,2.09,2.86,4.95,94,22,508,16.2,-1.3,D,1554.1,0,2.375,2,2,128,71.34,-80.13778067,25.91259433,0,0,6,N,0,43,43,25,250,250,69.23275,0,9999.99,2.87,2.997,2,9,31,0,31,32.43,1545.01116,8/20/20,10:45:39,30.64,49.81,32.43,0.964,8.38,-82.8,-3.2,-2,1534,75.5,4.73,13.2,
25.91258783,-80.13780433,07:46.2,8/20/20,8,0.247,183.74,-7.013493115,1.04,274.1,267.67,1.16,-3.09,32.7,2.11,2.82,4.93,94,22,508,16.2,-1.3,D,1554.1,0,2.474,2,2,128,73.02,-80.13778067,25.91259433,0,0,6,N,0,43,43,25,250,250,71.34271,0,9999.99,2.83,2.957,2,9,31,0,31,32.44,1545.02094,8/20/20,10:45:41,30.64,49.81,32.44,0.948,8.37,-82.1,-2.3,-0.2,-509,75.5,4.72,12.9,
25.91258833,-80.13780517,07:47.2,8/20/20,9,0.207,183.74,-7.013492461,1.04,275.4,269,1.28,-3.79,32.7,2.13,2.81,4.94,94,22,508,16.2,-1.3,D,1555.1,0,2.474,2,2,128,73.02,-80.13778067,25.91259433,0,0,6,N,0,43,43,25,250,250,73.0201,0,9999.99,2.82,2.947,2,9,31,0,31,32.44,1545.02094,8/20/20,10:45:41,30.64,49.81,32.44,0.948,8.37,-82.1,-2.3,-0.2,-509,75.5,4.72,12.9,
25.9125885,-80.13780567,07:48.2,8/20/20,9,0.195,183.74,-7.01349203,1.04,276.1,269.72,1.28,-3.59,32.7,2.1,2.76,4.86,94,22,508,16.2,-1.3,D,1555.1,0,2.539,2,2,128,74.77,-80.13778067,25.91259433,0,0,6,N,0,43,43,25,250,250,74.76917,0,9999.99,2.77,2.897,2,9,31,0,31,32.43,1545.01016,8/20/20,10:45:42,30.64,49.8,32.43,0.953,8.38,-82.7,-3.5,1.3,-1710,75.4,4.72,13.2,
25.91258933,-80.13780633,07:49.2,8/20/20,9,0.236,183.74,-7.013491753,1.04,276.4,270.03,1.28,-3.96,32.7,2.1,2.74,4.84,94,22,508,16.2,-1.3,D,1555.1,0,2.583,2,2,128,75.46,-80.13778067,25.91259433,0,0,6,N,0,43,43,25,250,250,75.45721,0,9999.99,2.75,2.877,2,9,31,0,31,32.42,1544.99982,8/20/20,10:45:43,30.63,49.79,32.42,0.964,8.39,-83.7,-2.8,-2.3,-1709,75.4,4.72,13,
25.91259017,-80.13780733,07:50.2,8/20/20,9,0.212,183.74,-7.01349147,1.04,277.7,271.37,1.15,-3.44,32.7,2.08,2.75,4.83,94,22,508,16.2,-1.3,D,1555.1,0,2.707,2,2,128,80.15,-80.13778067,25.91259433,0,0,6,N,0,43,43,25,250,250,77.77963,0,9999.99,2.76,2.887,2,9,31,0,31,32.41,1544.98939,8/20/20,10:45:45,30.62,49.77,32.41,0.959,8.34,-80.6,-2.5,-2.5,-2630,75.3,4.72,13,
25.912591,-80.137808,07:51.2,8/20/20,9,0.169,183.74,-7.013490986,1.04,278.6,272.29,1.21,-4.13,32.7,2.11,2.68,4.79,94,22,508,16.2,-1.3,D,1540.4,0,2.758,2,2,128,82.28,-80.13778067,25.91259433,0,0,6,N,0,43,43,25,250,250,80.1452,0,9999.99,2.69,2.817,2,9,31.1,0,31,32.41,1544.98939,8/20/20,10:45:45,30.62,49.77,32.41,0.959,8.34,-80.6,-2.5,-2.5,-2630,75.3,4.72,13,
25.91259183,-80.13780867,07:52.2,8/20/20,9,0.206,183.74,-7.013490702,1.04,279,272.7,1.21,-3.28,32.7,2.11,2.68,4.79,94,22,508,16.2,-1.3,D,1540.4,0,2.815,2,2,128,84.33,-80.13778067,25.91259433,0,0,6,N,0,43,43,25,250,250,82.27878,0,9999.99,2.69,2.817,2,9,31,0,31,32.42,1545.00231,8/20/20,10:45:46,30.61,49.79,32.42,0.952,8.36,-81.5,-4.3,-1.4,1261,75.2,4.71,13.1,
25.91259217,-80.13780933,07:53.2,8/20/20,8,0.232,183.74,-7.013490418,1.04,279.7,273.42,1.08,-4.03,32.7,2.08,2.66,4.74,94,22,508,16.2,-1.3,D,1540.4,0,2.876,2,2,128,85.2,-80.13778067,25.91259433,0,0,6,N,0,43,43,25,250,250,84.33106,0,9999.99,2.67,2.797,2,9,31.1,0,31.10000038,32.43,1545.21012,8/20/20,10:45:48,30.61,49.8,32.43,0.962,8.35,-81.2,-3.2,-1.8,-471,75.2,4.71,13.1,
25.9125925,-80.13781,07:54.3,8/20/20,8,0.216,183.74,-7.013490064,1.04,280.9,274.65,1.32,-4.16,32.8,2.1,2.64,4.74,94,21,508,16.2,-1.3,D,1567.8,0,2.94,2,2,128,86.03,-80.13778067,25.91259433,0,0,6,N,0,43,43,25,250,250,86.02513,0,9999.99,2.65,2.777,2,9,31,0,31.10000038,32.43,1545.21012,8/20/20,10:45:48,30.61,49.8,32.43,0.962,8.35,-81.2,-3.2,-1.8,-471,75.2,4.71,13.1,
25.912593,-80.1378105,07:55.3,8/20/20,9,0.129,183.74,-7.01348971,1.04,281.2,274.96,1.34,-3.57,32.7,2.12,2.61,4.73,94,21,508,16.2,-1.3,D,1567.8,0,2.987,2,2,128,87.16,-80.13778067,25.91259433,0,0,6,N,0,43,43,25,250,250,86.02513,0,9999.99,2.62,2.747,2,9,31.1,0,31.10000038,32.42,1545.20297,8/20/20,10:45:49,30.61,49.78,32.42,0.954,8.37,-82.6,-3.7,-4,-2400,75.1,4.71,12.9,
25.912594,-80.13781117,07:56.3,8/20/20,8,0.253,183.74,-7.01348948,1.04,281.6,275.37,0.97,-3.37,32.8,2.11,2.59,4.7,94,21,508,16.2,-1.3,D,1567.8,0,3.051,2,2,128,89.3,-80.13778067,25.91259433,0,0,6,N,0,43,43,25,250,250,89.30385,0,9999.99,2.6,2.727,2,9,31,0,31,32.42,1545.00261,8/20/20,10:45:51,30.61,49.79,32.42,0.975,8.36,-81.9,-4.3,-1.9,-336,75,4.7,13,
25.91259467,-80.13781183,07:57.3,8/20/20,8,0.246,183.74,-7.01348922,1.04,281.3,275.06,1.03,-4.36,32.8,2.11,2.56,4.67,94,21,508,16.2,-1.3,D,1567.8,0,3.118,2,2,128,90.68,-80.13778067,25.91259433,0,0,6,N,0,43,43,25,250,250,90.68124,0,9999.99,2.57,2.697,2,9,31,0,31,32.42,1545.00261,8/20/20,10:45:51,30.61,49.79,32.42,0.975,8.36,-81.9,-4.3,-1.9,-336,75,4.7,13,
25.91259583,-80.13781267,07:58.3,8/20/20,8,0.262,183.74,-7.013488913,1.04,281.5,275.26,1.43,-4.8,32.8,2.09,2.53,4.62,94,22,507.9,16.2,-1.3,D,1532.5,0,3.204,2,2,128,92.98,-80.13778067,25.91259433,0,0,6,N,0,43,43,25,250,250,92.98324,0,9999.99,2.54,2.667,2,9,31,0,31,32.43,1545.00931,8/20/20,10:45:53,30.61,49.8,32.43,0.955,8.35,-81,-2.8,-3.4,1165,74.9,4.69,12.9,
25.912597,-80.13781317,07:59.3,8/20/20,9,0.2,183.74,-7.013488576,1.04,282,275.78,0.86,-3.96,32.8,2.11,2.51,4.62,94,22,507.9,16.2,-1.3,D,1553.8,0,3.264,2,2,128,95.21,-80.13778067,25.91259433,0,0,6,N,0,43,43,25,250,250,92.98324,0,9999.99,2.52,2.647,2,9,31,0,31,32.43,1545.00931,8/20/20,10:45:53,30.61,49.8,32.43,0.955,8.35,-81,-2.8,-3.4,1165,74.9,4.69,12.9,
25.91259767,-80.137814,08:00.3,8/20/20,9,0.256,183.74,-7.01348844,1.04,283,276.8,1.38,-3.92,32.7,2.1,2.49,4.6,94,22,507.9,16.2,-1.3,D,1553.8,0,3.354,2,2,128,96.34,-80.13778067,25.91259433,0,0,6,N,0,43,43,25,250,250,96.34395,0,9999.99,2.5,2.627,2,9,31,0,31,32.41,1544.98953,8/20/20,10:45:54,30.62,49.78,32.41,0.976,8.38,-82.9,-2.2,-3.7,-647,74.9,4.69,13.1,
25.91259733,-80.13781483,08:01.3,8/20/20,9,0.189,183.74,-7.013488032,1.04,283.2,277,1.17,-3.73,32.8,2.12,2.41,4.53,94,22,507.9,16.2,-1.3,D,1553.8,0,3.432,2,2,128,95.58,-80.13778067,25.91259433,0,0,6,N,0,43,43,25,250,250,95.5755,0,9999.99,2.42,2.547,2,9,31,0,31,32.41,1544.98789,8/20/20,10:45:56,30.61,49.78,32.41,0.97,8.35,-81.1,-2.8,-0.8,-1525,74.8,4.69,13.1,
25.912597,-80.13781617,08:02.3,8/20/20,8,0.243,183.74,-7.013487484,1.04,283.4,277.21,1.17,-1.69,32.8,2.11,2.39,4.5,94,22,507.9,16.2,-1.3,D,1553.8,0,3.564,2,2,128,94.77,-80.13778067,25.91259433,0,0,6,N,0,43,43,25,250,250,94.7739,0,9999.99,2.4,2.527,2,9,31,0,31,32.41,1544.98789,8/20/20,10:45:56,30.61,49.78,32.41,0.97,8.35,-81.1,-2.8,-0.8,-1525,74.8,4.69,13.1,
25.912597,-80.13781717,08:03.4,8/20/20,7,0.187,183.74,-7.013486636,1.24,283.1,276.9,1.34,-4.02,32.8,2.08,2.37,4.44,94,22,507.9,16.2,-1.3,D,1530.2,0,3.663,2,2,128,94.64,-80.13778067,25.91259433,0,0,6,N,0,43,43,25,250,250,94.64368,0,9999.99,2.38,2.507,2,9,31,0,31,32.4,1544.97941,8/20/20,10:45:57,30.61,49.77,32.4,0.96,8.36,-81.5,-3,-4.5,-1403,74.8,4.69,12.9,
25.9125975,-80.13781783,08:04.4,8/20/20,7,0.137,183.74,-7.013486035,1.24,283,276.8,1.39,-4.11,32.8,2.09,2.35,4.44,94,22,507.9,16.2,-1.3,D,1530.2,0,3.734,2,2,128,95.41,-80.13778067,25.91259433,0,0,6,N,0,43,43,25,250,250,95.41121,0,9999.99,2.36,2.487,2,9,31,0,31,32.41,1544.98979,8/20/20,10:45:59,30.61,49.78,32.41,0.971,8.37,-82.3,-2.1,1.1,-1295,74.7,4.68,13.1,
25.91259817,-80.1378185,08:05.4,8/20/20,8,0.162,183.74,-7.013485704,1.24,282.1,275.88,1.26,-3.76,32.7,2.1,2.36,4.46,94,22,507.9,16.2,-1.3,D,1530.2,0,3.808,2,2,128,96.43,-80.13778067,25.91259433,0,0,6,N,0,43,43,25,5,5,96.42709,0,9999.99,2.37,2.497,2,9,31,0,31,32.41,1544.98979,8/20/20,10:45:59,30.61,49.78,32.41,0.971,8.37,-82.3,-2.1,1.1,-1295,74.7,4.68,13.1,
25.9125995,-80.13781933,08:06.4,8/20/20,8,0.334,183.74,-7.013485397,1.04,281.9,275.67,1.14,-4.45,32.8,2.06,2.35,4.41,94,23,507.9,16.2,-1.4,D,1491.3,0,3.91,2,2,128,98.45,-80.13778067,25.91259433,0,0,6,N,0,43,43,25,5,5,98.44984,0,9999.99,2.36,2.487,2,9,31,0,31,32.41,1544.98693,8/20/20,10:46:00,30.6,49.77,32.41,0.959,8.36,-81.6,-2.9,-6.2,-4352,74.7,4.68,13.1,
25.91259967,-80.13782,08:07.4,8/20/20,9,0.222,183.74,-7.013485084,1.04,281.2,274.96,1.33,-2.42,32.8,2.1,2.31,4.41,94,23,507.9,16.2,-1.4,D,1491.3,0,3.978,2,2,128,98.57,-80.13778067,25.91259433,0,0,6,N,0,43,43,25,5,5,98.57274,0,9999.99,2.32,2.447,2,9,31,0,31,32.42,1544.99757,8/20/20,10:46:02,30.6,49.78,32.42,0.96,8.36,-81.5,-2.8,-3.4,168,74.6,4.68,13.2,
25.91260067,-80.13782083,08:08.4,8/20/20,8,0.168,183.74,-7.013484706,1.04,280.2,273.93,1.23,-3.38,32.7,2.11,2.27,4.37,94,23,507.9,16.2,-1.4,D,1491.3,0,4.078,2,2,128,99.94,-80.13778067,25.91259433,0,0,6,N,0,43,43,25,5,5,99.94296,0,9999.99,2.28,2.407,2,9,31,0,31,32.42,1544.99757,8/20/20,10:46:02,30.6,49.78,32.42,0.96,8.36,-81.5,-2.8,-3.4,168,74.6,4.68,13.2,
25.9126015,-80.1378215,08:09.4,8/20/20,8,0.175,183.74,-7.013484346,1.04,278.3,271.98,1.25,-4.18,32.7,2.1,2.23,4.33,94,23,507.9,16.2,-1.4,D,1491.3,0,4.161,2,2,128,101.04,-80.13778067,25.91259433,0,0,6,N,0,43,43,25,5,5,101.0413,0,9999.99,2.24,2.367,2,9,31,0,31,32.41,1544.98698,8/20/20,10:46:03,30.6,49.77,32.41,0.963,8.35,-81.3,-2.8,-3.3,-1980,74.5,4.67,13,
